~Version Information
VERS.                            2.0: CWLS Log ASCII STANDARD - VERSION 2.0
WRAP.                             NO: One line per depth step
~Well Information
STRT.M                     1749.9483: FIRST INDEX VALUE
STOP.M                     2729.7675: LAST INDEX VALUE
STEP.M                        0.0999: STEP
NULL.                      -999.2500: NULL VALUE
COMP.                PAN AMERICAN ENERGY L.L.C.: COMPANY
WELL.                PAE.Ch.PLMS-1041: WELL
FLD.                 LA MADRE SELVA SUR: FIELD
LOC.                 X: 4.915.236,49--Y: 2.543.733,51--Z:          701,17: LOCATION
PROV.                         CHUBUT: PROVINCE
SRVC.                          EXPRO: SERVICE COMPANY
DATE.                do. feb. 04 04-26-35 2024: LOG DATE
UWI.                   9702908104100: UNIQUE WELL ID
CTRY.                      ARGENTINA: COUNTRY
SECT.                               : SECTION
TOWN.                               : TOWNSHIP
RANG.                               : RANGE
OS.                  CANASTA--114 mm.: OTHER SERVICES
PDAT.FT                   N. TERRENO: PERMANENT DATUM
EEL.FT                        701,17: ELEVATION
LMF.FT               KB:     4,60 m.: LOG MEASURED FROM
DMF.FT                 KELLY BUSHING: DRILLING MEASURED FROM
EKB.FT                              : KB
EDF.FT                        705,77: DF
EGL.FT                        701,17: GL
DATE1.                    04-02-2024: DATE1
RUN1.                             02: RUN NUMBER
TDD1.FT                       2728 m: DEPTH DRILLER
TDL1.FT                       2726 m: DEPTH LOGGER
BLI1.FT                      2726 m.: BOTTOM LOGGED INTERVAL
TLI1.FT                      1750 m.: TOP LOG INTERVAL
CDD1.IN_FT                          : CASING DRILLER
CDL1.FT                             : CASING LOGGER
BS1.IN                        9.625": BIT SIZE
DFT1.                           AGUA: TYPE FLUID IN HOLE
DFDV1.GM/C3_CP                 LLENO: DENSITY/VISCOSITY
DFPL1.C3                            : PH/FLUID LOSS
MSS1.                               : SOURCE OF SAMPLE
RMT1.OHHM_DEGF                      : RM@MEASURED TEMP
RMFT1.OHMM_DEGF                     : RMF@MEASURED TEMP
RMCT1.OHMM_DEGF                     : RMC@MEASURED TEMP
RMFS1.                              : SOURCE OF RMF/RMC
RMBT1.OHMM_DEGF                     : RM@BHT
TCS1.                               : TIME CIRCULATION STOPPED
TLOB1.                         ARROW: TIME LOGGER ON BOTTOM
BHT1.DEGF                   8.33 PPG: MAXIMUM RECORDED TEMPERATURE
LUN1.                       COMODORO: EQUIPMENT NUMBER
LUL1.                     A. BELTRAN: LOCATION
ENGI1.                  M. HARAMILLA: RECORDED BY
WITN1.                              : WITNESSED BY
COMW.                               : Common Well Name
~Curve Information
DEPT.M                   0 000 00 00: Depth
GR.GAPI                            0: Gamma Ray
AMP3FT.MV                          0: AMP3FT Amplitude
CCL.                               0: Casing Collar Locator
AMPAVG.                            0: Average Sector Amplitude
AMPMAX.                            0: Maximum Sector Amplitude
AMPMIN.                            0: Minimum Sector Amplitude
TT3FT.USEC                         0: 3FT Travel Time
LTEN.LB                            0: Surface Line Tension
Neutron.                           0: SGA1
~Parameter Information
~Other Information
SE TOMA DE REFERENCIA MESA ROTARIA (KB: 4,60 m.).

REGISTRO CORRELACIONADO CON REGISTRO PERFILES COMBINADOS (LINEAL) 

DE CIA BAKER HUGHES DE FECHA 28-ENERO-2024

SE CORRIGE EN FONDO 2726 m.

AMPLITUD 3" MAX.ESPERADA: 71,92 mV.

TIEMPO DE TRANSITO 3" ESPERADA: 233 uSeg.


~A  Depth        GR        AMP3FT       CCL        AMPAVG      AMPMAX      AMPMIN      TT3FT        LTEN      Neutron   
# ...
  2010.9870     58.3366     10.0341      1.1860     12.5424     13.3146     11.7592    286.8552   1251.6060     25.7302
  2011.0869     59.6281     10.4116      6.5146     13.0917     13.9236     12.2926    287.4718   1251.2666     25.8037
  2011.1868     63.5234     11.4922      8.9694     14.6440     15.6938     13.7850    288.6005   1250.4427     25.7322
  2011.2867     65.8344     12.1987     -1.1794     15.6515     16.8564     14.7468    288.6166   1250.2357     25.6113
  2011.3866     68.2231     13.0209      0.8575     16.8199     18.2104     15.8546    287.8182   1250.1777     25.5301
  2011.4865     70.5961     13.9453      0.7151     18.1301     19.7347     17.0880    285.9572   1250.1827     25.5467
  2011.5864     74.8823     15.9279      0.9185     20.9378     23.0238     19.7118    279.0961   1250.1567     26.0731
  2011.6863     76.5167     16.8633     -0.3826     22.2668     24.5906     20.8532    274.6340   1250.2000     26.2624
  2011.7862     77.6172     17.6855     -0.0499     23.4417     25.9783     21.8247    270.0099   1250.4182     26.4066
  2011.8861     78.0802     18.8815     -0.1658     25.1780     28.0173     23.2583    261.5985   1251.5917     26.8477
  2011.9860     77.6745     19.2565     -0.2386     25.7382     28.6600     23.7267    258.2043   1252.4111     26.9404
  2012.0859     77.1048     19.5079      1.0256     26.1247     29.0872     24.0574    255.4853   1253.1648     26.8347
  2012.1858     75.8576     19.7331     -0.1362     26.4979     29.4387     24.4067    252.4750   1253.8811     26.1972
  2012.2857     75.0764     19.7434      0.4686     26.5331     29.4194     24.4669    252.4748   1253.7908     25.9204
  2012.3856     74.0490     19.7033      0.7703     26.4928     29.2983     24.4750    253.6376   1253.5411     25.8348
  2012.4855     71.2804     19.5314      1.0020     26.2754     28.8523     24.4274    259.0235   1253.1338     25.9162
  2012.5854     69.8071     19.4406     -0.4817     26.1603     28.5986     24.4317    262.4547   1253.0677     26.1410
  2012.6853     68.5193     19.3796      0.6614     26.0899     28.3815     24.4985    265.5524   1252.9843     26.4031
  2012.7852     67.0175     19.4303      0.4781     26.2030     28.2018     24.9083    268.3477   1252.2550     26.7569
  2012.8851     66.9171     19.5650     -0.3414     26.4181     28.2817     25.2636    267.3637   1251.5408     26.7721
  2012.9850     67.2468     19.7715      0.7345     26.7353     28.4765     25.7030    264.8301   1250.7183     26.6898
  2013.0849     67.9554     20.0369     -0.9593     27.1328     28.7664     26.1997    261.1295   1249.9403     26.5916
  2013.1848     70.0579     20.6596     -0.1970     28.0333     29.4917     27.2308    252.4704   1248.8331     26.4252
  2013.2847     71.1222     20.9704      0.1042     28.4649     29.8488     27.7052    248.5846   1248.4235     26.4756
  2013.3846     71.9594     21.2563      0.5105     28.8488     30.1609     28.1284    245.4500   1247.9790     26.5100
  2013.4845     72.5338     21.7200     -0.0304     29.4406     30.5978     28.8244    241.6052   1246.9094     26.2390
  2013.5844     72.2209     21.8943     -0.9890     29.6535     30.7187     29.1184    240.6431   1246.4771     25.7335
  2013.6843     71.5191     22.0308     -0.8102     29.8189     30.7781     29.3522    240.0793   1246.2953     25.5731
  2013.7842     68.9136     22.1916      0.1525     30.0244     30.7371     29.5218    239.5878   1246.7531     25.0501
  2013.8841     67.0467     22.2213      0.0054     30.0761     30.6635     29.3584    239.4923   1247.1027     24.8909
  2013.9840     64.9640     22.2292      0.7801     30.1099     30.5860     29.1705    239.4394   1247.2123     24.8360
  2014.0839     61.0948     22.2473     -0.2220     30.2078     30.6003     28.8839    239.3764   1246.0167     24.7621
  2014.1838     59.7529     22.2961      0.2557     30.3176     30.7598     28.8636    239.3371   1244.7123     24.8570
  2014.2837     58.9650     22.3927     -0.0231     30.4923     30.9449     28.9602    239.2783   1243.1777     25.0478
  2014.3836     58.7330     22.5461      1.0201     30.7413     31.1733     29.1817    239.1956   1241.7003     25.3932
  2014.4835     59.6308     23.0301      0.0749     31.4649     31.8945     29.9665    238.9582   1239.9525     25.6427
  2014.5834     60.4923     23.3512     -0.5900     31.9239     32.3485     30.4892    238.8109   1239.9595     25.7315
  2014.6833     61.4005     23.7104     -0.2220     32.4260     32.8100     31.0596    238.6525   1240.5455     25.8237
  2014.7832     62.7798     24.4709     -0.3213     33.4529     33.8279     32.1965    238.3329   1243.0435     25.7281
  2014.8831     63.1156     24.8319      0.2476     33.9206     34.3806     32.6943    238.1864   1244.7574     26.0652
  2014.9830     63.2262     25.1606      0.0886     34.3314     34.9301     33.1177    238.0557   1246.6836     26.0922
  2015.0829     62.9262     25.7214     -0.1853     34.9945     36.1246     33.7702    237.8429   1250.8103     25.9706
  2015.1828     62.6024     25.9776     -0.5066     35.2873     36.7125     34.0552    237.7540   1252.7606     25.7892
  2015.2827     62.2543     26.2386     -0.6070     35.5877     37.3004     34.3603    237.6698   1254.4851     25.6151
  2015.3826     61.8977     26.8040     -0.6670     36.2597     38.4291     35.0283    237.5018   1257.1783     25.2301
  2015.4825     62.0284     27.1012     -0.2107     36.6242     38.9229     35.2864    237.4168   1258.2378     25.0572
  2015.5824     62.3304     27.3951     -0.2895     36.9905     39.3401     35.5862    237.3330   1259.1409     24.8843
  2015.6823     62.9822     27.9442      0.3405     37.6906     39.9329     36.2527    237.1742   1260.1464     24.1955
  2015.7822     63.1280     28.1983     -0.0668     38.0230     40.1386     36.6017    237.0985   1259.9769     23.8203
  2015.8821     63.1077     28.4428     -0.3551     38.3506     40.3137     36.9604    237.0232   1259.2550     23.6102
  2015.9820     62.9225     28.6794      0.2930     38.6781     40.4736     37.3346    236.9476   1258.0574     23.1916
  2016.0819     61.9631     29.1120      0.0905     39.3291     40.7476     38.1658    236.8029   1255.1549     23.0642
  2016.1818     61.1006     29.2899      0.0998     39.6402     40.8361     38.5368    236.7434   1253.9915     23.1924
  2016.2817     59.9926     29.4257     -0.4741     39.9249     40.8662     38.9274    236.7014   1253.2380     23.1794
  2016.3816     57.6706     29.5020      0.1067     40.3094     40.9758     39.7387    236.7009   1252.6956     23.1494
  2016.4815     56.9694     29.3979      0.6477     40.3273     41.0478     39.8181    236.7606   1252.5294     23.1738
  2016.5814     56.9164     29.1656      0.4990     40.1622     40.9003     39.2079    236.8770   1252.2157     22.8982
  2016.6813     59.1911     28.2393     -0.3551     39.1097     40.0544     37.3659    237.3854   1251.1824     23.3724
  2016.7812     61.3822     27.5328      0.0279     38.1806     39.2359     36.1626    237.8834   1250.7129     23.5871
  2016.8811     63.9915     26.6802     -0.0503     36.9980     38.0725     34.8111    238.6721   1250.4348     23.9430
  2016.9810     69.3935     24.6734     -0.0529     34.0769     34.9516     31.8550    241.7369   1250.3977     24.0990
  2017.0809     71.7480     23.6110      0.4569     32.4847     33.1771     30.3659    244.3416   1250.4342     24.0689
  2017.1808     73.6885     22.5736      0.4343     30.9097     31.5316     28.9477    247.7878   1250.3911     24.0896
  2017.2807     76.1055     20.7300     -0.9561     28.0650     28.7020     26.5112    256.7511   1250.1940     24.1737
  2017.3806     76.5579     19.9755      0.1055     26.8777     27.6956     25.5522    261.6434   1250.2393     24.1690
  2017.4805     76.5493     19.3482      1.0467     25.8710     26.8480     24.7797    266.2521   1250.4742     24.1469
  2017.5804     76.1779     18.8437     -1.1993     25.0392     26.1644     24.1833    270.2137   1250.8693     24.1166
