~Version Information
VERS.                            2.0: CWLS Log ASCII STANDARD - VERSION 2.0
WRAP.                             NO: One line per depth step
~Well Information
STRT.M                     1749.9483: FIRST INDEX VALUE
STOP.M                     2729.7675: LAST INDEX VALUE
STEP.M                        0.0999: STEP
NULL.                      -999.2500: NULL VALUE
COMP.                PAN AMERICAN ENERGY L.L.C.: COMPANY
WELL.                PAE.Ch.PLMS-1041: WELL
FLD.                 LA MADRE SELVA SUR: FIELD
LOC.                 X: 4.915.236,49--Y: 2.543.733,51--Z:          701,17: LOCATION
PROV.                         CHUBUT: PROVINCE
SRVC.                          EXPRO: SERVICE COMPANY
DATE.                do. feb. 04 04-26-35 2024: LOG DATE
UWI.                   9702908104100: UNIQUE WELL ID
CTRY.                      ARGENTINA: COUNTRY
SECT.                               : SECTION
TOWN.                               : TOWNSHIP
RANG.                               : RANGE
OS.                  CANASTA--114 mm.: OTHER SERVICES
PDAT.FT                   N. TERRENO: PERMANENT DATUM
EEL.FT                        701,17: ELEVATION
LMF.FT               KB:     4,60 m.: LOG MEASURED FROM
DMF.FT                 KELLY BUSHING: DRILLING MEASURED FROM
EKB.FT                              : KB
EDF.FT                        705,77: DF
EGL.FT                        701,17: GL
DATE1.                    04-02-2024: DATE1
RUN1.                             02: RUN NUMBER
TDD1.FT                       2728 m: DEPTH DRILLER
TDL1.FT                       2726 m: DEPTH LOGGER
BLI1.FT                      2726 m.: BOTTOM LOGGED INTERVAL
TLI1.FT                      1750 m.: TOP LOG INTERVAL
CDD1.IN_FT                          : CASING DRILLER
CDL1.FT                             : CASING LOGGER
BS1.IN                        9.625": BIT SIZE
DFT1.                           AGUA: TYPE FLUID IN HOLE
DFDV1.GM/C3_CP                 LLENO: DENSITY/VISCOSITY
DFPL1.C3                            : PH/FLUID LOSS
MSS1.                               : SOURCE OF SAMPLE
RMT1.OHHM_DEGF                      : RM@MEASURED TEMP
RMFT1.OHMM_DEGF                     : RMF@MEASURED TEMP
RMCT1.OHMM_DEGF                     : RMC@MEASURED TEMP
RMFS1.                              : SOURCE OF RMF/RMC
RMBT1.OHMM_DEGF                     : RM@BHT
TCS1.                               : TIME CIRCULATION STOPPED
TLOB1.                         ARROW: TIME LOGGER ON BOTTOM
BHT1.DEGF                   8.33 PPG: MAXIMUM RECORDED TEMPERATURE
LUN1.                       COMODORO: EQUIPMENT NUMBER
LUL1.                     A. BELTRAN: LOCATION
ENGI1.                  M. HARAMILLA: RECORDED BY
WITN1.                              : WITNESSED BY
COMW.                               : Common Well Name
~Curve Information
DEPT.M                   0 000 00 00: Depth
GR.GAPI                            0: Gamma Ray
AMP3FT.MV                          0: AMP3FT Amplitude
CCL.                               0: Casing Collar Locator
AMPAVG.                            0: Average Sector Amplitude
AMPMAX.                            0: Maximum Sector Amplitude
AMPMIN.                            0: Minimum Sector Amplitude
TT3FT.USEC                         0: 3FT Travel Time
LTEN.LB                            0: Surface Line Tension
Neutron.                           0: SGA1
~Parameter Information
~Other Information
SE TOMA DE REFERENCIA MESA ROTARIA (KB: 4,60 m.).

REGISTRO CORRELACIONADO CON REGISTRO PERFILES COMBINADOS (LINEAL) 

DE CIA BAKER HUGHES DE FECHA 28-ENERO-2024

SE CORRIGE EN FONDO 2726 m.

AMPLITUD 3" MAX.ESPERADA: 71,92 mV.

TIEMPO DE TRANSITO 3" ESPERADA: 233 uSeg.


~A  Depth        GR        AMP3FT       CCL        AMPAVG      AMPMAX      AMPMIN      TT3FT        LTEN      Neutron   
  1749.9483     72.2746     34.2720      0.6590     46.9508     48.0996     45.7110    234.4220   1122.2990     26.2913
  1750.0482     73.1253     34.9951      1.0161     47.9731     48.7578     46.6999    234.4015   1123.2205     25.8123
  1750.1481     73.0557     35.1708     -0.2820     48.1807     48.7456     46.7434    234.4247   1123.4290     25.6766
  1750.2480     72.6022     35.1749     -0.4446     48.1384     48.8505     46.4964    234.4743   1123.4702     25.6120
  1750.3479     71.8539     34.9849      1.1371     47.8324     48.9368     45.9228    234.5529   1123.4316     25.6594
  1750.4478     70.1091     34.0021      0.0345     46.4599     48.3767     43.7962    234.8025   1123.5273     25.8907
  1750.5477     69.4101     33.2446      0.2002     45.4559     47.7402     42.3265    234.9708   1123.7446     25.9185
  1750.6476     68.9572     32.3715     -0.7505     44.3207     46.9225     40.7006    235.1586   1123.9935     25.8637
  1750.7475     68.9678     30.6001      0.0029     42.0469     45.1225     37.5024    235.5319   1124.0563     25.7779
  1750.8474     69.4790     29.8899     -0.0546     41.1368     44.3798     36.2181    235.6791   1123.6761     25.9837
  1750.9473     70.3257     29.4095      0.1076     40.5177     43.8882     35.3139    235.7770   1123.0122     26.1322
  1751.0472     72.7476     29.3130      0.1559     40.3749     43.8680     34.9355    235.7952   1121.1034     26.3355
  1751.1471     74.0507     29.6964     -0.8389     40.8526     44.3223     35.4903    235.7209   1119.9890     26.3205
  1751.2470     75.2034     30.3187      0.7800     41.6358     45.0143     36.4921    235.6047   1118.8352     26.2642
  1751.3469     76.7363     32.0511      0.4567     43.8388     46.8257     39.5308    235.3013   1116.8049     26.1884
  1751.4468     77.2012     33.0454      0.7800     45.1211     47.8175     41.3835    235.1387   1116.2802     26.0853
  1751.5467     77.6354     34.0569      0.1797     46.4451     49.0771     43.3290    234.9821   1116.3475     26.1770
  1751.6466     78.1495     35.0429     -0.0229     47.7609     50.2877     45.2729    234.8383   1117.1122     26.3146
  1751.7465     79.3597     36.8066     -0.2394     50.2006     52.1783     48.8243    234.6045   1120.3477     26.5423
  1751.8464     79.7889     37.5407     -0.1089     51.2613     52.8327     50.3064    234.5159   1122.2611     26.5388
  1751.9463     79.9122     38.1645     -1.2505     52.1939     53.3121     51.5453    234.4442   1123.9220     26.4504
  1752.0462     79.3517     39.0954      0.3918     53.6774     54.4866     53.2770    234.3423   1125.6987     26.2290
  1752.1461     79.0644     39.4171      0.3548     54.2431     55.3112     53.7033    234.3094   1125.8092     26.2228
  1752.2460     79.1097     39.6505      1.1469     54.6993     55.9536     54.0290    234.2886   1125.5691     26.3007
  1752.3459     80.6095     39.8582     -1.0317     55.2763     56.6890     53.9839    234.2845   1124.4941     26.5369
  1752.4458     81.8912     39.8342      0.0725     55.3855     56.9968     53.8388    234.3006   1123.7448     26.6005
  1752.5457     83.2620     39.7294      0.3548     55.3695     57.1815     53.5301    234.3270   1122.8921     26.5349
  1752.6456     85.5494     39.3194      0.9966     54.9901     57.0286     52.4421    234.4003   1121.3842     26.1790
  1752.7455     86.2182     39.0487      0.6688     54.6686     56.7320     51.7967    234.4410   1121.1354     25.8165
  1752.8454     86.4261     38.7672     -0.5616     54.3069     56.3430     51.1401    234.4805   1121.4465     25.6373
  1752.9453     85.0114     38.3149      0.6688     53.6809     55.8122     50.0251    234.5436   1123.5720     25.2439
  1753.0452     83.2785     38.2382     -0.4095     53.5557     55.7271     49.7149    234.5609   1124.9164     25.0244
  1753.1451     80.9436     38.3334      0.1056     53.6600     55.8190     49.6821    234.5643   1126.0525     24.7122
  1753.2450     78.1831     38.6492     -0.2898     54.0636     56.1591     50.0024    234.5512   1126.7991     24.2705
  1753.3449     72.2109     40.0253     -0.6995     55.8948     57.7330     51.8367    234.4729   1127.2981     23.1659
  1753.4448     69.3040     41.0455      0.4742     57.2732     59.1606     53.2933    234.4117   1127.4594     22.4859
  1753.5447     66.5383     42.2091     -0.0600     58.8556     60.8175     54.9929    234.3414   1127.8473     21.9895
  1753.6446     61.4500     44.6519     -0.5193     62.1969     64.3701     58.6533    234.1941   1129.5287     21.1665
  1753.7445     59.1994     45.7961     -0.4244     63.7644     66.2281     60.4184    234.1254   1130.6460     20.9999
  1753.8444     57.2938     46.8349     -0.2470     65.1835     67.8802     62.0652    234.0632   1131.7520     20.9979
  1753.9443     55.1059     48.5660      0.0567     67.5249     70.5224     64.9676    233.9578   1133.5474     21.1871
  1754.0442     54.9267     49.2760      0.1774     68.4719     71.5460     66.2465    233.9118   1134.1803     21.2736
  1754.1441     55.1951     49.9036      0.3593     69.3031     72.4095     67.4349    233.8681   1134.6243     21.2917
  1754.2440     55.9698     50.9975     -0.4134     70.7528     73.7875     69.2597    233.7836   1134.6821     21.2384
  1754.3439     55.9751     51.5196      0.1744     71.4542     74.3802     69.9515    233.7436   1134.0786     21.2749
  1754.4438     55.5808     52.0673      0.7655     72.1995     74.9706     70.7349    233.7074   1132.9546     21.3386
  1754.5437     53.9092     53.3320      0.0502     73.9472     76.3199     72.6551    233.6557   1129.4652     21.2633
  1754.6436     52.9380     54.0552     -0.1023     74.9581     77.1259     73.7131    233.6449   1127.5166     21.0876
  1754.7435     52.0720     54.8130     -0.0091     76.0262     78.0130     74.9054    233.6459   1125.7490     20.8262
  1754.8434     51.4174     55.5730      1.0365     77.1094     78.9545     76.1820    233.6588   1124.3077     20.4992
  1754.9433     51.0082     56.9982     -1.2604     79.1947     80.8999     78.1027    233.7094   1122.4072     19.7567
  1755.0432     51.3201     57.6485     -0.1615     80.1798     81.8833     78.5835    233.7371   1121.7931     19.3809
  1755.1431     51.9656     58.2639      0.5998     81.1330     82.8679     78.9614    233.7584   1121.3384     19.0193
  1755.2430     53.9886     59.3708      0.0502     82.8846     84.7070     79.4956    233.7672   1121.1243     18.6373
  1755.3429     55.1812     59.8114     -0.4022     83.5908     85.5917     79.6680    233.7573   1121.5015     18.7053
  1755.4428     56.3827     60.1292     -0.9776     84.1045     86.2667     79.7780    233.7447   1122.1578     18.9792
  1755.5427     58.5304     60.3272     -0.0312     84.4399     86.5732     79.8500    233.7315   1123.4633     19.9799
  1755.6426     59.2787     60.2365     -0.0312     84.3011     86.2496     79.8601    233.7330   1123.5989     20.4331
  1755.7425     59.6170     60.0730      0.8028     84.0361     85.8736     79.8929    233.7362   1123.1786     20.7502
  1755.8424     58.5259     59.7218     -0.1660     83.4143     84.8631     80.1294    233.7323   1120.8386     20.7890
  1755.9423     57.0369     59.6142     -0.4905     83.1780     84.3730     80.3716    233.7221   1119.1614     20.7209
  1756.0422     55.0788     59.5874      0.0031     83.0466     83.9659     80.7152    233.7085   1117.2504     20.4823
  1756.1421     52.8897     59.6527     -0.3807     83.0401     83.6832     81.1663    233.6953   1115.0956     20.1677
  1756.2420     48.7993     60.0360      0.4901     83.3863     83.8667     82.3455    233.6880   1110.0828     19.4699
  1756.3419     47.2202     60.3125     -0.9880     83.6916     84.4285     83.0103    233.7005   1107.5234     19.2120
  1756.4418     46.0052     60.6105      0.1274     84.0437     85.0403     83.5619    233.7243   1105.3475     19.0718
  1756.5417     44.4613     61.2143      0.7688     84.8306     86.2089     83.9960    233.7897   1103.3943     18.8418
