~Version Information
VERS.                            2.0: CWLS Log ASCII STANDARD - VERSION 2.0
WRAP.                             NO: One line per depth step
~Well Information
STRT.M                     1749.9483: FIRST INDEX VALUE
STOP.M                     2729.7675: LAST INDEX VALUE
STEP.M                        0.0999: STEP
NULL.                      -999.2500: NULL VALUE
COMP.                PAN AMERICAN ENERGY L.L.C.: COMPANY
WELL.                PAE.Ch.PLMS-1041: WELL
FLD.                 LA MADRE SELVA SUR: FIELD
LOC.                 X: 4.915.236,49--Y: 2.543.733,51--Z:          701,17: LOCATION
PROV.                         CHUBUT: PROVINCE
SRVC.                          EXPRO: SERVICE COMPANY
DATE.                do. feb. 04 04-26-35 2024: LOG DATE
UWI.                   9702908104100: UNIQUE WELL ID
CTRY.                      ARGENTINA: COUNTRY
SECT.                               : SECTION
TOWN.                               : TOWNSHIP
RANG.                               : RANGE
OS.                  CANASTA--114 mm.: OTHER SERVICES
PDAT.FT                   N. TERRENO: PERMANENT DATUM
EEL.FT                        701,17: ELEVATION
LMF.FT               KB:     4,60 m.: LOG MEASURED FROM
DMF.FT                 KELLY BUSHING: DRILLING MEASURED FROM
EKB.FT                              : KB
EDF.FT                        705,77: DF
EGL.FT                        701,17: GL
DATE1.                    04-02-2024: DATE1
RUN1.                             02: RUN NUMBER
TDD1.FT                       2728 m: DEPTH DRILLER
TDL1.FT                       2726 m: DEPTH LOGGER
BLI1.FT                      2726 m.: BOTTOM LOGGED INTERVAL
TLI1.FT                      1750 m.: TOP LOG INTERVAL
CDD1.IN_FT                          : CASING DRILLER
CDL1.FT                             : CASING LOGGER
BS1.IN                        9.625": BIT SIZE
DFT1.                           AGUA: TYPE FLUID IN HOLE
DFDV1.GM/C3_CP                 LLENO: DENSITY/VISCOSITY
DFPL1.C3                            : PH/FLUID LOSS
MSS1.                               : SOURCE OF SAMPLE
RMT1.OHHM_DEGF                      : RM@MEASURED TEMP
RMFT1.OHMM_DEGF                     : RMF@MEASURED TEMP
RMCT1.OHMM_DEGF                     : RMC@MEASURED TEMP
RMFS1.                              : SOURCE OF RMF/RMC
RMBT1.OHMM_DEGF                     : RM@BHT
TCS1.                               : TIME CIRCULATION STOPPED
TLOB1.                         ARROW: TIME LOGGER ON BOTTOM
BHT1.DEGF                   8.33 PPG: MAXIMUM RECORDED TEMPERATURE
LUN1.                       COMODORO: EQUIPMENT NUMBER
LUL1.                     A. BELTRAN: LOCATION
ENGI1.                  M. HARAMILLA: RECORDED BY
WITN1.                              : WITNESSED BY
COMW.                               : Common Well Name
~Curve Information
DEPT.M                   0 000 00 00: Depth
GR.GAPI                            0: Gamma Ray
AMP3FT.MV                          0: AMP3FT Amplitude
CCL.                               0: Casing Collar Locator
AMPAVG.                            0: Average Sector Amplitude
AMPMAX.                            0: Maximum Sector Amplitude
AMPMIN.                            0: Minimum Sector Amplitude
TT3FT.USEC                         0: 3FT Travel Time
LTEN.LB                            0: Surface Line Tension
Neutron.                           0: SGA1
~Parameter Information
~Other Information
SE TOMA DE REFERENCIA MESA ROTARIA (KB: 4,60 m.).

REGISTRO CORRELACIONADO CON REGISTRO PERFILES COMBINADOS (LINEAL) 

DE CIA BAKER HUGHES DE FECHA 28-ENERO-2024

SE CORRIGE EN FONDO 2726 m.

AMPLITUD 3" MAX.ESPERADA: 71,92 mV.

TIEMPO DE TRANSITO 3" ESPERADA: 233 uSeg.


~A  Depth        GR        AMP3FT       CCL        AMPAVG      AMPMAX      AMPMIN      TT3FT        LTEN      Neutron   
# ...
  2265.3324     55.1992     22.3055      0.3901     30.2403     33.0460     26.3893    238.2615   1408.7174     24.2960
  2265.4323     54.1517     22.3797      0.1364     30.3655     33.1285     26.5355    238.1742   1409.8533     24.1233
  2265.5322     52.9213     22.4579     -0.2310     30.4937     33.1826     26.6912    238.1040   1411.0067     24.0869
  2265.6321     50.8895     22.5337      0.0796     30.6113     33.0311     26.9382    238.0246   1412.7377     23.7259
  2265.7320     50.4835     22.5290      0.9719     30.5942     32.8079     27.0476    238.0146   1413.2439     23.6520
  2265.8319     50.5631     22.5310     -1.4666     30.5782     32.5359     27.2072    238.0056   1413.6332     23.6494
  2265.9318     51.8512     22.7305     -0.4965     30.8059     32.1175     27.9404    237.9125   1414.5096     23.9696
  2266.0317     52.8526     23.0070     -0.8077     31.1634     32.2094     28.6337    237.8020   1415.0182     24.0245
  2266.1316     54.0159     23.4349      0.2442     31.7304     32.5380     29.5965    237.6467   1415.4309     24.1167
  2266.2315     56.8163     24.7616      0.2222     33.5168     34.4759     32.3297    237.2367   1415.4049     24.1853
  2266.3314     58.4396     25.6350     -0.8520     34.7049     35.9865     34.0241    237.0066   1414.8481     24.4337
  2266.4313     60.1493     26.6130      0.8941     36.0459     37.5861     35.1424    236.7757   1414.0048     24.9068
  2266.5312     63.4674     28.7419      0.8146     39.0112     40.8284     37.7276    236.3483   1411.8953     25.5398
  2266.6311     64.9000     29.8250     -0.6888     40.5483     42.3816     39.1885    236.1621   1410.7062     25.8326
  2266.7310     66.0990     30.8800     -0.5919     42.0660     43.8462     40.6976    235.9973   1409.3367     26.1845
  2266.8309     67.0257     31.8769     -0.0163     43.5188     45.1964     42.1946    235.8550   1407.6814     26.1031
  2266.9308     67.8979     33.5589     -0.0163     46.0074     47.4381     44.8382    235.6476   1403.5502     26.2980
  2267.0307     67.7736     34.1689     -0.1383     46.9186     48.2645     45.8042    235.5886   1401.4335     26.3448
  2267.1306     67.2762     34.5829     -0.3273     47.5359     48.8580     46.4246    235.5614   1399.6486     26.3653
  2267.2305     65.4631     34.7977      0.5833     47.8292     49.3451     46.4947    235.5910   1397.7050     26.3548
  2267.3304     64.3943     34.6487     -0.3262     47.5738     49.3107     46.0030    235.6333   1397.4235     26.2825
  2267.4303     63.3884     34.4025     -0.4909     47.1611     49.1859     45.2851    235.6810   1397.3108     26.4108
  2267.5302     61.8973     33.9198      0.4178     46.3308     49.2423     43.7533    235.7575   1396.9124     26.4549
  2267.6301     61.4596     33.8237     -0.6206     46.1340     49.5283     43.2362    235.7751   1396.6472     26.5052
  2267.7300     61.1855     33.8837      0.7545     46.1772     49.9483     43.0313    235.7767   1396.5350     26.5952
  2267.8299     60.9455     34.4493     -0.2041     46.9569     51.0578     43.6384    235.7401   1397.1559     26.3914
  2267.9298     60.9752     34.8611      0.2158     47.5537     51.5955     44.3253    235.7098   1397.7389     26.7464
  2268.0297     61.1845     35.2647      0.9491     48.1470     52.0030     45.1041    235.6779   1398.2329     26.8644
  2268.1296     61.6564     35.5919      0.2098     48.6332     52.2172     45.8322    235.6492   1398.4584     26.9268
  2268.2295     63.5377     35.8515     -0.4746     49.0283     52.0348     46.6775    235.6193   1398.0658     26.9534
  2268.3294     64.8728     35.7666      0.5912     48.9077     51.7179     46.6733    235.6243   1397.7096     26.9957
  2268.4293     66.3439     35.5603      0.5620     48.6092     51.3277     46.3841    235.6443   1397.4283     27.3828
  2268.5292     69.2491     34.9047     -0.5092     47.6780     50.4839     45.1905    235.7238   1397.0695     27.8778
  2268.6291     70.5016     34.5204      0.9215     47.1543     50.0599     44.4644    235.7762   1396.8170     27.9917
  2268.7290     71.5531     34.1424     -0.7408     46.6615     49.6395     43.7812    235.8304   1396.4620     27.9817
  2268.8289     72.9995     33.5323     -0.9163     45.9443     49.1581     42.8590    235.9240   1395.9226     27.6033
  2268.9288     73.3363     33.3577      0.7684     45.7897     49.0617     42.7266    235.9536   1396.0927     27.3134
  2269.0287     73.2962     33.3005      0.4224     45.8052     49.0451     42.8524    235.9658   1396.6742     26.6898
  2269.1286     71.5852     33.5821     -1.1302     46.3906     49.3029     43.8965    235.9301   1398.5658     26.4260
  2269.2285     69.8155     33.9127      0.5028     46.9443     49.5842     44.7756    235.8854   1399.4280     26.4113
  2269.3284     67.5757     34.3437      0.1119     47.6322     49.9506     45.8318    235.8302   1400.0233     26.4381
  2269.4283     62.7133     35.4009     -0.1238     49.2400     50.8429     48.1162    235.7160   1400.6376     26.5871
  2269.5282     60.6057     35.9914      0.4456     50.0970     51.3409     49.0798    235.6646   1400.9950     26.5326
  2269.6281     58.9308     36.6221      0.1119     50.9805     52.0695     49.5543    235.6157   1401.5466     26.3368
  2269.7280     57.7378     37.3072     -1.0693     51.9092     52.8802     50.1881    235.5649   1402.2405     26.1817
  2269.8279     56.7245     38.9079      0.1119     54.0118     54.6970     52.0961    235.4413   1403.2721     26.1506
  2269.9278     56.8090     39.8401      0.2901     55.2247     55.7659     53.4036    235.3658   1403.2246     26.2410
  2270.0277     57.1845     40.8491     -0.2061     56.5436     56.9617     54.9176    235.2841   1402.7426     26.3033
  2270.1276     58.3262     42.9682     -0.4717     59.3571     59.7287     58.2838    235.1200   1401.1710     25.6907
  2270.2275     58.8175     43.9725     -0.3959     60.7171     61.1044     59.9302    235.0472   1400.5227     25.5887
  2270.3274     59.1014     44.8478     -0.1743     61.9200     62.4655     61.3881    234.9864   1400.1090     25.4724
  2270.4273     58.8641     45.9312      0.7325     63.4480     64.3101     62.7950    234.9140   1399.5461     25.3648
  2270.5272     58.3998     46.0415      0.4149     63.6241     64.6108     62.8242    234.9060   1399.0344     25.4212
  2270.6271     57.8283     45.8489      0.5545     63.3779     64.4506     62.4675    234.9167   1398.2360     25.4857
  2270.7270     56.8097     44.6848     -1.3942     61.7818     62.9035     60.7690    234.9902   1396.1493     25.4968
  2270.8269     56.4789     43.8081     -0.5387     60.5618     61.6566     59.5539    235.0522   1395.2302     25.3659
  2270.9268     56.2324     42.7890      0.5407     59.1393     60.1809     58.1723    235.1321   1394.5972     24.9706
  2271.0267     55.6862     40.4251     -0.3663     55.8509     56.7052     55.0950    235.3477   1394.2216     24.3917
  2271.1266     55.3223     39.1376      0.3532     54.0767     54.7851     53.3060    235.4789   1394.2921     24.1896
  2271.2265     54.9713     37.8416     -0.4692     52.3067     52.8268     51.2641    235.6177   1394.3779     24.0876
  2271.3264     54.7509     36.5986      0.1185     50.6258     51.0760     49.2286    235.7557   1394.4078     23.8672
  2271.4263     55.0502     34.4692      0.4634     47.7868     48.5924     45.5213    236.0053   1394.2521     23.7110
  2271.5262     55.5387     33.6147      0.6062     46.6589     47.7237     43.9574    236.1146   1394.0586     23.6741
  2271.6261     56.0883     32.8750      0.8926     45.6801     47.0402     42.5924    236.2183   1393.7330     23.7367
  2271.7260     56.7964     31.6060     -0.8256     43.9639     45.7194     40.3277    236.4244   1392.3986     23.9257
  2271.8259     56.8679     31.0383     -0.2610     43.1706     45.0410     39.3710    236.5262   1391.3330     24.0242
  2271.9258     56.8488     30.5197      0.1411     42.4298     44.3852     38.5237    236.6204   1390.0797     24.1853
