~Version Information
VERS.                            2.0: CWLS Log ASCII STANDARD - VERSION 2.0
WRAP.                             NO: One line per depth step
~Well Information
STRT.M                     1749.9483: FIRST INDEX VALUE
STOP.M                     2729.7675: LAST INDEX VALUE
STEP.M                        0.0999: STEP
NULL.                      -999.2500: NULL VALUE
COMP.                PAN AMERICAN ENERGY L.L.C.: COMPANY
WELL.                PAE.Ch.PLMS-1041: WELL
FLD.                 LA MADRE SELVA SUR: FIELD
LOC.                 X: 4.915.236,49--Y: 2.543.733,51--Z:          701,17: LOCATION
PROV.                         CHUBUT: PROVINCE
SRVC.                          EXPRO: SERVICE COMPANY
DATE.                do. feb. 04 04-26-35 2024: LOG DATE
UWI.                   9702908104100: UNIQUE WELL ID
CTRY.                      ARGENTINA: COUNTRY
SECT.                               : SECTION
TOWN.                               : TOWNSHIP
RANG.                               : RANGE
OS.                  CANASTA--114 mm.: OTHER SERVICES
PDAT.FT                   N. TERRENO: PERMANENT DATUM
EEL.FT                        701,17: ELEVATION
LMF.FT               KB:     4,60 m.: LOG MEASURED FROM
DMF.FT                 KELLY BUSHING: DRILLING MEASURED FROM
EKB.FT                              : KB
EDF.FT                        705,77: DF
EGL.FT                        701,17: GL
DATE1.                    04-02-2024: DATE1
RUN1.                             02: RUN NUMBER
TDD1.FT                       2728 m: DEPTH DRILLER
TDL1.FT                       2726 m: DEPTH LOGGER
BLI1.FT                      2726 m.: BOTTOM LOGGED INTERVAL
TLI1.FT                      1750 m.: TOP LOG INTERVAL
CDD1.IN_FT                          : CASING DRILLER
CDL1.FT                             : CASING LOGGER
BS1.IN                        9.625": BIT SIZE
DFT1.                           AGUA: TYPE FLUID IN HOLE
DFDV1.GM/C3_CP                 LLENO: DENSITY/VISCOSITY
DFPL1.C3                            : PH/FLUID LOSS
MSS1.                               : SOURCE OF SAMPLE
RMT1.OHHM_DEGF                      : RM@MEASURED TEMP
RMFT1.OHMM_DEGF                     : RMF@MEASURED TEMP
RMCT1.OHMM_DEGF                     : RMC@MEASURED TEMP
RMFS1.                              : SOURCE OF RMF/RMC
RMBT1.OHMM_DEGF                     : RM@BHT
TCS1.                               : TIME CIRCULATION STOPPED
TLOB1.                         ARROW: TIME LOGGER ON BOTTOM
BHT1.DEGF                   8.33 PPG: MAXIMUM RECORDED TEMPERATURE
LUN1.                       COMODORO: EQUIPMENT NUMBER
LUL1.                     A. BELTRAN: LOCATION
ENGI1.                  M. HARAMILLA: RECORDED BY
WITN1.                              : WITNESSED BY
COMW.                               : Common Well Name
~Curve Information
DEPT.M                   0 000 00 00: Depth
GR.GAPI                            0: Gamma Ray
AMP3FT.MV                          0: AMP3FT Amplitude
CCL.                               0: Casing Collar Locator
AMPAVG.                            0: Average Sector Amplitude
AMPMAX.                            0: Maximum Sector Amplitude
AMPMIN.                            0: Minimum Sector Amplitude
TT3FT.USEC                         0: 3FT Travel Time
LTEN.LB                            0: Surface Line Tension
Neutron.                           0: SGA1
~Parameter Information
~Other Information
SE TOMA DE REFERENCIA MESA ROTARIA (KB: 4,60 m.).

REGISTRO CORRELACIONADO CON REGISTRO PERFILES COMBINADOS (LINEAL) 

DE CIA BAKER HUGHES DE FECHA 28-ENERO-2024

SE CORRIGE EN FONDO 2726 m.

AMPLITUD 3" MAX.ESPERADA: 71,92 mV.

TIEMPO DE TRANSITO 3" ESPERADA: 233 uSeg.


~A  Depth        GR        AMP3FT       CCL        AMPAVG      AMPMAX      AMPMIN      TT3FT        LTEN      Neutron   
# ...
  2459.4381     63.5100     14.7696     -0.5793     19.6776     21.0120     16.6487    263.5587   1475.5962     25.2155
  2459.5380     64.5131     14.2607     -0.4629     18.9283     20.3433     15.9383    265.8602   1475.9257     25.2610
  2459.6379     66.3876     13.1251      0.8298     17.2059     18.8079     14.3690    270.2397   1477.6520     25.5296
  2459.7378     67.0658     12.5354      0.5541     16.2875     17.9508     13.5935    271.8656   1478.7205     25.4855
  2459.8377     67.4730     11.9397     -0.1995     15.3517     17.0290     12.8408    272.9557   1479.5974     25.4913
  2459.9376     67.6383     10.7860     -0.8003     13.5386     15.0772     11.4547    273.5414   1480.3704     25.4585
  2460.0375     67.6248     10.2922     -0.2654     12.7620     14.1635     10.8961    273.1684   1480.4695     25.3401
  2460.1374     67.6587      9.9196      0.4748     12.1671     13.4117     10.5131    272.4936   1480.6444     25.0639
  2460.2373     67.5760      9.7179      0.3556     11.7850     13.0413     10.5325    270.8824   1481.5419     24.4463
  2460.3372     67.0602      9.9050      0.0451     12.0283     13.3893     10.9678    270.3287   1482.0388     24.2603
  2460.4371     65.9379     10.2186     -0.3123     12.4715     13.9261     11.5998    270.1553   1482.2968     24.1497
  2460.5370     61.6076     10.8566      0.4345     13.4178     14.9063     12.4866    271.0114   1481.8123     23.9976
  2460.6369     58.6438     11.0400      0.3029     13.7017     15.1534     12.7232    271.7978   1481.3138     23.8654
  2460.7368     55.4823     11.1130     -0.2114     13.8204     15.2456     12.7953    272.5717   1480.9043     23.6802
  2460.8367     52.3930     11.1058     -0.2585     13.8158     15.2496     12.7395    273.1656   1480.6591     23.4246
  2460.9366     47.1892     10.9723     -0.8500     13.6267     15.1883     12.4525    273.4448   1480.1204     22.7822
  2461.0365     45.2671     10.8590      0.0483     13.4692     15.1285     12.2654    273.0938   1479.3885     22.4823
  2461.1364     43.8375     10.7022      0.9587     13.2532     15.0222     12.0399    272.4828   1478.2247     22.1417
  2461.2363     42.4309     10.2446     -0.0267     12.6269     14.6278     11.4497    271.0214   1475.3914     21.8041
  2461.3362     42.4383      9.9416      0.0711     12.2202     14.3170     11.0803    270.5290   1474.3625     21.6092
  2461.4361     42.9253      9.5742     -0.4670     11.7375     13.8917     10.6421    270.3981   1473.8960     22.0662
  2461.5360     45.4073      8.5871      0.0992     10.4666     12.5838      8.8630    271.2773   1474.4084     23.0560
  2461.6359     47.3803      8.0077      0.8071      9.7229     11.7633      7.8248    272.0682   1474.9121     23.9591
  2461.7358     49.7236      7.4768     -0.0199      9.0390     10.9925      6.8465    272.8835   1475.2639     24.8915
  2461.8357     54.6973      7.0245      0.1126      8.4569     10.2749      5.8389    274.2052   1475.3473     26.5755
  2461.9356     56.8303      7.2450     -0.1690      8.7497     10.5308      6.0932    274.6833   1475.3438     27.0079
  2462.0355     58.4773      7.7294      0.6482      9.3915     11.1391      6.8343    275.0786   1475.5609     27.1645
  2462.1354     59.6055      8.3643     -0.0667     10.2348     11.9543      7.8821    275.4170   1476.1021     27.1773
  2462.2353     60.7962      9.5763      0.2653     11.8520     13.5147      9.9830    275.9404   1477.9851     27.0044
  2462.3352     61.2160      9.9939      0.2277     12.4125     14.0539     10.7152    276.1177   1479.0842     26.9471
  2462.4351     61.6727     10.2678      0.0542     12.7828     14.4135     11.1766    276.2436   1480.1763     26.9328
  2462.5350     62.6340     10.5164      0.6050     13.1311     14.7699     11.4947    276.4104   1482.4852     26.9513
  2462.6349     63.0255     10.5593      0.0492     13.2027     14.8500     11.4834    276.4927   1483.8362     26.9632
  2462.7348     63.3456     10.5755      0.3058     13.2441     14.8943     11.4233    276.5945   1485.2827     26.9826
  2462.8347     64.0278     10.5707      0.3068     13.2906     14.9155     11.2680    276.8594   1487.6157     26.9375
  2462.9346     64.4593     10.5785      0.2432     13.3314     14.9322     11.2255    276.9991   1487.9990     26.5393
  2463.0345     64.8422     10.6244      0.3058     13.4234     15.0022     11.2515    277.1170   1487.7162     26.2348
  2463.1344     64.7186     10.9420     -0.2625     13.9049     15.4869     11.6593    277.2099   1485.8882     25.4724
  2463.2343     63.9793     11.2498      0.0492     14.3407     15.9636     12.0906    277.1652   1484.9526     25.1493
  2463.3342     62.8816     11.6536      0.5385     14.9023     16.5937     12.6721    277.0646   1484.2820     24.4852
  2463.4341     60.6187     12.6325     -0.2116     16.2494     18.1236     14.1398    276.7662   1483.5266     23.6935
  2463.5340     59.9217     13.1236      0.1100     16.9255     18.8872     14.9139    276.6102   1483.1205     23.1286
  2463.6339     59.6455     13.5596     -0.1603     17.5289     19.5622     15.6315    276.4720   1482.5996     22.9461
  2463.7338     59.7430     13.9084      0.1100     18.0155     20.1024     16.2358    276.3604   1482.0884     22.9133
  2463.8337     60.6431     14.2606      0.2354     18.5141     20.6711     16.9180    276.2246   1481.9813     23.6281
  2463.9336     61.2711     14.2415      0.3576     18.4906     20.6659     16.9356    276.1995   1482.6471     24.1166
  2464.0335     61.9685     14.0907     -0.5187     18.2830     20.4526     16.7305    276.2029   1483.7064     24.7397
  2464.1334     63.6121     13.4581      0.1936     17.4222     19.4258     15.7869    276.3025   1486.2252     26.2854
  2464.2333     64.6159     13.0444      0.6979     16.8767     18.6856     15.1736    276.4046   1487.4578     27.0332
  2464.3332     65.7823     12.6320      0.5469     16.3544     17.8906     14.5690    276.5495   1488.7399     27.3718
  2464.4331     68.7143     11.9986      0.0182     15.6424     17.0060     13.6254    277.0366   1491.9585     27.9480
  2464.5330     70.4986     11.8143      0.4231     15.4908     16.8072     13.3186    277.4529   1493.9093     27.6032
  2464.6329     72.4328     11.6855      0.5997     15.4111     16.6944     13.0707    278.0686   1495.8542     27.7018
  2464.7328     75.9777     11.3599      0.7655     15.0676     16.3278     12.4609    280.1948   1498.7356     27.4673
  2464.8327     76.9345     11.0679      1.0680     14.6440     15.8493     11.9997    281.7670   1499.4576     27.1647
  2464.9326     76.8767     10.6770     -1.0293     14.0323     15.1197     11.4369    283.5817   1499.8403     26.7169
  2465.0325     73.2901      9.7376      0.4178     12.4952     13.2556     10.2041    287.1196   1500.4503     26.2630
  2465.1324     70.2650      9.2804     -0.6275     11.7397     12.2972      9.6374    288.3993   1500.8906     25.9231
  2465.2323     67.1248      8.8805      2.2231     11.0866     11.6651      9.1496    289.2081   1501.3151     25.7490
  2465.3322     64.4243      8.5562     -7.4336     10.5719     11.1501      8.7550    289.6304   1501.5354     25.5383
  2465.4321     61.4523      8.1409    -20.3274      9.9671     10.8055      8.2427    290.1925   1500.9116     24.9971
  2465.5320     61.0551      8.0267    -26.3874      9.8323     10.7004      8.0891    290.7464   1500.1648     24.8716
  2465.6319     61.0174      7.9489     -4.1399      9.7615     10.5610      7.9558    291.5687   1499.3503     24.8731
  2465.7318     61.0506      7.8187     -0.9677      9.6637     10.5525      7.5692    293.4443   1498.0347     25.2260
  2465.8317     60.9673      7.7391      0.9343      9.5867     10.6566      7.2598    294.0616   1497.5242     25.3167
  2465.9316     60.9063      7.6511      0.0339      9.4885     10.8504      6.8883    294.2548   1496.9686     25.3665
  2466.0315     61.3133      7.5126      0.0884      9.3176     11.1080      6.1898    293.4606   1495.3989     25.3557
