~Version Information
VERS.                            2.0: CWLS Log ASCII STANDARD - VERSION 2.0
WRAP.                             NO: One line per depth step
~Well Information
STRT.M                     1749.9483: FIRST INDEX VALUE
STOP.M                     2729.7675: LAST INDEX VALUE
STEP.M                        0.0999: STEP
NULL.                      -999.2500: NULL VALUE
COMP.                PAN AMERICAN ENERGY L.L.C.: COMPANY
WELL.                PAE.Ch.PLMS-1041: WELL
FLD.                 LA MADRE SELVA SUR: FIELD
LOC.                 X: 4.915.236,49--Y: 2.543.733,51--Z:          701,17: LOCATION
PROV.                         CHUBUT: PROVINCE
SRVC.                          EXPRO: SERVICE COMPANY
DATE.                do. feb. 04 04-26-35 2024: LOG DATE
UWI.                   9702908104100: UNIQUE WELL ID
CTRY.                      ARGENTINA: COUNTRY
SECT.                               : SECTION
TOWN.                               : TOWNSHIP
RANG.                               : RANGE
OS.                  CANASTA--114 mm.: OTHER SERVICES
PDAT.FT                   N. TERRENO: PERMANENT DATUM
EEL.FT                        701,17: ELEVATION
LMF.FT               KB:     4,60 m.: LOG MEASURED FROM
DMF.FT                 KELLY BUSHING: DRILLING MEASURED FROM
EKB.FT                              : KB
EDF.FT                        705,77: DF
EGL.FT                        701,17: GL
DATE1.                    04-02-2024: DATE1
RUN1.                             02: RUN NUMBER
TDD1.FT                       2728 m: DEPTH DRILLER
TDL1.FT                       2726 m: DEPTH LOGGER
BLI1.FT                      2726 m.: BOTTOM LOGGED INTERVAL
TLI1.FT                      1750 m.: TOP LOG INTERVAL
CDD1.IN_FT                          : CASING DRILLER
CDL1.FT                             : CASING LOGGER
BS1.IN                        9.625": BIT SIZE
DFT1.                           AGUA: TYPE FLUID IN HOLE
DFDV1.GM/C3_CP                 LLENO: DENSITY/VISCOSITY
DFPL1.C3                            : PH/FLUID LOSS
MSS1.                               : SOURCE OF SAMPLE
RMT1.OHHM_DEGF                      : RM@MEASURED TEMP
RMFT1.OHMM_DEGF                     : RMF@MEASURED TEMP
RMCT1.OHMM_DEGF                     : RMC@MEASURED TEMP
RMFS1.                              : SOURCE OF RMF/RMC
RMBT1.OHMM_DEGF                     : RM@BHT
TCS1.                               : TIME CIRCULATION STOPPED
TLOB1.                         ARROW: TIME LOGGER ON BOTTOM
BHT1.DEGF                   8.33 PPG: MAXIMUM RECORDED TEMPERATURE
LUN1.                       COMODORO: EQUIPMENT NUMBER
LUL1.                     A. BELTRAN: LOCATION
ENGI1.                  M. HARAMILLA: RECORDED BY
WITN1.                              : WITNESSED BY
COMW.                               : Common Well Name
~Curve Information
DEPT.M                   0 000 00 00: Depth
GR.GAPI                            0: Gamma Ray
AMP3FT.MV                          0: AMP3FT Amplitude
CCL.                               0: Casing Collar Locator
AMPAVG.                            0: Average Sector Amplitude
AMPMAX.                            0: Maximum Sector Amplitude
AMPMIN.                            0: Minimum Sector Amplitude
TT3FT.USEC                         0: 3FT Travel Time
LTEN.LB                            0: Surface Line Tension
Neutron.                           0: SGA1
~Parameter Information
~Other Information
SE TOMA DE REFERENCIA MESA ROTARIA (KB: 4,60 m.).

REGISTRO CORRELACIONADO CON REGISTRO PERFILES COMBINADOS (LINEAL) 

DE CIA BAKER HUGHES DE FECHA 28-ENERO-2024

SE CORRIGE EN FONDO 2726 m.

AMPLITUD 3" MAX.ESPERADA: 71,92 mV.

TIEMPO DE TRANSITO 3" ESPERADA: 233 uSeg.


~A  Depth        GR        AMP3FT       CCL        AMPAVG      AMPMAX      AMPMIN      TT3FT        LTEN      Neutron   
# ...
  1944.0540     63.4828     26.2311      0.5809     35.9035     37.2305     34.2469    236.7394   1212.1376     25.7838
  1944.1539     63.5561     27.3110     -0.0891     37.4130     38.6615     35.8108    236.4327   1212.6659     25.7851
  1944.2538     63.1379     28.5146     -0.4872     39.1029     40.2744     37.5702    236.1140   1213.0160     25.7068
  1944.3537     62.3292     29.8216      1.0977     40.9526     42.0628     39.4921    235.7984   1213.0481     25.6693
  1944.4536     60.3918     32.6449     -0.1153     45.0205     46.1231     43.6261    235.2305   1212.1333     25.5351
  1944.5535     59.7020     34.0992     -0.4695     47.1597     48.3428     45.7111    234.9995   1211.4741     25.5144
  1944.6534     59.3958     35.5386      0.2704     49.3055     50.6275     47.7248    234.8121   1210.9503     25.6013
  1944.7533     60.0216     38.3001      0.4385     53.4726     55.1668     51.4318    234.5647   1210.6776     25.9982
  1944.8532     60.7952     39.6366      0.1029     55.4834     57.3429     53.1708    234.4904   1210.8000     26.1988
  1944.9531     61.6640     40.9865     -0.2441     57.4849     59.4484     54.9198    234.4338   1210.8806     26.3248
  1945.0530     62.8881     43.8785     -0.0615     61.6304     63.5400     58.7262    234.3289   1210.4370     26.2658
  1945.1529     62.9140     45.4488      0.0555     63.8064     65.5571     60.8427    234.2660   1209.8838     26.1918
  1945.2528     62.4512     47.0659      0.2704     66.0043     67.5289     63.0579    234.1938   1209.1904     25.8897
  1945.3527     60.3299     50.1251     -0.0401     70.0648     71.2543     67.3605    234.0395   1207.5981     25.8488
  1945.4526     58.9922     51.3495     -0.1373     71.6510     72.6404     69.1472    233.9725   1206.7423     25.7624
  1945.5525     57.7381     52.2093     -0.1781     72.7375     73.5227     70.4608    233.9234   1205.8916     25.9248
  1945.6524     56.7556     52.5938      0.0175     73.1831     74.1523     71.1350    233.8998   1205.1395     26.1044
  1945.7523     56.0870     51.6494      0.1229     71.7681     72.8782     70.0967    233.9505   1204.4438     25.6238
  1945.8522     56.4378     50.2950     -0.6411     69.8583     70.9622     68.3141    234.0303   1204.6622     25.3653
  1945.9521     57.1226     48.4272     -0.2686     67.2293     68.3217     65.7740    234.1463   1205.2010     25.0597
  1946.0520     58.8248     43.6522      0.0879     60.4470     61.6229     59.0873    234.4738   1206.5004     23.8405
  1946.1519     59.5667     41.0513      0.6010     56.7103     57.9962     55.3661    234.6755   1206.8599     23.6119
  1946.2518     60.1788     38.5074     -0.6431     53.0329     54.4459     51.6818    234.8939   1206.8892     23.4020
  1946.3517     61.2387     34.0348     -0.0972     46.5504     48.1105     45.1185    235.3499   1206.3212     23.5307
  1946.4516     61.7945     32.2465      0.2904     43.9742     45.4906     42.4784    235.5681   1206.1141     23.2066
  1946.5515     62.3575     30.8059      0.3715     41.9206     43.3009     40.3558    235.7641   1206.1846     23.1329
  1946.6514     63.2907     29.0124      0.1921     39.4348     40.3602     37.7421    236.0383   1207.1296     23.0942
  1946.7513     63.6329     28.6467     -1.0686     38.9684     39.7945     37.2258    236.0987   1207.7303     23.2891
  1946.8512     63.9441     28.5966     -0.2148     38.9508     39.6637     37.1759    236.1068   1208.2384     22.9880
  1946.9511     64.4431     29.1870      0.2059     39.8549     40.4116     38.1184    236.0503   1209.1078     23.5723
  1947.0510     64.3848     29.6464     -0.3520     40.5024     41.0859     38.8667    236.0800   1209.7554     24.1244
  1947.1509     63.8749     30.0742     -0.0351     41.0745     41.6309     39.6089    236.2520   1210.6865     24.3910
  1947.2508     62.8102     30.3644      0.1959     41.4225     41.8791     40.1973    236.6697   1211.8448     24.4294
  1947.3507     59.3594     30.1831      1.2006     40.9848     41.4049     40.3986    238.6220   1214.0935     23.6924
  1947.4506     57.4158     29.6146     -1.0122     40.0855     40.5814     39.5486    240.2149   1214.8431     23.5531
  1947.5505     55.6380     28.7466      0.2000     38.7761     39.3868     38.0003    242.0911   1215.3085     23.4707
  1947.6504     53.1498     26.5398      1.4688     35.5693     36.3293     34.4798    245.6861   1215.9558     23.5290
  1947.7503     52.5884     25.5316     -0.6736     34.1483     35.0471     33.0061    246.8424   1216.4222     23.7126
  1947.8502     52.5095     24.8150     -0.6625     33.1721     34.2157     32.0462    247.3379   1217.0055     24.0639
  1947.9501     53.4433     24.6890      4.9267     33.1466     34.4810     32.2173    246.5508   1217.9440     24.7051
  1948.0500     54.0670     25.3543     22.2239     34.1896     35.6678     33.2775    245.6263   1218.0215     24.9759
  1948.1499     54.5061     26.4859      1.9922     35.8996     37.5201     34.8999    244.5910   1217.8599     25.1684
  1948.2498     54.5655     29.9313     -0.5302     40.9884     42.8733     39.5525    242.4798   1217.7761     24.9951
  1948.3497     54.4109     32.0552     -1.0310     44.0876     46.0772     42.4425    241.3923   1218.3939     24.4264
  1948.4496     54.4117     34.2536     -1.2418     47.2779     49.3373     45.5120    240.2587   1219.6053     23.7734
  1948.5495     55.5095     38.1798      0.9128     52.9370     54.9928     51.2570    237.9810   1223.1771     22.9001
  1948.6494     56.6918     39.6277      0.3963     55.0089     56.9891     53.5249    236.9755   1224.9889     22.8209
  1948.7493     58.2065     40.6473      0.3711     56.4600     58.3289     55.0091    236.1497   1226.5094     22.9434
  1948.8492     59.9061     41.2609      0.2247     57.3282     59.0709     55.9369    235.5344   1227.6449     23.1348
  1948.9491     63.1334     41.5999     -0.8144     57.8155     59.3573     56.5584    234.8818   1228.8656     23.5364
  1949.0490     64.3311     41.5427      0.2247     57.7560     59.2665     56.5357    234.7580   1229.0831     23.6442
  1949.1489     65.1123     41.4729      0.6476     57.6949     59.2372     56.4705    234.7045   1229.0923     23.9262
  1949.2488     65.3451     41.5652      0.9128     57.9411     59.7265     56.5701    234.6724   1228.4680     24.0916
  1949.3487     64.8378     41.7815     -0.4064     58.3159     60.2851     56.8170    234.6597   1227.8496     24.1180
  1949.4486     63.9703     42.1025      0.1002     58.8391     61.0076     57.1957    234.6440   1227.1179     24.4795
  1949.5485     61.4756     42.9563     -1.6155     60.1701     62.7116     58.2491    234.6142   1225.8816     24.8425
  1949.6484     60.1068     43.4363      1.2294     60.8993     63.5899     58.7817    234.6046   1225.6339     24.8587
  1949.7483     58.8723     43.9165      0.2784     61.6222     64.4284     59.2927    234.5986   1225.6741     24.9441
  1949.8482     57.3813     44.7481      0.4518     62.8830     65.8217     60.2498    234.5935   1226.1475     25.0481
  1949.9481     57.2806     45.0165     -0.2592     63.3145     66.2810     60.5652    234.5948   1226.2643     25.3648
  1950.0480     57.5826     45.1246      0.0046     63.5301     66.5110     60.6686    234.6013   1226.1766     25.4559
  1950.1479     58.1547     45.0296      0.7811     63.4667     66.4584     60.4869    234.6167   1225.9034     25.2373
  1950.2478     59.3005     44.1085     -0.7692     62.2964     65.3232     59.0657    234.6915   1225.0621     24.3603
  1950.3477     59.5247     43.2557     -0.1535     61.1262     64.1803     57.7856    234.7590   1224.5378     24.0618
  1950.4476     59.4583     42.1502     -0.7298     59.5632     62.6477     56.1431    234.8500   1223.8817     23.7716
  1950.5475     58.9767     39.3240      0.7676     55.4443     58.5885     51.9879    235.0984   1222.0555     23.5480
  1950.6474     58.8740     37.7248     -0.3152     53.0707     56.2396     49.6504    235.2476   1221.0433     23.4492
