~Version Information
VERS.                            2.0: CWLS Log ASCII STANDARD - VERSION 2.0
WRAP.                             NO: One line per depth step
~Well Information
STRT.M                     1749.9483: FIRST INDEX VALUE
STOP.M                     2729.7675: LAST INDEX VALUE
STEP.M                        0.0999: STEP
NULL.                      -999.2500: NULL VALUE
COMP.                PAN AMERICAN ENERGY L.L.C.: COMPANY
WELL.                PAE.Ch.PLMS-1041: WELL
FLD.                 LA MADRE SELVA SUR: FIELD
LOC.                 X: 4.915.236,49--Y: 2.543.733,51--Z:          701,17: LOCATION
PROV.                         CHUBUT: PROVINCE
SRVC.                          EXPRO: SERVICE COMPANY
DATE.                do. feb. 04 04-26-35 2024: LOG DATE
UWI.                   9702908104100: UNIQUE WELL ID
CTRY.                      ARGENTINA: COUNTRY
SECT.                               : SECTION
TOWN.                               : TOWNSHIP
RANG.                               : RANGE
OS.                  CANASTA--114 mm.: OTHER SERVICES
PDAT.FT                   N. TERRENO: PERMANENT DATUM
EEL.FT                        701,17: ELEVATION
LMF.FT               KB:     4,60 m.: LOG MEASURED FROM
DMF.FT                 KELLY BUSHING: DRILLING MEASURED FROM
EKB.FT                              : KB
EDF.FT                        705,77: DF
EGL.FT                        701,17: GL
DATE1.                    04-02-2024: DATE1
RUN1.                             02: RUN NUMBER
TDD1.FT                       2728 m: DEPTH DRILLER
TDL1.FT                       2726 m: DEPTH LOGGER
BLI1.FT                      2726 m.: BOTTOM LOGGED INTERVAL
TLI1.FT                      1750 m.: TOP LOG INTERVAL
CDD1.IN_FT                          : CASING DRILLER
CDL1.FT                             : CASING LOGGER
BS1.IN                        9.625": BIT SIZE
DFT1.                           AGUA: TYPE FLUID IN HOLE
DFDV1.GM/C3_CP                 LLENO: DENSITY/VISCOSITY
DFPL1.C3                            : PH/FLUID LOSS
MSS1.                               : SOURCE OF SAMPLE
RMT1.OHHM_DEGF                      : RM@MEASURED TEMP
RMFT1.OHMM_DEGF                     : RMF@MEASURED TEMP
RMCT1.OHMM_DEGF                     : RMC@MEASURED TEMP
RMFS1.                              : SOURCE OF RMF/RMC
RMBT1.OHMM_DEGF                     : RM@BHT
TCS1.                               : TIME CIRCULATION STOPPED
TLOB1.                         ARROW: TIME LOGGER ON BOTTOM
BHT1.DEGF                   8.33 PPG: MAXIMUM RECORDED TEMPERATURE
LUN1.                       COMODORO: EQUIPMENT NUMBER
LUL1.                     A. BELTRAN: LOCATION
ENGI1.                  M. HARAMILLA: RECORDED BY
WITN1.                              : WITNESSED BY
COMW.                               : Common Well Name
~Curve Information
DEPT.M                   0 000 00 00: Depth
GR.GAPI                            0: Gamma Ray
AMP3FT.MV                          0: AMP3FT Amplitude
CCL.                               0: Casing Collar Locator
AMPAVG.                            0: Average Sector Amplitude
AMPMAX.                            0: Maximum Sector Amplitude
AMPMIN.                            0: Minimum Sector Amplitude
TT3FT.USEC                         0: 3FT Travel Time
LTEN.LB                            0: Surface Line Tension
Neutron.                           0: SGA1
~Parameter Information
~Other Information
SE TOMA DE REFERENCIA MESA ROTARIA (KB: 4,60 m.).

REGISTRO CORRELACIONADO CON REGISTRO PERFILES COMBINADOS (LINEAL) 

DE CIA BAKER HUGHES DE FECHA 28-ENERO-2024

SE CORRIGE EN FONDO 2726 m.

AMPLITUD 3" MAX.ESPERADA: 71,92 mV.

TIEMPO DE TRANSITO 3" ESPERADA: 233 uSeg.


~A  Depth        GR        AMP3FT       CCL        AMPAVG      AMPMAX      AMPMIN      TT3FT        LTEN      Neutron   
# ...
  1877.1210     51.5907     39.0001      0.6139     53.6224     55.5771     50.7458    234.2428   1162.8837     23.4312
  1877.2209     51.4912     38.9621      0.5260     53.5994     55.4265     50.7926    234.2598   1163.0896     23.4341
  1877.3208     51.3125     39.2300     -0.7374     53.9912     55.6022     51.5123    234.2463   1162.8925     22.5587
  1877.4207     51.3237     39.6010      0.5852     54.4971     56.0344     52.2747    234.2117   1162.7742     22.5238
  1877.5206     51.3856     40.1364     -1.5123     55.2214     56.7059     53.3138    234.1614   1162.7974     21.8726
  1877.6205     51.4575     41.5484      0.6966     57.1304     58.5188     55.9841    234.0377   1163.0272     21.1706
  1877.7204     51.3799     42.2911      0.3259     58.1388     59.4470     57.3994    233.9776   1162.9198     20.9559
  1877.8203     51.2022     42.9551     -0.8151     59.0451     60.2293     58.1272    233.9253   1162.5194     20.9042
  1877.9202     50.5820     43.8103     -0.8868     60.2306     61.2652     59.0003    233.8486   1161.1243     21.2694
  1878.0201     50.1926     43.9468     -0.7835     60.4352     61.7072     59.1328    233.8209   1160.4558     21.5479
  1878.1200     49.8094     43.8967      0.7619     60.3903     61.8739     59.0829    233.7966   1159.9734     22.1311
  1878.2199     49.3188     43.3643     -0.0496     59.7150     61.4802     58.2418    233.7523   1159.4562     23.0118
  1878.3198     49.3269     42.9627      0.0425     59.1848     61.0009     57.6976    233.7342   1159.2083     23.4304
  1878.4197     49.5242     42.5289      0.4151     58.5975     60.4086     57.1373    233.7227   1158.8619     23.7126
  1878.5196     49.8547     42.1109      0.5557     58.0147     59.7824     56.6016    233.7208   1158.4403     24.0509
  1878.6195     50.4564     41.5411      0.1699     57.1679     58.8330     55.8184    233.7490   1157.7822     24.2964
  1878.7194     50.4822     41.5009     -0.2429     57.0717     58.7198     55.7091    233.7732   1157.7279     24.2929
  1878.8193     50.2335     41.6820     -0.2212     57.2877     58.9514     55.8810    233.7962   1157.8604     24.2290
  1878.9192     49.0605     42.7449      0.3672     58.7415     60.4893     57.2080    233.8137   1158.2900     24.1160
  1879.0191     48.3350     43.5794      0.4669     59.9215     61.6996     58.3396    233.8014   1158.4023     24.1429
  1879.1190     47.6565     44.5569     -0.4917     61.3200     63.0986     59.7165    233.7764   1158.4337     24.2093
  1879.2189     46.5742     46.7731     -0.2012     64.5141     66.1827     62.8164    233.7090   1158.6211     24.1522
  1879.3188     46.0812     47.9570      0.0200     66.2147     67.7784     64.4826    233.6797   1158.9427     23.6874
  1879.4187     45.5050     49.1658      0.4729     67.9336     69.3682     66.1696    233.6600   1159.3992     23.2163
  1879.5186     43.8674     51.5283      0.3701     71.2133     72.4387     69.3417    233.6569   1160.1598     22.1233
  1879.6185     42.8103     52.5750     -0.1481     72.6250     74.1550     70.6741    233.6707   1160.1774     21.6349
  1879.7184     41.6666     53.4448     -0.2464     73.7784     75.5846     71.7438    233.6900   1159.9143     21.2179
  1879.8183     39.4541     54.4571     -0.0625     75.1189     77.2706     72.9734    233.7289   1159.1619     20.4022
  1879.9182     38.5629     54.5648      0.3989     75.2942     77.4760     73.1564    233.7423   1159.0588     20.2902
  1880.0181     37.9246     54.4230     -0.3854     75.1708     77.2835     73.0968    233.7500   1159.2192     20.2489
  1880.1180     37.5992     54.0576     -0.1707     74.7754     76.7308     72.8193    233.7527   1159.4691     20.2911
  1880.2179     37.9621     52.7290      0.5275     73.1845     74.6356     71.5629    233.7533   1159.0437     20.6889
  1880.3178     38.6169     51.7782     -0.1787     71.9568     73.1068     70.5063    233.7581   1158.0178     21.1167
  1880.4177     39.5408     50.6371      0.3775     70.4180     71.4092     69.1167    233.7707   1156.6873     21.6864
  1880.5176     42.0701     47.8300     -0.7635     66.4681     67.5797     65.4009    233.8311   1155.6204     22.9275
  1880.6175     43.6279     46.2270      0.5275     64.1711     65.2706     63.2212    233.8804   1157.3406     23.5048
  1880.7174     45.3464     44.5601     -0.4122     61.7820     62.7936     60.9799    233.9398   1161.2070     23.6955
  1880.8173     49.0061     41.2736      0.7541     57.1272     57.7174     56.0421    234.0768   1174.8436     23.7646
  1880.9172     50.7022     39.7485     -0.1017     55.0062     55.7224     53.2850    234.1534   1183.3756     23.8815
  1881.0171     52.0855     38.3323     -0.3676     53.0599     53.9941     50.6803    234.2396   1191.9161     24.0192
  1881.1170     53.3521     35.8209      0.5629     49.6416     51.3007     46.1422    234.4585   1206.2183     24.3600
  1881.2169     53.1707     34.7154     -0.3676     48.1355     50.0911     44.2598    234.5923   1211.2388     24.4498
  1881.3168     52.5766     33.7128      1.1466     46.7615     48.9366     42.6387    234.7367   1214.7729     24.3152
  1881.4167     50.8354     32.0526     -0.0127     44.4566     46.9158     40.1111    235.0277   1218.1093     24.1950
  1881.5166     49.9377     31.4122     -0.7148     43.5481     46.1093     39.1637    235.1591   1218.4426     24.2036
  1881.6165     49.0586     30.9065      0.8372     42.8105     45.4533     38.4154    235.2709   1218.2887     24.1917
  1881.7164     48.1561     30.5398      0.0047     42.2467     44.9403     37.8750    235.3551   1217.9482     24.1877
  1881.8163     46.2317     30.2267     -0.4043     41.6483     44.2928     37.4753    235.4172   1217.6593     24.1246
  1881.9162     45.3790     30.2656     -0.5572     41.6072     44.1432     37.6133    235.3930   1217.9651     24.0974
  1882.0161     44.8251     30.4119      0.7316     41.7230     44.1115     37.9364    235.3392   1218.5804     24.1097
  1882.1160     45.2269     30.9280     -0.0938     42.3360     44.4240     38.9010    235.1882   1220.4044     24.1756
  1882.2159     46.2850     31.2466     -1.0934     42.7750     44.7636     39.4168    235.1149   1221.4127     24.1420
  1882.3158     47.8414     31.5728      0.2503     43.2550     45.1987     39.8883    235.0554   1222.3760     23.8707
  1882.4157     51.9755     32.1635      0.4404     44.1908     46.1935     40.6045    234.9856   1223.9198     23.6499
  1882.5156     54.2696     32.3987      0.7677     44.5891     46.6709     40.8407    234.9692   1224.3804     23.5891
  1882.6155     56.4821     32.5907      0.4956     44.9285     47.1067     41.0086    234.9568   1224.5592     23.5299
  1882.7154     59.8315     32.9074      0.0147     45.5069     47.9151     41.2275    234.9210   1224.0299     23.4290
  1882.8153     60.6238     33.0793      0.0743     45.8084     48.3507     41.3320    234.8906   1223.4424     23.4198
  1882.9152     60.7353     33.2820     -0.5477     46.1453     48.8309     41.4599    234.8526   1222.7955     23.4599
  1883.0151     60.2238     33.5080      0.3839     46.5036     49.3325     41.6070    234.8124   1222.1956     23.5531
  1883.1150     57.8783     33.8643      0.1617     47.0429     50.1061     41.7775    234.7689   1221.1219     24.1914
  1883.2149     56.3615     33.8586     -0.1421     47.0330     50.1664     41.6332    234.7941   1220.3560     24.2678
  1883.3148     54.8086     33.6300      0.0294     46.6992     49.8660     41.2042    234.8707   1219.1304     24.3096
  1883.4147     52.0764     32.3113      0.9251     44.8050     47.9268     39.2441    235.2208   1214.7053     24.3341
  1883.5146     51.1155     31.2163      0.1463     43.2460     46.2852     37.7242    235.5014   1211.6320     24.4039
  1883.6145     50.5500     29.8953     -0.4750     41.3748     44.2865     35.9471    235.8456   1208.3838     24.4836
  1883.7144     50.7498     26.9442      0.1617     37.2297     39.7721     32.1319    236.6646   1203.1230     24.5035
