~Version Information
VERS.                            2.0: CWLS Log ASCII STANDARD - VERSION 2.0
WRAP.                             NO: One line per depth step
~Well Information
STRT.M                     1749.9483: FIRST INDEX VALUE
STOP.M                     2729.7675: LAST INDEX VALUE
STEP.M                        0.0999: STEP
NULL.                      -999.2500: NULL VALUE
COMP.                PAN AMERICAN ENERGY L.L.C.: COMPANY
WELL.                PAE.Ch.PLMS-1041: WELL
FLD.                 LA MADRE SELVA SUR: FIELD
LOC.                 X: 4.915.236,49--Y: 2.543.733,51--Z:          701,17: LOCATION
PROV.                         CHUBUT: PROVINCE
SRVC.                          EXPRO: SERVICE COMPANY
DATE.                do. feb. 04 04-26-35 2024: LOG DATE
UWI.                   9702908104100: UNIQUE WELL ID
CTRY.                      ARGENTINA: COUNTRY
SECT.                               : SECTION
TOWN.                               : TOWNSHIP
RANG.                               : RANGE
OS.                  CANASTA--114 mm.: OTHER SERVICES
PDAT.FT                   N. TERRENO: PERMANENT DATUM
EEL.FT                        701,17: ELEVATION
LMF.FT               KB:     4,60 m.: LOG MEASURED FROM
DMF.FT                 KELLY BUSHING: DRILLING MEASURED FROM
EKB.FT                              : KB
EDF.FT                        705,77: DF
EGL.FT                        701,17: GL
DATE1.                    04-02-2024: DATE1
RUN1.                             02: RUN NUMBER
TDD1.FT                       2728 m: DEPTH DRILLER
TDL1.FT                       2726 m: DEPTH LOGGER
BLI1.FT                      2726 m.: BOTTOM LOGGED INTERVAL
TLI1.FT                      1750 m.: TOP LOG INTERVAL
CDD1.IN_FT                          : CASING DRILLER
CDL1.FT                             : CASING LOGGER
BS1.IN                        9.625": BIT SIZE
DFT1.                           AGUA: TYPE FLUID IN HOLE
DFDV1.GM/C3_CP                 LLENO: DENSITY/VISCOSITY
DFPL1.C3                            : PH/FLUID LOSS
MSS1.                               : SOURCE OF SAMPLE
RMT1.OHHM_DEGF                      : RM@MEASURED TEMP
RMFT1.OHMM_DEGF                     : RMF@MEASURED TEMP
RMCT1.OHMM_DEGF                     : RMC@MEASURED TEMP
RMFS1.                              : SOURCE OF RMF/RMC
RMBT1.OHMM_DEGF                     : RM@BHT
TCS1.                               : TIME CIRCULATION STOPPED
TLOB1.                         ARROW: TIME LOGGER ON BOTTOM
BHT1.DEGF                   8.33 PPG: MAXIMUM RECORDED TEMPERATURE
LUN1.                       COMODORO: EQUIPMENT NUMBER
LUL1.                     A. BELTRAN: LOCATION
ENGI1.                  M. HARAMILLA: RECORDED BY
WITN1.                              : WITNESSED BY
COMW.                               : Common Well Name
~Curve Information
DEPT.M                   0 000 00 00: Depth
GR.GAPI                            0: Gamma Ray
AMP3FT.MV                          0: AMP3FT Amplitude
CCL.                               0: Casing Collar Locator
AMPAVG.                            0: Average Sector Amplitude
AMPMAX.                            0: Maximum Sector Amplitude
AMPMIN.                            0: Minimum Sector Amplitude
TT3FT.USEC                         0: 3FT Travel Time
LTEN.LB                            0: Surface Line Tension
Neutron.                           0: SGA1
~Parameter Information
~Other Information
SE TOMA DE REFERENCIA MESA ROTARIA (KB: 4,60 m.).

REGISTRO CORRELACIONADO CON REGISTRO PERFILES COMBINADOS (LINEAL) 

DE CIA BAKER HUGHES DE FECHA 28-ENERO-2024

SE CORRIGE EN FONDO 2726 m.

AMPLITUD 3" MAX.ESPERADA: 71,92 mV.

TIEMPO DE TRANSITO 3" ESPERADA: 233 uSeg.


~A  Depth        GR        AMP3FT       CCL        AMPAVG      AMPMAX      AMPMIN      TT3FT        LTEN      Neutron   
# ...
  2720.4768   -999.2500      5.8665      0.1064      7.0221      9.0850      3.8936    311.6856   1632.6448  -9999.0000
  2720.5767   -999.2500      6.0790      0.9790      7.3535      9.5595      4.0813    303.1776   1632.8040  -9999.0000
  2720.6766   -999.2500      6.3046      0.0806      7.7014     10.0506      4.2911    295.5652   1633.3480  -9999.0000
  2720.7765   -999.2500      6.7793     -0.7665      8.4079     11.0058      4.7725    285.1749   1634.9816  -9999.0000
  2720.8764   -999.2500      7.0160      0.1976      8.7446     11.4285      5.0360    282.3497   1635.9220  -9999.0000
  2720.9763   -999.2500      7.2349      0.5716      9.0469     11.7812      5.2979    280.6492   1636.8483  -9999.0000
  2721.0762   -999.2500      7.5435     -0.7685      9.4553     12.1768      5.7279    279.1603   1637.8978  -9999.0000
  2721.1761   -999.2500      7.6004     -0.6969      9.5224     12.1891      5.8510    278.8929   1637.5779  -9999.0000
  2721.2760   -999.2500      7.5841      0.8984      9.4895     12.0809      5.8952    278.7787   1636.6066  -9999.0000
  2721.3759   -999.2500      7.3762     -0.0494      9.1854     11.6054      5.7728    278.8202   1633.8925  -9999.0000
  2721.4758   -999.2500      7.2298     -0.0561      8.9745     11.3139      5.6509    278.9167   1633.1320     23.8252
  2721.5757   -999.2500      7.0899     -0.6705      8.7705     11.0383      5.5291    279.0309   1633.3031     23.6455
  2721.6756   -999.2500      6.9000     -0.4729      8.4807     10.6314      5.3829    279.3150   1636.2065     22.8649
  2721.7755   -999.2500      6.8601     -0.2210      8.4101     10.5118      5.3788    279.5807   1638.0859     22.6003
  2721.8754   -999.2500      6.8478      0.0621      8.3782     10.4335      5.4142    280.1045   1639.5852  -9999.0000
  2721.9753   -999.2500      6.8488     -0.3600      8.3665     10.3738      5.4740    281.1510   1640.4790  -9999.0000
  2722.0752   -999.2500      6.8242     -0.4489      8.3128     10.1999      5.5874    286.5610   1641.1283  -9999.0000
  2722.1751   -999.2500      6.7657     -0.7473      8.2240     10.0291      5.5980    292.0406   1641.5435  -9999.0000
  2722.2750   -999.2500      6.6596     -1.1117      8.0688      9.7738      5.5523    300.0305   1642.2146   -999.2500
  2722.3749   -999.2500      6.3020     -0.9545      7.5534      9.0135      5.2688    323.6044   1643.2363   -999.2500
  2722.4748   -999.2500      6.0783     -1.7338      7.2325      8.5611      5.0562    337.9492   1642.7882   -999.2500
  2722.5747   -999.2500      5.8575     -1.5491      6.9160      8.1192      4.8332    352.4618   1641.4678   -999.2500
  2722.6746   -999.2500      5.5148     -0.3794      6.4249      7.4257      4.4687    377.1167   1637.4832   -999.2500
  2722.7745   -999.2500      5.4139     -2.2049      6.2796      7.2101      4.3571    385.7558   1635.8701   -999.2500
  2722.8744   -999.2500      5.3559     -1.2386      6.1958      7.0755      4.2922    391.7933   1634.9933   -999.2500
  2722.9743   -999.2500      5.3226     -0.8501      6.1507      6.9718      4.2605    397.8580   1634.9259   -999.2500
  2723.0742   -999.2500      5.3250     -0.9585      6.1587      6.9640      4.2713    399.0211   1634.9418   -999.2500
  2723.1741   -999.2500      5.3302      1.1002      6.1728      6.9671      4.2892    399.5632   1634.5597   -999.2500
  2723.2740   -999.2500      5.3404     -1.1686      6.2007      6.9788      4.3320    399.8231   1632.8481   -999.2500
  2723.3739   -999.2500      5.3464     -1.2386      6.2120      6.9823      4.3550    399.7915   1632.0598   -999.2500
  2723.4738   -999.2500      5.3546     -1.0769      6.2223      6.9842      4.3791    399.7176   1631.5636   -999.2500
  2723.5737   -999.2500      5.3658     -1.4508      6.2325      6.9857      4.4040    399.6170   1631.2722   -999.2500
  2723.6736   -999.2500      5.3938      0.2313      6.2533      6.9918      4.4524    399.3703   1630.3833   -999.2500
  2723.7735   -999.2500      5.4077      2.2777      6.2636      6.9977      4.4739    399.2395   1629.6102   -999.2500
  2723.8734   -999.2500      5.4196     -0.0884      6.2731      7.0050      4.4928    399.1133   1628.8911   -999.2500
  2723.9733   -999.2500      5.4324      2.0951      6.2882      7.0187      4.5236    398.8962   1628.9585   -999.2500
  2724.0732   -999.2500      5.4326      0.2320      6.2932      7.0228      4.5363    398.8116   1629.9244   -999.2500
  2724.1731   -999.2500      5.4290      1.0857      6.2962      7.0244      4.5470    398.7440   1631.1569   -999.2500
  2724.2730   -999.2500      5.4157      0.4943      6.2965      7.0230      4.5599    398.6545   1632.8694   -999.2500
  2724.3729   -999.2500      5.4091      3.5688      6.2944      7.0231      4.5601    398.6282   1633.0938   -999.2500
  2724.4728   -999.2500      5.4042     -0.9648      6.2917      7.0263      4.5561    398.6108   1633.1486   -999.2500
  2724.5727   -999.2500      5.4021      3.0266      6.2886      7.0457      4.5424    398.5938   1633.5371   -999.2500
  2724.6726   -999.2500      5.4040     -0.8508      6.2896      7.0608      4.5380    398.5905   1633.5762   -999.2500
  2724.7725   -999.2500      5.4068      0.7806      6.2926      7.0771      4.5379    398.5889   1632.8684   -999.2500
  2724.8724   -999.2500      5.4094     -0.0785      6.2970      7.0925      4.5425    398.5883   1630.9663   -999.2500
  2724.9723   -999.2500      5.4114      0.2659      6.3051      7.1139      4.5583    398.5182   1624.3666   -999.2500
  2725.0722   -999.2500      5.4097      6.4996      6.3053      7.1177      4.5628    398.3590   1621.7991   -999.2500
  2725.1721   -999.2500      5.4046      6.5254      6.2994      7.1148      4.5592    397.9289   1621.8779   -999.2500
  2725.2720   -999.2500      5.3672      3.8114      6.2430      7.0631      4.4993    394.5067   1634.5197   -999.2500
  2725.3719   -999.2500      5.3159     88.5983      6.1661      6.9864      4.4178    389.6964   1646.6617   -999.2500
  2725.4718   -999.2500      5.2214    -18.9504      6.0267      6.8439      4.2739    380.7954   1660.3837   -999.2500
  2725.5717   -999.2500      4.8217     -3.3990      5.4409      6.2358      3.6837    342.8715   1682.1975   -999.2500
  2725.6716   -999.2500      4.4870     -0.5273      4.9487      5.7234      3.1919    310.9171   1686.1534   -999.2500
  2725.7715   -999.2500      4.0645     -0.5273      4.3247      5.0742      2.5688    270.4290   1684.3994   -999.2500
  2725.8714   -999.2500      3.0719     -0.0922      2.8486      3.5412      1.0920    174.8335   1666.4264   -999.2500
  2725.9713   -999.2500      2.5891      0.0978      2.1266      2.7929      0.3677    128.1664   1652.6311   -999.2500
  2726.0712   -999.2500      2.1709     -0.0962      1.4996      2.1437     -0.2628     87.6772   1637.1444   -999.2500
  2726.1711   -999.2500      1.6047     -0.2962      0.6483      1.2634     -1.1208     32.7788   1603.8907   -999.2500
  2726.2710   -999.2500      1.4503     -0.1412      0.4157      1.0231     -1.3557     17.7951   1587.0228   -999.2500
  2726.3709   -999.2500      1.3587     -0.0864      0.2775      0.8804     -1.4956      8.8932   1570.4951   -999.2500
  2726.4708   -999.2500      1.3091     -0.2666      0.2027      0.8032     -1.5712      4.0823   1554.6345   -999.2500
  2726.5707   -999.2500      1.2739     -0.0864      0.1495      0.7483     -1.6251      0.6595   1525.3678   -999.2500
  2726.6706   -999.2500      1.2695     -0.2666      0.1428      0.7414     -1.6319      0.2293   1511.5271   -999.2500
  2726.7705   -999.2500      1.2679      0.0978      0.1403      0.7389     -1.6345      0.0700   1497.5684   -999.2500
  2726.8704   -999.2500   -999.2500     -0.0595   -999.2500   -999.2500   -999.2500   -999.2500   1467.5421   -999.2500
  2726.9703   -999.2500   -999.2500      0.0793   -999.2500   -999.2500   -999.2500   -999.2500   1451.3191   -999.2500
  2727.0702   -999.2500   -999.2500     -0.0551   -999.2500   -999.2500   -999.2500   -999.2500   1434.7419   -999.2500
