~Version Information
VERS.                            2.0: CWLS Log ASCII STANDARD - VERSION 2.0
WRAP.                             NO: One line per depth step
~Well Information
STRT.M                     1749.9483: FIRST INDEX VALUE
STOP.M                     2729.7675: LAST INDEX VALUE
STEP.M                        0.0999: STEP
NULL.                      -999.2500: NULL VALUE
COMP.                PAN AMERICAN ENERGY L.L.C.: COMPANY
WELL.                PAE.Ch.PLMS-1041: WELL
FLD.                 LA MADRE SELVA SUR: FIELD
LOC.                 X: 4.915.236,49--Y: 2.543.733,51--Z:          701,17: LOCATION
PROV.                         CHUBUT: PROVINCE
SRVC.                          EXPRO: SERVICE COMPANY
DATE.                do. feb. 04 04-26-35 2024: LOG DATE
UWI.                   9702908104100: UNIQUE WELL ID
CTRY.                      ARGENTINA: COUNTRY
SECT.                               : SECTION
TOWN.                               : TOWNSHIP
RANG.                               : RANGE
OS.                  CANASTA--114 mm.: OTHER SERVICES
PDAT.FT                   N. TERRENO: PERMANENT DATUM
EEL.FT                        701,17: ELEVATION
LMF.FT               KB:     4,60 m.: LOG MEASURED FROM
DMF.FT                 KELLY BUSHING: DRILLING MEASURED FROM
EKB.FT                              : KB
EDF.FT                        705,77: DF
EGL.FT                        701,17: GL
DATE1.                    04-02-2024: DATE1
RUN1.                             02: RUN NUMBER
TDD1.FT                       2728 m: DEPTH DRILLER
TDL1.FT                       2726 m: DEPTH LOGGER
BLI1.FT                      2726 m.: BOTTOM LOGGED INTERVAL
TLI1.FT                      1750 m.: TOP LOG INTERVAL
CDD1.IN_FT                          : CASING DRILLER
CDL1.FT                             : CASING LOGGER
BS1.IN                        9.625": BIT SIZE
DFT1.                           AGUA: TYPE FLUID IN HOLE
DFDV1.GM/C3_CP                 LLENO: DENSITY/VISCOSITY
DFPL1.C3                            : PH/FLUID LOSS
MSS1.                               : SOURCE OF SAMPLE
RMT1.OHHM_DEGF                      : RM@MEASURED TEMP
RMFT1.OHMM_DEGF                     : RMF@MEASURED TEMP
RMCT1.OHMM_DEGF                     : RMC@MEASURED TEMP
RMFS1.                              : SOURCE OF RMF/RMC
RMBT1.OHMM_DEGF                     : RM@BHT
TCS1.                               : TIME CIRCULATION STOPPED
TLOB1.                         ARROW: TIME LOGGER ON BOTTOM
BHT1.DEGF                   8.33 PPG: MAXIMUM RECORDED TEMPERATURE
LUN1.                       COMODORO: EQUIPMENT NUMBER
LUL1.                     A. BELTRAN: LOCATION
ENGI1.                  M. HARAMILLA: RECORDED BY
WITN1.                              : WITNESSED BY
COMW.                               : Common Well Name
~Curve Information
DEPT.M                   0 000 00 00: Depth
GR.GAPI                            0: Gamma Ray
AMP3FT.MV                          0: AMP3FT Amplitude
CCL.                               0: Casing Collar Locator
AMPAVG.                            0: Average Sector Amplitude
AMPMAX.                            0: Maximum Sector Amplitude
AMPMIN.                            0: Minimum Sector Amplitude
TT3FT.USEC                         0: 3FT Travel Time
LTEN.LB                            0: Surface Line Tension
Neutron.                           0: SGA1
~Parameter Information
~Other Information
SE TOMA DE REFERENCIA MESA ROTARIA (KB: 4,60 m.).

REGISTRO CORRELACIONADO CON REGISTRO PERFILES COMBINADOS (LINEAL) 

DE CIA BAKER HUGHES DE FECHA 28-ENERO-2024

SE CORRIGE EN FONDO 2726 m.

AMPLITUD 3" MAX.ESPERADA: 71,92 mV.

TIEMPO DE TRANSITO 3" ESPERADA: 233 uSeg.


~A  Depth        GR        AMP3FT       CCL        AMPAVG      AMPMAX      AMPMIN      TT3FT        LTEN      Neutron   
# ...
  1816.8813     64.5273     33.8918     -0.3260     46.0464     46.9623     45.3270    235.0221   1154.7161     26.0221
  1816.9812     64.6577     33.1870      0.7555     45.1443     45.4859     44.5980    235.1232   1155.1694     26.0831
  1817.0811     65.3237     32.5379     -0.4942     44.3213     44.7600     43.9089    235.2123   1155.5432     26.1502
  1817.1810     68.0566     31.4262     -0.0334     42.8903     43.9403     41.8368    235.3496   1155.6257     26.4959
  1817.2809     69.7727     30.9640     -0.1982     42.2600     43.4125     41.0362    235.4006   1155.1573     26.4445
  1817.3808     71.3739     30.5654      0.1269     41.6794     42.7886     40.4781    235.4426   1154.3766     26.3878
  1817.4807     72.5966     30.2329      1.0154     41.1523     42.0935     40.1518    235.4770   1153.4552     26.3350
  1817.5806     73.2978     29.7545     -1.4888     40.2746     40.6549     39.5568    235.5266   1152.1730     25.9560
  1817.6805     72.8075     29.5810     -0.3260     39.9117     40.2299     39.1497    235.5440   1152.1802     26.2291
  1817.7804     71.9681     29.4173      0.0972     39.5723     40.2400     38.7692    235.5594   1152.6349     26.2322
  1817.8803     70.0395     29.0109      0.5917     38.8641     40.1748     37.9316    235.5970   1154.1881     26.3301
  1817.9802     69.2006     28.7392     -0.6178     38.4704     39.9323     37.4413    235.6257   1154.9263     26.0192
  1818.0801     68.4637     28.4274     -0.9486     38.0596     39.5448     36.9247    235.6635   1155.5620     26.0856
  1818.1800     66.9925     27.7606      0.4059     37.2668     38.4453     35.9767    235.7650   1156.8931     26.3530
  1818.2799     66.1139     27.4456      0.3039     36.9183     37.8071     35.6212    235.8236   1157.7583     26.2770
  1818.3798     65.1299     27.1624      1.0760     36.6129     37.1596     35.3723    235.8820   1158.7089     26.1958
  1818.4797     63.1900     26.7310     -0.5602     36.1500     36.6006     35.1905    235.9783   1160.1509     25.1308
  1818.5796     62.4414     26.6047     -0.7744     36.0119     36.6714     35.2359    236.0074   1160.2955     24.8986
  1818.6795     61.8982     26.5548     -0.2826     35.9565     36.7603     35.2818    236.0205   1159.9790     24.4101
  1818.7794     61.4914     26.5906     -0.0828     35.9974     36.8553     35.2157    236.0183   1159.2910     24.0110
  1818.8793     60.4981     26.9069      0.3472     36.3647     37.0128     35.7701    235.9854   1157.4490     23.2542
  1818.9792     59.6437     27.1451     -0.6777     36.6443     37.0356     36.0928    235.9702   1156.5677     23.0043
  1819.0791     58.5055     27.3851     -0.2076     36.9260     37.2016     36.1825    235.9682   1155.7854     22.8749
  1819.1790     55.8548     27.6884     -0.6398     37.2690     38.1963     36.0082    236.0345   1154.4459     23.0333
  1819.2789     54.7389     27.6876      0.7572     37.2506     38.4363     35.7297    236.1079   1153.8740     23.4352
  1819.3788     54.0323     27.5811     -0.3376     37.1031     38.4630     35.3574    236.2021   1153.4186     23.9843
  1819.4787     54.2852     27.1962      0.3517     36.6204     38.0740     34.5645    236.4030   1153.0317     24.6785
  1819.5786     55.2064     27.0295      0.1588     36.4351     37.8536     34.2747    236.4791   1153.0383     24.8139
  1819.6785     56.4695     26.9556     -0.0127     36.3867     37.7634     34.1281    236.5215   1153.0049     24.7987
  1819.7784     59.1803     27.2466      0.5334     36.9051     38.3246     34.3800    236.4826   1152.2067     24.6992
  1819.8783     60.2637     27.6588     -0.3890     37.5303     39.0937     34.8011    236.4028   1151.3444     24.5230
  1819.9782     61.0348     28.2607     -0.4023     38.4134     40.2276     35.4184    236.2896   1150.3109     23.9204
  1820.0781     61.7815     29.9792     -0.2356     40.8720     43.5035     37.1766    235.9958   1148.4805     23.8074
  1820.1780     62.0317     31.0085      1.1409     42.3229     45.4700     38.2385    235.8356   1147.8934     23.7325
  1820.2779     62.4324     32.0478     -0.4755     43.7750     47.4412     39.3318    235.6827   1147.4648     23.6742
  1820.3778     63.0971     32.9968     -1.0013     45.0870     49.2089     40.3682    235.5496   1147.0500     23.6590
  1820.4777     65.1302     34.2584      1.3875     46.7876     51.5758     41.9380    235.3806   1145.9081     23.7108
  1820.5776     66.2600     34.4632      0.2283     47.0361     51.9218     42.3618    235.3518   1145.2942     23.8413
  1820.6775     67.3206     34.3824      0.0602     46.8907     51.6179     42.5236    235.3563   1144.8760     24.0788
  1820.7774     69.2696     33.5827     -0.4755     45.7444     49.5911     42.1598    235.4310   1145.0712     24.6676
  1820.8773     70.2992     33.0216     -0.0127     44.9677     48.2577     41.7279    235.4804   1145.5281     24.9044
  1820.9772     71.4044     32.4633      0.6427     44.2075     46.9737     41.2125    235.5240   1145.8813     25.2699
  1821.0771     73.4364     31.6199     -1.1587     43.0912     45.3421     40.2197    235.5625   1145.1986     25.7947
  1821.1770     74.0276     31.4165     -0.1571     42.8409     45.0678     39.8739    235.5516   1143.9884     26.1495
  1821.2769     74.1432     31.3727     -0.0860     42.8105     45.1190     39.6849    235.5251   1142.3937     26.2319
  1821.3768     72.8297     31.6545      0.4066     43.2477     45.9210     39.7517    235.5005   1139.1934     25.9133
  1821.4767     71.5221     31.8684      0.5632     43.5615     46.4540     39.9023    235.5886   1138.0476     25.6867
  1821.5766     69.9203     32.0263      0.5350     43.7982     46.8924     40.0068    235.8518   1137.3479     25.0766
  1821.6765     66.2839     31.8003     -0.0637     43.5363     46.8686     39.5874    237.4453   1137.3435     24.5145
  1821.7764     64.5025     31.2439     -0.1241     42.7985     46.1218     38.8324    239.0678   1138.0282     24.4315
  1821.8763     62.9555     30.3271      1.7771     41.5588     44.7700     37.6297    241.3352   1139.1221     24.6285
  1821.9762     61.8175     29.0761     -1.8253     39.8442     42.8403     36.0206    244.1325   1140.5045     24.8866
  1822.0761     61.2803     26.0529     -0.7070     35.6234     37.9466     32.2621    249.9010   1143.2854     25.6673
  1822.1760     61.9484     24.6409      0.0664     33.6109     35.5348     30.6064    251.9304   1144.2126     25.8295
  1822.2759     63.1600     23.5208     -0.3861     31.9826     33.5077     29.3986    252.9181   1144.6217     25.8705
  1822.3758     66.7096     22.4197     -2.2596     30.2914     31.0945     28.6363    251.9659   1143.9841     25.8861
  1822.4757     68.7472     22.3852     -1.2636     30.1814     30.6616     28.9874    250.7387   1143.2448     26.0353
  1822.5756     70.7373     22.6092     17.6816     30.4595     31.0223     29.7048    249.5866   1142.4727     26.2460
  1822.6755     73.9121     23.7513     -0.2139     32.1027     33.3638     31.5366    248.2583   1141.1130     26.2411
  1822.7754     74.8205     24.7532     -0.4054     33.5926     35.2700     32.5899    247.8682   1140.4032     26.2360
  1822.8753     75.1443     26.1355      2.5705     35.6555     37.7908     34.1167    247.2850   1139.5453     26.2432
  1822.9752     73.8364     30.1350      0.7899     41.5897     44.6797     38.7499    244.7135   1137.6035     26.1641
  1823.0751     72.2517     32.6359      1.1856     45.2695     48.7853     41.7515    242.7562   1136.9436     25.5647
  1823.1750     70.2397     35.3010      0.4794     49.1661     53.0160     45.0399    240.6376   1136.7828     25.2095
  1823.2749     68.0858     37.9809     -0.0687     53.0558     57.1073     48.4690    238.6363   1137.1434     24.9873
  1823.3748     64.7080     42.9372     -0.2322     60.1370     64.0847     55.3442    235.7151   1138.4763     24.4884
  1823.4747     63.9740     45.1110     -0.7627     63.1635     66.7914     58.7053    234.8728   1138.7833     24.2413
