~Version Information
VERS.                            2.0: CWLS Log ASCII STANDARD - VERSION 2.0
WRAP.                             NO: One line per depth step
~Well Information
STRT.M                     1749.9483: FIRST INDEX VALUE
STOP.M                     2729.7675: LAST INDEX VALUE
STEP.M                        0.0999: STEP
NULL.                      -999.2500: NULL VALUE
COMP.                PAN AMERICAN ENERGY L.L.C.: COMPANY
WELL.                PAE.Ch.PLMS-1041: WELL
FLD.                 LA MADRE SELVA SUR: FIELD
LOC.                 X: 4.915.236,49--Y: 2.543.733,51--Z:          701,17: LOCATION
PROV.                         CHUBUT: PROVINCE
SRVC.                          EXPRO: SERVICE COMPANY
DATE.                do. feb. 04 04-26-35 2024: LOG DATE
UWI.                   9702908104100: UNIQUE WELL ID
CTRY.                      ARGENTINA: COUNTRY
SECT.                               : SECTION
TOWN.                               : TOWNSHIP
RANG.                               : RANGE
OS.                  CANASTA--114 mm.: OTHER SERVICES
PDAT.FT                   N. TERRENO: PERMANENT DATUM
EEL.FT                        701,17: ELEVATION
LMF.FT               KB:     4,60 m.: LOG MEASURED FROM
DMF.FT                 KELLY BUSHING: DRILLING MEASURED FROM
EKB.FT                              : KB
EDF.FT                        705,77: DF
EGL.FT                        701,17: GL
DATE1.                    04-02-2024: DATE1
RUN1.                             02: RUN NUMBER
TDD1.FT                       2728 m: DEPTH DRILLER
TDL1.FT                       2726 m: DEPTH LOGGER
BLI1.FT                      2726 m.: BOTTOM LOGGED INTERVAL
TLI1.FT                      1750 m.: TOP LOG INTERVAL
CDD1.IN_FT                          : CASING DRILLER
CDL1.FT                             : CASING LOGGER
BS1.IN                        9.625": BIT SIZE
DFT1.                           AGUA: TYPE FLUID IN HOLE
DFDV1.GM/C3_CP                 LLENO: DENSITY/VISCOSITY
DFPL1.C3                            : PH/FLUID LOSS
MSS1.                               : SOURCE OF SAMPLE
RMT1.OHHM_DEGF                      : RM@MEASURED TEMP
RMFT1.OHMM_DEGF                     : RMF@MEASURED TEMP
RMCT1.OHMM_DEGF                     : RMC@MEASURED TEMP
RMFS1.                              : SOURCE OF RMF/RMC
RMBT1.OHMM_DEGF                     : RM@BHT
TCS1.                               : TIME CIRCULATION STOPPED
TLOB1.                         ARROW: TIME LOGGER ON BOTTOM
BHT1.DEGF                   8.33 PPG: MAXIMUM RECORDED TEMPERATURE
LUN1.                       COMODORO: EQUIPMENT NUMBER
LUL1.                     A. BELTRAN: LOCATION
ENGI1.                  M. HARAMILLA: RECORDED BY
WITN1.                              : WITNESSED BY
COMW.                               : Common Well Name
~Curve Information
DEPT.M                   0 000 00 00: Depth
GR.GAPI                            0: Gamma Ray
AMP3FT.MV                          0: AMP3FT Amplitude
CCL.                               0: Casing Collar Locator
AMPAVG.                            0: Average Sector Amplitude
AMPMAX.                            0: Maximum Sector Amplitude
AMPMIN.                            0: Minimum Sector Amplitude
TT3FT.USEC                         0: 3FT Travel Time
LTEN.LB                            0: Surface Line Tension
Neutron.                           0: SGA1
~Parameter Information
~Other Information
SE TOMA DE REFERENCIA MESA ROTARIA (KB: 4,60 m.).

REGISTRO CORRELACIONADO CON REGISTRO PERFILES COMBINADOS (LINEAL) 

DE CIA BAKER HUGHES DE FECHA 28-ENERO-2024

SE CORRIGE EN FONDO 2726 m.

AMPLITUD 3" MAX.ESPERADA: 71,92 mV.

TIEMPO DE TRANSITO 3" ESPERADA: 233 uSeg.


~A  Depth        GR        AMP3FT       CCL        AMPAVG      AMPMAX      AMPMIN      TT3FT        LTEN      Neutron   
# ...
  2205.0927     47.9451     53.9935     -0.2658     74.6508     76.2105     73.3497    234.0180   1381.9810     22.5641
  2205.1926     45.1905     55.0408     -0.3268     76.0213     77.3893     74.9141    233.9808   1382.8210     21.9812
  2205.2925     44.0785     55.4948      0.5834     76.6156     77.8922     75.5599    233.9672   1383.0724     21.7380
  2205.3924     43.2701     55.8609      0.5736     77.1010     78.2769     76.0695    233.9599   1383.0684     21.4604
  2205.4923     42.7924     56.1156     -0.6301     77.4506     78.5119     76.4214    233.9604   1382.8114     21.2951
  2205.5922     42.4907     56.2298     -0.0340     77.6692     78.5750     76.6046    233.9848   1381.8024     21.0616
  2205.6921     42.3329     56.0724     -0.1975     77.5124     78.4818     76.4230    234.0058   1381.1827     21.0123
  2205.7920     41.9671     55.7689      0.8483     77.1681     78.2132     76.0568    234.0292   1380.5292     20.8856
  2205.8919     40.6592     54.7520      0.3982     75.9293     77.1428     74.7924    234.0708   1379.1089     20.6607
  2205.9918     40.0852     54.0680     -0.1612     75.0624     76.3638     73.9190    234.0850   1378.3134     20.5838
  2206.0917     39.9243     53.2919     -0.0841     74.0572     75.4464     72.9075    234.0945   1377.4188     20.5509
  2206.1916     41.5544     51.5184     -0.9077     71.6895     73.2219     70.5336    234.1052   1375.0405     20.7453
  2206.2915     43.3236     50.5265      1.0872     70.3277     71.8888     69.1888    234.1118   1373.3799     20.9843
  2206.3914     45.4910     49.4560      1.0011     68.8331     70.3776     67.7409    234.1236   1371.3463     21.3602
  2206.4913     50.1969     47.0669     -0.0360     65.4324     66.8064     64.3912    234.1749   1366.5266     22.3164
  2206.5912     52.5842     45.7770      0.0767     63.5736     64.8185     62.5371    234.2170   1364.1390     22.7901
  2206.6911     55.1175     44.4746     -0.2990     61.6889     62.8016     60.6900    234.2683   1362.0662     23.0184
  2206.7910     61.2574     42.0784      0.1766     58.2122     59.1132     57.3645    234.3794   1359.3463     23.3185
  2206.8909     64.9265     41.1110      0.4669     56.8084     57.6411     56.0652    234.4278   1358.6699     23.5704
  2206.9908     68.7324     40.3578     -0.7893     55.7164     56.4995     55.0906    234.4659   1358.3074     24.1927
  2207.0907     72.2698     39.8304     -1.0622     54.9527     55.6926     54.4516    234.4924   1358.1475     24.8311
  2207.1906     76.7654     39.3652     -0.1019     54.2793     54.8955     54.0224    234.5160   1358.2917     25.6054
  2207.2905     77.1188     39.3498      0.3220     54.2553     54.7686     54.0811    234.5185   1358.6750     25.7074
  2207.3904     76.1499     39.4359      0.5362     54.3768     54.7558     54.0526    234.5181   1359.3278     25.5128
  2207.4903     71.2591     39.8981      0.3214     55.0430     55.6074     54.3624    234.5114   1361.1881     24.8282
  2207.5902     68.0965     40.3134      0.2978     55.6505     56.4474     54.8163    234.5025   1362.0494     24.4045
  2207.6901     64.9456     40.8869      0.2385     56.4954     57.4993     55.5566    234.4854   1362.6036     24.1979
  2207.7900     59.5472     42.5289     -0.9200     58.9220     60.1623     57.9578    234.4102   1362.5754     23.7205
  2207.8899     57.4397     43.5361      0.6325     60.4066     61.6637     59.5104    234.3480   1362.2207     23.5949
  2207.9898     55.6931     44.5789      1.0261     61.9358     63.1579     61.1422    234.2723   1361.9086     23.5231
  2208.0897     53.0752     46.4347      0.3617     64.6196     65.7202     63.8865    234.1056   1361.9591     23.4731
  2208.1896     52.1270     47.1136     -0.2584     65.5724     66.6420     64.8483    234.0280   1362.3479     23.4578
  2208.2895     51.3734     47.5856     -0.1842     66.2038     67.2912     65.4581    233.9598   1362.8951     23.4263
  2208.3894     50.7768     47.8590     -0.7488     66.5266     67.6895     65.7215    233.9022   1363.5536     23.3601
  2208.4893     49.9504     47.9297     -0.4915     66.4359     67.8973     65.4148    233.8209   1365.2684     23.3652
  2208.5892     49.7196     47.7934      0.1890     66.1340     67.7797     64.9839    233.8006   1366.3937     23.1895
  2208.6891     49.6368     47.5755      0.1100     65.7205     67.5412     64.4527    233.7974   1367.6556     23.0364
  2208.7890     49.9376     46.9444      0.0646     64.6507     66.7337     63.2338    233.8441   1369.9924     22.4791
  2208.8889     50.2558     46.5479     -0.9561     64.0178     66.1913     62.5682    233.8873   1370.7303     22.2948
  2208.9888     50.5949     46.1125     -0.2036     63.3354     65.5942     61.8626    233.9350   1371.0758     22.5885
  2209.0887     51.0209     45.2112      0.1833     61.9336     64.4219     60.3699    234.0152   1370.9248     23.2086
  2209.1886     51.0094     44.8029      0.1273     61.3002     63.9462     59.6500    234.0376   1370.7102     23.4549
  2209.2885     50.8530     44.4611      0.2068     60.7735     63.5944     59.0156    234.0460   1370.5118     23.6523
  2209.3884     50.4036     44.0446      0.6999     60.1573     63.3058     58.1876    234.0288   1369.9077     23.4165
  2209.4883     50.2997     43.9765      0.0470     60.0785     63.3485     58.0392    234.0102   1369.2559     23.2802
  2209.5882     50.3526     43.9885     -0.2485     60.1285     63.4808     58.0572    233.9897   1368.2856     23.0479
  2209.6881     50.7926     44.1529     -0.4003     60.4458     63.8426     58.4105    233.9569   1365.7986     22.4137
  2209.7880     51.0254     44.2409      0.7802     60.6080     63.9736     58.6175    233.9511   1364.6346     22.2977
  2209.8879     51.2024     44.2992      0.9936     60.7178     64.0267     58.7694    233.9553   1363.6699     22.0875
  2209.9878     51.3497     44.3292      0.0621     60.7741     64.0156     58.8513    233.9687   1362.8424     21.8705
  2210.0877     51.8362     44.4509     -0.0942     60.9344     64.0814     58.9854    234.0059   1360.8756     21.8229
  2210.1876     52.2604     44.6558      0.1021     61.2052     64.3533     59.2070    234.0181   1359.4539     21.9400
  2210.2875     52.7664     45.0206     -0.2865     61.7017     64.8846     59.6413    234.0200   1357.7819     22.0881
  2210.3874     53.7146     46.2520      0.4808     63.4296     66.7161     61.2549    233.9915   1354.5688     22.5802
  2210.4873     54.0581     47.0455      0.0621     64.5669     67.8776     62.3615    233.9657   1353.4630     22.8244
  2210.5872     54.3257     47.8681      0.2017     65.7611     69.0561     63.5506    233.9371   1352.7975     22.9852
  2210.6871     54.8154     49.2910     -0.3042     67.8701     71.0217     65.7199    233.8861   1352.3596     23.5569
  2210.7870     55.0983     49.7582     -0.1627     68.5883     71.6432     66.4895    233.8700   1352.2644     23.9386
  2210.8869     55.3912     49.9997      0.0621     68.9875     71.9576     66.9418    233.8643   1352.0885     24.1642
  2210.9868     55.7270     49.7169      0.4497     68.6859     71.5804     66.7190    233.8937   1351.3143     24.3108
  2211.0867     55.5556     49.1931      0.0283     67.9752     70.8792     66.0298    233.9313   1350.6652     24.2015
  2211.1866     55.0295     48.4494     -1.1336     66.9349     69.8578     65.0061    233.9826   1349.8057     23.8157
  2211.2865     52.9997     46.5246     -1.0940     64.1828     67.0500     62.3239    234.1123   1347.5151     23.6139
  2211.3864     51.8390     45.4736     -0.3657     62.6696     65.4021     60.8922    234.1829   1346.2997     23.5062
  2211.4863     50.9418     44.4387     -0.4160     61.1862     63.6883     59.5341    234.2541   1345.2988     23.3743
  2211.5862     50.5528     43.4550      0.1104     59.7920     61.9701     58.3089    234.3260   1344.7228     23.2806
  2211.6861     51.6260     41.6990     -0.4418     57.3625     58.7122     56.3016    234.4760   1345.2423     23.1730
