~Version Information
VERS.                            2.0: CWLS Log ASCII STANDARD - VERSION 2.0
WRAP.                             NO: One line per depth step
~Well Information
STRT.M                     1749.9483: FIRST INDEX VALUE
STOP.M                     2729.7675: LAST INDEX VALUE
STEP.M                        0.0999: STEP
NULL.                      -999.2500: NULL VALUE
COMP.                PAN AMERICAN ENERGY L.L.C.: COMPANY
WELL.                PAE.Ch.PLMS-1041: WELL
FLD.                 LA MADRE SELVA SUR: FIELD
LOC.                 X: 4.915.236,49--Y: 2.543.733,51--Z:          701,17: LOCATION
PROV.                         CHUBUT: PROVINCE
SRVC.                          EXPRO: SERVICE COMPANY
DATE.                do. feb. 04 04-26-35 2024: LOG DATE
UWI.                   9702908104100: UNIQUE WELL ID
CTRY.                      ARGENTINA: COUNTRY
SECT.                               : SECTION
TOWN.                               : TOWNSHIP
RANG.                               : RANGE
OS.                  CANASTA--114 mm.: OTHER SERVICES
PDAT.FT                   N. TERRENO: PERMANENT DATUM
EEL.FT                        701,17: ELEVATION
LMF.FT               KB:     4,60 m.: LOG MEASURED FROM
DMF.FT                 KELLY BUSHING: DRILLING MEASURED FROM
EKB.FT                              : KB
EDF.FT                        705,77: DF
EGL.FT                        701,17: GL
DATE1.                    04-02-2024: DATE1
RUN1.                             02: RUN NUMBER
TDD1.FT                       2728 m: DEPTH DRILLER
TDL1.FT                       2726 m: DEPTH LOGGER
BLI1.FT                      2726 m.: BOTTOM LOGGED INTERVAL
TLI1.FT                      1750 m.: TOP LOG INTERVAL
CDD1.IN_FT                          : CASING DRILLER
CDL1.FT                             : CASING LOGGER
BS1.IN                        9.625": BIT SIZE
DFT1.                           AGUA: TYPE FLUID IN HOLE
DFDV1.GM/C3_CP                 LLENO: DENSITY/VISCOSITY
DFPL1.C3                            : PH/FLUID LOSS
MSS1.                               : SOURCE OF SAMPLE
RMT1.OHHM_DEGF                      : RM@MEASURED TEMP
RMFT1.OHMM_DEGF                     : RMF@MEASURED TEMP
RMCT1.OHMM_DEGF                     : RMC@MEASURED TEMP
RMFS1.                              : SOURCE OF RMF/RMC
RMBT1.OHMM_DEGF                     : RM@BHT
TCS1.                               : TIME CIRCULATION STOPPED
TLOB1.                         ARROW: TIME LOGGER ON BOTTOM
BHT1.DEGF                   8.33 PPG: MAXIMUM RECORDED TEMPERATURE
LUN1.                       COMODORO: EQUIPMENT NUMBER
LUL1.                     A. BELTRAN: LOCATION
ENGI1.                  M. HARAMILLA: RECORDED BY
WITN1.                              : WITNESSED BY
COMW.                               : Common Well Name
~Curve Information
DEPT.M                   0 000 00 00: Depth
GR.GAPI                            0: Gamma Ray
AMP3FT.MV                          0: AMP3FT Amplitude
CCL.                               0: Casing Collar Locator
AMPAVG.                            0: Average Sector Amplitude
AMPMAX.                            0: Maximum Sector Amplitude
AMPMIN.                            0: Minimum Sector Amplitude
TT3FT.USEC                         0: 3FT Travel Time
LTEN.LB                            0: Surface Line Tension
Neutron.                           0: SGA1
~Parameter Information
~Other Information
SE TOMA DE REFERENCIA MESA ROTARIA (KB: 4,60 m.).

REGISTRO CORRELACIONADO CON REGISTRO PERFILES COMBINADOS (LINEAL) 

DE CIA BAKER HUGHES DE FECHA 28-ENERO-2024

SE CORRIGE EN FONDO 2726 m.

AMPLITUD 3" MAX.ESPERADA: 71,92 mV.

TIEMPO DE TRANSITO 3" ESPERADA: 233 uSeg.


~A  Depth        GR        AMP3FT       CCL        AMPAVG      AMPMAX      AMPMIN      TT3FT        LTEN      Neutron   
# ...
  2593.3041     65.0369      8.4431      0.4182     10.2745     11.6716      9.4214    277.8621   1562.5387     27.0055
  2593.4040     64.8552      8.4477     -0.4266     10.2598     11.6240      9.3939    277.8618   1561.8148     27.0935
  2593.5039     65.1976      8.4902     -0.0116     10.3034     11.6525      9.4259    277.8584   1560.9866     27.0257
  2593.6038     67.1909      8.6845      0.3427     10.5624     11.9536      9.6504    277.8447   1558.6582     26.8843
  2593.7037     68.4638      8.8190      0.3307     10.7534     12.2058      9.8143    277.8418   1557.1415     26.7573
  2593.8036     69.6370      8.9605     -0.1161     10.9591     12.4963      9.9871    277.8459   1555.5896     26.7119
  2593.9035     71.1590      9.2174     -0.8371     11.3442     13.0901     10.3051    277.8652   1553.2494     27.0304
  2594.0034     71.4321      9.3218     -0.3643     11.5069     13.3562     10.4449    277.8644   1552.6266     27.0303
  2594.1033     71.4279      9.4111      0.8717     11.6503     13.5889     10.5568    277.8426   1552.1981     26.6739
  2594.2032     70.8604      9.5496      0.3088     11.8860     13.9386     10.6965    277.7145   1550.9489     26.4895
  2594.3031     70.4009      9.5930     -0.3233     11.9701     14.0458     10.7671    277.6155   1549.8694     26.2010
  2594.4030     69.8657      9.6094     -1.0477     12.0189     14.0992     10.8225    277.5105   1548.6055     25.7775
  2594.5029     68.7813      9.5332      0.3548     11.9740     14.0270     10.7594    277.3631   1546.6134     25.0546
  2594.6028     68.4502      9.4365      0.0157     11.8735     13.9011     10.6177    277.3620   1546.3728     25.0274
  2594.7027     68.4465      9.3056     -0.2773     11.7240     13.7205     10.4369    277.4312   1546.7479     25.3556
  2594.8026     69.6314      8.9719     -0.0444     11.3027     13.2223     10.0043    277.8013   1548.8765     26.0400
  2594.9025     70.5945      8.7851      0.0403     11.0460     12.9219      9.7742    278.0863   1550.3162     26.1436
  2595.0024     71.4532      8.5941     -0.1433     10.7697     12.6009      9.5459    278.4111   1551.9167     25.8831
  2595.1023     71.9066      8.4033     -0.1400     10.4823     12.2696      9.3243    278.7486   1553.7369     25.4754
  2595.2022     70.8893      8.0344      0.0981      9.9058     11.6131      8.9119    279.3634   1558.3174     24.6122
  2595.3021     69.4274      7.8597      0.0590      9.6301     11.3037      8.7224    279.6123   1560.9464     24.2689
  2595.4020     67.5381      7.6937     -0.8945      9.3702     11.0156      8.5431    279.8217   1563.4637     23.6079
  2595.5019     63.3932      7.3939      0.1283      8.9132     10.5202      8.1883    280.1715   1566.8865     23.1125
  2595.6018     61.5728      7.2636      0.1705      8.7213     10.3158      7.9726    280.3420   1567.4900     23.1237
  2595.7017     60.1471      7.1487      0.7916      8.5557     10.1386      7.7957    280.5217   1567.5050     23.1516
  2595.8016     58.7492      6.9695     -0.1410      8.3045      9.8539      7.5533    280.8920   1566.8922     23.2707
  2595.9015     58.7062      6.9054     -0.3775      8.2164      9.7405      7.4804    281.0551   1566.6144     23.2771
  2596.0014     58.9561      6.8562      0.1931      8.1494      9.6438      7.4321    281.1809   1566.3035     23.2159
  2596.1013     59.8736      6.7912      0.2606      8.0626      9.4973      7.3836    281.2785   1564.9519     22.9889
  2596.2012     60.3807      6.7693      0.1705      8.0350      9.4469      7.3726    281.2499   1563.8395     22.8887
  2596.3011     60.8566      6.7518     -0.3420      8.0147      9.4107      7.3658    281.1808   1562.6462     22.8373
  2596.4010     61.6031      6.7331     -0.1260      7.9984      9.3759      7.3674    280.9612   1560.9684     22.9646
  2596.5009     61.8682      6.7421      0.5775      8.0140      9.3810      7.3873    280.8200   1560.6935     23.1066
  2596.6008     62.1096      6.7767     -0.5648      8.0617      9.4127      7.4363    280.6557   1560.6736     23.2557
  2596.7007     62.3955      6.8499     -0.0952      8.1581      9.4863      7.5310    280.4638   1560.6885     23.4530
  2596.8006     63.3517      7.1467     -0.7507      8.5445      9.8166      7.9039    279.9968   1560.0464     23.8052
  2596.9005     64.0921      7.3655      0.0944      8.8300     10.0767      8.1786    279.7384   1559.2344     24.0702
  2597.0004     65.0051      7.6092      0.0757      9.1492     10.3769      8.4866    279.4915   1558.1556     24.3357
  2597.1003     67.1701      8.0627     -0.2035      9.7484     10.9567      9.0739    279.1616   1555.5813     25.1946
  2597.2002     68.2664      8.2213     -0.7397      9.9622     11.1640      9.2932    279.1853   1554.1772     25.6513
  2597.3001     69.2635      8.3130      0.3682     10.0901     11.2817      9.4373    279.4605   1552.6786     26.0552
  2597.4000     70.8946      8.2843      0.6219     10.0713     11.2177      9.4850    281.5621   1549.5254     26.3845
  2597.4999     71.6485      8.1723     -0.5307      9.9338     11.0458      9.3955    284.0374   1548.2211     26.3495
  2597.5998     72.4764      8.0035      0.0780      9.7210     10.7959      9.2382    288.0233   1547.5034     26.2009
  2597.6997     74.4096      7.5164      0.0877      9.0976     10.1108      8.5015    301.8860   1548.7688     25.5405
  2597.7996     75.3522      7.2105      0.0912      8.7034      9.6966      7.9861    311.8357   1550.6727     25.0787
  2597.8995     76.0917      6.8766     -0.2301      8.2718      9.2499      7.4295    323.2901   1552.9667     24.8432
  2597.9994     76.4868      6.5312      0.3368      7.8234      8.7874      6.8579    335.5304   1555.1761     24.7511
  2598.0993     75.8797      5.8870     -0.0559      6.9774      7.9028      5.8058    359.2529   1558.1533     24.9860
  2598.1992     74.8395      5.6260      0.2133      6.6268      7.5272      5.3900    369.4934   1558.9304     25.1439
  2598.2991     73.4037      5.4222     -0.4161      6.3459      7.2205      5.0756    378.1167   1559.5116     25.1915
  2598.3990     70.1034      5.1961     -0.4500      6.0137      6.8489      4.7645    389.7054   1560.6849     25.0401
  2598.4989     68.7583      5.1682      0.0877      5.9615      6.7892      4.7554    392.4117   1561.2155     24.9887
  2598.5988     67.9531      5.1906     -0.0894      5.9805      6.8112      4.8303    392.9073   1561.5511     24.8507
  2598.6987     68.3501      5.3589     -0.2015      6.2001      7.0669      5.1824    386.8564   1561.6405     24.6313
  2598.7986     69.3216      5.4863     -0.0090      6.3724      7.2694      5.4273    380.3066   1561.6848     24.6435
  2598.8985     70.4161      5.6263     -0.1359      6.5608      7.4929      5.6922    371.7010   1561.9518     24.6621
  2598.9984     71.6788      5.8962      0.9525      6.9109      7.9184      6.2092    350.4034   1563.1638     24.7668
  2599.0983     71.5029      6.0079     -0.5006      7.0471      8.0908      6.4357    338.9689   1563.8108     24.7273
  2599.1982     70.8554      6.0973      0.4119      7.1501      8.2271      6.6321    327.7860   1564.2510     24.7472
  2599.2981     69.2059      6.2074      0.3030      7.2620      8.3943      6.8954    307.9791   1564.3788     25.2939
  2599.3980     68.8605      6.2324      0.0215      7.2794      8.4336      6.8715    300.0883   1564.2590     25.6646
  2599.4979     69.2125      6.2430      0.3123      7.2789      8.4513      6.8326    293.8727   1564.1765     26.1261
  2599.5978     70.4007      6.2438     -0.0771      7.2658      8.4536      6.7831    289.4061   1564.1465     26.4577
  2599.6977     74.9025      6.2290      0.6404      7.2164      8.4273      6.6613    285.4219   1563.7533     26.9234
  2599.7976     77.5468      6.2153     -0.1402      7.1821      8.3998      6.5901    285.7171   1563.0439     27.2290
  2599.8975     79.8385      6.1962     -0.2320      7.1403      8.3598      6.5124    287.5683   1561.8651     27.3863
