~Version Information
VERS.                            2.0: CWLS Log ASCII STANDARD - VERSION 2.0
WRAP.                             NO: One line per depth step
~Well Information
STRT.M                     1749.9483: FIRST INDEX VALUE
STOP.M                     2729.7675: LAST INDEX VALUE
STEP.M                        0.0999: STEP
NULL.                      -999.2500: NULL VALUE
COMP.                PAN AMERICAN ENERGY L.L.C.: COMPANY
WELL.                PAE.Ch.PLMS-1041: WELL
FLD.                 LA MADRE SELVA SUR: FIELD
LOC.                 X: 4.915.236,49--Y: 2.543.733,51--Z:          701,17: LOCATION
PROV.                         CHUBUT: PROVINCE
SRVC.                          EXPRO: SERVICE COMPANY
DATE.                do. feb. 04 04-26-35 2024: LOG DATE
UWI.                   9702908104100: UNIQUE WELL ID
CTRY.                      ARGENTINA: COUNTRY
SECT.                               : SECTION
TOWN.                               : TOWNSHIP
RANG.                               : RANGE
OS.                  CANASTA--114 mm.: OTHER SERVICES
PDAT.FT                   N. TERRENO: PERMANENT DATUM
EEL.FT                        701,17: ELEVATION
LMF.FT               KB:     4,60 m.: LOG MEASURED FROM
DMF.FT                 KELLY BUSHING: DRILLING MEASURED FROM
EKB.FT                              : KB
EDF.FT                        705,77: DF
EGL.FT                        701,17: GL
DATE1.                    04-02-2024: DATE1
RUN1.                             02: RUN NUMBER
TDD1.FT                       2728 m: DEPTH DRILLER
TDL1.FT                       2726 m: DEPTH LOGGER
BLI1.FT                      2726 m.: BOTTOM LOGGED INTERVAL
TLI1.FT                      1750 m.: TOP LOG INTERVAL
CDD1.IN_FT                          : CASING DRILLER
CDL1.FT                             : CASING LOGGER
BS1.IN                        9.625": BIT SIZE
DFT1.                           AGUA: TYPE FLUID IN HOLE
DFDV1.GM/C3_CP                 LLENO: DENSITY/VISCOSITY
DFPL1.C3                            : PH/FLUID LOSS
MSS1.                               : SOURCE OF SAMPLE
RMT1.OHHM_DEGF                      : RM@MEASURED TEMP
RMFT1.OHMM_DEGF                     : RMF@MEASURED TEMP
RMCT1.OHMM_DEGF                     : RMC@MEASURED TEMP
RMFS1.                              : SOURCE OF RMF/RMC
RMBT1.OHMM_DEGF                     : RM@BHT
TCS1.                               : TIME CIRCULATION STOPPED
TLOB1.                         ARROW: TIME LOGGER ON BOTTOM
BHT1.DEGF                   8.33 PPG: MAXIMUM RECORDED TEMPERATURE
LUN1.                       COMODORO: EQUIPMENT NUMBER
LUL1.                     A. BELTRAN: LOCATION
ENGI1.                  M. HARAMILLA: RECORDED BY
WITN1.                              : WITNESSED BY
COMW.                               : Common Well Name
~Curve Information
DEPT.M                   0 000 00 00: Depth
GR.GAPI                            0: Gamma Ray
AMP3FT.MV                          0: AMP3FT Amplitude
CCL.                               0: Casing Collar Locator
AMPAVG.                            0: Average Sector Amplitude
AMPMAX.                            0: Maximum Sector Amplitude
AMPMIN.                            0: Minimum Sector Amplitude
TT3FT.USEC                         0: 3FT Travel Time
LTEN.LB                            0: Surface Line Tension
Neutron.                           0: SGA1
~Parameter Information
~Other Information
SE TOMA DE REFERENCIA MESA ROTARIA (KB: 4,60 m.).

REGISTRO CORRELACIONADO CON REGISTRO PERFILES COMBINADOS (LINEAL) 

DE CIA BAKER HUGHES DE FECHA 28-ENERO-2024

SE CORRIGE EN FONDO 2726 m.

AMPLITUD 3" MAX.ESPERADA: 71,92 mV.

TIEMPO DE TRANSITO 3" ESPERADA: 233 uSeg.


~A  Depth        GR        AMP3FT       CCL        AMPAVG      AMPMAX      AMPMIN      TT3FT        LTEN      Neutron   
# ...
  2526.3711     56.5918     10.1003     -0.6472     13.1006     14.8261     11.4791    276.9618   1503.7949     24.1068
  2526.4710     56.6863      9.5564     -0.5722     12.3485     13.8342     10.8886    277.4492   1505.8992     23.8993
  2526.5709     56.3632      9.1121      0.2218     11.7085     13.0649     10.4010    278.0038   1506.3755     23.8405
  2526.6708     55.8912      8.5965     -0.3040     10.9546     12.1819      9.6024    278.9259   1506.4374     23.8042
  2526.7707     55.2189      7.5786     -0.1424      9.4423     10.4282      8.0669    282.6892   1505.8977     23.7984
  2526.8706     55.3363      7.1769     -0.0636      8.8375      9.7184      7.4830    285.9975   1505.5144     24.0481
  2526.9705     55.8147      6.8785     -0.3040      8.3856      9.1760      7.0555    290.4219   1504.9919     24.5781
  2527.0704     57.2880      6.5501     -0.3522      7.8945      8.5569      6.5828    301.4486   1502.8888     25.0798
  2527.1703     57.8306      6.4871     -1.1782      7.8085      8.4358      6.4853    306.5674   1501.2205     25.3113
  2527.2702     57.9919      6.4896      0.9380      7.8216      8.4333      6.4822    310.1305   1499.4012     25.2836
  2527.3701     57.1474      6.7746      0.1872      8.2436      8.8785      6.9197    310.1580   1496.7474     24.9812
  2527.4700     56.4406      7.1000      4.3423      8.7055      9.3769      7.4433    306.8011   1496.3866     24.5758
  2527.5699     55.8236      7.5588      3.3890      9.3499     10.0736      8.1940    302.1280   1496.6268     24.1605
  2527.6698     55.3583      8.8556    -20.1769     11.1684     12.0414     10.3273    292.1573   1497.9236     23.2343
  2527.7697     55.4973      9.6794     21.2484     12.3299     13.2950     11.6656    287.8227   1498.6366     23.1063
  2527.8696     55.7388     10.6122      9.1806     13.6497     14.7111     13.1527    283.9729   1499.4482     23.0645
  2527.9695     55.9457     11.6464     -1.5610     15.1144     16.2681     14.6133    280.3537   1500.5520     23.0722
  2528.0694     55.9416     13.9939      0.3092     18.4239     19.7293     17.9116    272.6691   1504.0199     23.3645
  2528.1693     55.7589     15.3187     -0.9880     20.2759     21.6500     19.7196    268.2664   1506.1006     23.7748
  2528.2692     55.5916     16.7732      0.3867     22.3000     23.7596     21.6489    263.4931   1507.9830     23.9637
  2528.3691     55.9411     20.1534      2.0116     27.0015     28.7621     26.0054    253.5958   1510.1584     24.2778
  2528.4690     56.7746     22.0603     -1.5317     29.6694     31.6606     28.4079    249.0284   1510.4032     24.6855
  2528.5689     58.1799     24.0441      0.5375     32.4646     34.7208     30.9002    245.0722   1510.2721     25.1608
  2528.6688     62.4278     27.9152     -0.5527     37.9952     40.7347     35.8883    239.5131   1509.2706     26.4672
  2528.7687     64.7753     29.6503     -0.0121     40.5155     43.3859     38.2654    237.8689   1508.3357     27.0590
  2528.8686     66.7968     31.1851      0.2743     42.7696     45.6519     40.5079    236.8085   1507.0266     27.3599
  2528.9685     68.7886     33.5857      0.0108     46.3319     48.8699     44.4349    235.7958   1503.7250     27.2004
  2529.0684     68.6792     34.4371     -0.3906     47.5902     49.8300     45.9976    235.5909   1502.3101     27.0516
  2529.1683     68.0815     35.0334     -0.6121     48.4524     50.3790     47.1682    235.4854   1501.4854     27.1244
  2529.2682     67.2879     35.3404     -0.2526     48.8649     50.5171     47.8361    235.4463   1501.4185     27.1132
  2529.3681     65.9592     34.9390      0.2947     48.1451     49.4882     47.3523    235.5269   1503.2161     27.0197
  2529.4680     65.5161     34.2053      0.3465     46.9974     48.3056     46.0714    235.6492   1504.5780     26.6426
  2529.5679     65.0974     33.1593      0.0068     45.4045     46.7280     44.3500    235.8272   1505.9220     25.9726
  2529.6678     63.9236     30.4615      0.1111     41.4054     42.8098     40.2256    236.3527   1508.3407     23.8922
  2529.7677     63.1610     29.0025     -0.5415     39.2911     40.7304     38.1381    236.7219   1509.6327     23.2711
  2529.8676     62.4002     27.5797      0.1728     37.2607     38.7221     36.1915    237.2050   1511.1836     22.9262
  2529.9675     61.1823     25.0282      0.1139     33.7061     35.1617     32.8964    238.8023   1515.1167     23.0322
  2530.0674     60.7055     23.9430      0.0065     32.2318     33.6575     31.5218    240.0903   1517.1793     23.3265
  2530.1673     60.2451     22.9968     -0.1643     30.9649     32.3471     30.3585    241.7782   1518.9677     23.7595
  2530.2672     59.4209     21.5375     -0.3163     29.0386     30.3255     28.2585    246.0801   1521.0326     24.6878
  2530.3671     59.2120     21.0254     -0.0183     28.3640     29.6177     27.5037    248.3043   1521.3057     24.8758
  2530.4670     59.2039     20.6495      0.1929     27.8624     29.1022     27.0128    250.2279   1521.2715     24.8576
  2530.5669     59.4743     20.2521     -1.0125     27.2960     28.5730     26.6889    252.3641   1521.1599     24.2943
  2530.6668     59.4901     20.2082      0.4439     27.2010     28.5214     26.6372    252.4072   1521.4924     23.9943
  2530.7667     59.3391     20.2698     -0.6213     27.2355     28.6023     26.6237    251.7860   1522.2939     23.7479
  2530.8666     59.0855     20.4570     -0.3982     27.4286     28.8298     26.7327    250.5727   1523.6458     23.2234
  2530.9665     58.7714     21.3375     -0.0200     28.4831     29.8556     27.3668    246.8427   1527.8568     23.3113
  2531.0664     58.9023     22.0909     -0.2684     29.4429     30.7337     28.1520    244.6677   1530.4056     23.5210
  2531.1663     59.2686     23.0673      0.5552     30.7257     31.8910     29.3059    242.5525   1532.9465     24.0330
  2531.2662     60.6720     25.5639      0.6903     34.1365     35.1124     32.6371    239.1171   1537.2162     25.7275
  2531.3661     61.6368     26.9455      0.1428     36.0869     37.2077     34.6455    237.9269   1538.7394     26.5570
  2531.4660     62.6524     28.2852     -0.2860     38.0185     39.2308     36.6959    237.0664   1539.8452     27.2408
  2531.5659     64.1753     30.4201     -0.2105     41.1989     42.3602     40.2265    236.0961   1540.9532     27.5428
  2531.6658     64.3882     31.0459      0.5696     42.1800     43.2119     41.2975    235.8782   1540.9664     27.4461
  2531.7657     64.1725     31.3124      0.2052     42.6427     43.5000     41.8723    235.7884   1540.5563     27.2929
  2531.8656     62.8302     30.7644     -0.0244     41.9693     42.4349     41.4518    235.9125   1538.2139     26.7015
  2531.9655     61.9949     30.0159     -0.0003     40.9227     41.5178     40.5308    236.0975   1536.3011     26.2486
  2532.0654     61.2311     29.0316     -0.5617     39.5228     40.2814     39.1222    236.3463   1534.0624     25.6141
  2532.1653     60.2957     26.7108     -0.0321     36.1936     37.2103     35.7496    236.9482   1529.4960     24.1878
  2532.2652     60.2579     25.5846     -0.5235     34.5725     35.6588     34.1201    237.2438   1527.5540     23.8678
  2532.3651     60.5550     24.6202      0.3097     33.1809     34.2939     32.7320    237.4921   1525.9474     23.5024
  2532.4650     61.1873     23.8969     -0.2132     32.1317     33.2324     31.6951    237.6654   1524.6281     23.2117
  2532.5649     63.3530     23.3028     -0.3284     31.2397     32.2256     30.8340    237.7376   1522.4478     23.0149
  2532.6648     64.8386     23.4009     -0.0556     31.3494     32.2459     30.9454    237.6482   1521.4780     23.0046
  2532.7647     66.5824     23.6959      0.1867     31.7340     32.5291     31.2950    237.5017   1520.6587     23.4187
  2532.8646     70.7385     24.6273      0.0795     32.9838     33.5694     32.5281    237.1387   1520.0031     23.7700
  2532.9645     72.9160     25.1584      0.1754     33.7119     34.3203     33.2434    236.9666   1520.3098     23.0676
