~Version Information
VERS.                            2.0: CWLS Log ASCII STANDARD - VERSION 2.0
WRAP.                             NO: One line per depth step
~Well Information
STRT.M                     1749.9483: FIRST INDEX VALUE
STOP.M                     2729.7675: LAST INDEX VALUE
STEP.M                        0.0999: STEP
NULL.                      -999.2500: NULL VALUE
COMP.                PAN AMERICAN ENERGY L.L.C.: COMPANY
WELL.                PAE.Ch.PLMS-1041: WELL
FLD.                 LA MADRE SELVA SUR: FIELD
LOC.                 X: 4.915.236,49--Y: 2.543.733,51--Z:          701,17: LOCATION
PROV.                         CHUBUT: PROVINCE
SRVC.                          EXPRO: SERVICE COMPANY
DATE.                do. feb. 04 04-26-35 2024: LOG DATE
UWI.                   9702908104100: UNIQUE WELL ID
CTRY.                      ARGENTINA: COUNTRY
SECT.                               : SECTION
TOWN.                               : TOWNSHIP
RANG.                               : RANGE
OS.                  CANASTA--114 mm.: OTHER SERVICES
PDAT.FT                   N. TERRENO: PERMANENT DATUM
EEL.FT                        701,17: ELEVATION
LMF.FT               KB:     4,60 m.: LOG MEASURED FROM
DMF.FT                 KELLY BUSHING: DRILLING MEASURED FROM
EKB.FT                              : KB
EDF.FT                        705,77: DF
EGL.FT                        701,17: GL
DATE1.                    04-02-2024: DATE1
RUN1.                             02: RUN NUMBER
TDD1.FT                       2728 m: DEPTH DRILLER
TDL1.FT                       2726 m: DEPTH LOGGER
BLI1.FT                      2726 m.: BOTTOM LOGGED INTERVAL
TLI1.FT                      1750 m.: TOP LOG INTERVAL
CDD1.IN_FT                          : CASING DRILLER
CDL1.FT                             : CASING LOGGER
BS1.IN                        9.625": BIT SIZE
DFT1.                           AGUA: TYPE FLUID IN HOLE
DFDV1.GM/C3_CP                 LLENO: DENSITY/VISCOSITY
DFPL1.C3                            : PH/FLUID LOSS
MSS1.                               : SOURCE OF SAMPLE
RMT1.OHHM_DEGF                      : RM@MEASURED TEMP
RMFT1.OHMM_DEGF                     : RMF@MEASURED TEMP
RMCT1.OHMM_DEGF                     : RMC@MEASURED TEMP
RMFS1.                              : SOURCE OF RMF/RMC
RMBT1.OHMM_DEGF                     : RM@BHT
TCS1.                               : TIME CIRCULATION STOPPED
TLOB1.                         ARROW: TIME LOGGER ON BOTTOM
BHT1.DEGF                   8.33 PPG: MAXIMUM RECORDED TEMPERATURE
LUN1.                       COMODORO: EQUIPMENT NUMBER
LUL1.                     A. BELTRAN: LOCATION
ENGI1.                  M. HARAMILLA: RECORDED BY
WITN1.                              : WITNESSED BY
COMW.                               : Common Well Name
~Curve Information
DEPT.M                   0 000 00 00: Depth
GR.GAPI                            0: Gamma Ray
AMP3FT.MV                          0: AMP3FT Amplitude
CCL.                               0: Casing Collar Locator
AMPAVG.                            0: Average Sector Amplitude
AMPMAX.                            0: Maximum Sector Amplitude
AMPMIN.                            0: Minimum Sector Amplitude
TT3FT.USEC                         0: 3FT Travel Time
LTEN.LB                            0: Surface Line Tension
Neutron.                           0: SGA1
~Parameter Information
~Other Information
SE TOMA DE REFERENCIA MESA ROTARIA (KB: 4,60 m.).

REGISTRO CORRELACIONADO CON REGISTRO PERFILES COMBINADOS (LINEAL) 

DE CIA BAKER HUGHES DE FECHA 28-ENERO-2024

SE CORRIGE EN FONDO 2726 m.

AMPLITUD 3" MAX.ESPERADA: 71,92 mV.

TIEMPO DE TRANSITO 3" ESPERADA: 233 uSeg.


~A  Depth        GR        AMP3FT       CCL        AMPAVG      AMPMAX      AMPMIN      TT3FT        LTEN      Neutron   
# ...
  2138.1597     45.0780     37.8357     -0.8877     51.0207     55.4288     47.9984    238.2459   1337.5721     21.3240
  2138.2596     44.7037     39.3540      0.3414     53.1199     57.7017     49.9257    236.7716   1336.9460     21.3322
  2138.3595     44.4689     40.3419      0.1326     54.4731     59.1775     51.1561    235.7260   1337.0662     21.3632
  2138.4594     44.1338     40.8824      0.8410     55.1331     60.1276     51.6302    234.6777   1339.1797     21.6117
  2138.5593     43.8986     40.6208      0.5304     54.6964     59.9202     51.0975    234.4915   1340.6205     21.6326
  2138.6592     43.5706     40.1469     -0.2604     53.9548     59.4532     50.2563    234.4233   1341.9431     21.4565
  2138.7591     42.7310     38.9366     -0.4011     52.1233     58.1165     48.2756    234.4497   1343.9211     20.9573
  2138.8590     42.3505     38.3492     -0.4771     51.2628     57.3699     47.4011    234.4932   1344.7533     20.6296
  2138.9589     42.0923     37.8413      0.1029     50.5435     56.6286     46.7246    234.5433   1345.6312     20.3270
  2139.0588     42.0785     37.1236     -0.1102     49.6184     55.2421     46.0709    234.6509   1347.3347     20.0745
  2139.1587     42.3260     36.8796     -0.3834     49.3594     54.5781     46.0357    234.7107   1347.7930     19.9464
  2139.2586     42.7369     36.6593     -0.1996     49.1538     53.8836     46.1019    234.7775   1347.7424     19.3004
  2139.3585     44.1190     36.1164     -0.0896     48.6283     52.2100     46.2076    234.9365   1346.1532     19.2316
  2139.4584     45.1567     35.7436     -0.7929     48.2249     51.1750     46.1337    235.0270   1344.9944     19.5430
  2139.5583     46.4590     35.3075     -0.3610     47.7297     50.0235     45.9629    235.1208   1343.9246     20.1326
  2139.6582     49.7784     34.3853     -0.8580     46.6621     47.6275     45.5179    235.3004   1342.5626     22.1992
  2139.7581     51.6311     33.9961      0.2369     46.2277     47.3264     45.2206    235.3775   1342.2316     23.9667
  2139.8580     53.4344     33.7162     -0.0674     45.9464     47.2235     44.9797    235.4420   1342.0133     25.8446
  2139.9579     55.0527     33.5767      0.5949     45.8620     47.2729     44.9370    235.4925   1341.8431     27.2723
  2140.0578     57.5026     33.7626     -0.1025     46.3427     48.3048     44.8075    235.5490   1341.6047     27.7977
  2140.1577     58.4364     34.0729     -0.4161     46.8850     49.0750     45.0447    235.5540   1341.5065     27.8341
  2140.2576     59.3399     34.4993      0.5861     47.5848     49.9834     45.4827    235.5430   1341.3158     27.6727
  2140.3575     61.4191     35.5578      0.2475     49.2396     51.9993     46.7275    235.4816   1340.1821     27.0748
  2140.4574     62.6082     36.0958     -0.9824     50.0522     52.9499     47.4035    235.4418   1339.1736     26.8873
  2140.5573     63.8371     36.5634      0.1400     50.7437     53.7380     48.0160    235.4067   1338.0363     26.6962
  2140.6572     66.3868     37.0618     -0.5591     51.4460     54.4958     48.7421    235.3806   1336.3153     26.8078
  2140.7571     67.7886     37.0187     -0.4208     51.3567     54.3695     48.7448    235.3979   1336.0470     27.0649
  2140.8570     69.2858     36.7765      0.2788     50.9715     53.9059     48.4955    235.4351   1336.1443     26.9830
  2140.9569     71.9841     35.8467      0.5340     49.5371     52.1687     47.4642    235.5533   1336.6971     25.7388
  2141.0568     72.6986     35.2685     -0.0297     48.6481     51.0402     46.8496    235.6259   1336.8267     25.4221
  2141.1567     72.7231     34.6848     -0.1948     47.7502     49.8460     46.2458    235.7026   1336.8226     24.9526
  2141.2566     72.0360     34.1366     -0.6829     46.9084     48.6705     45.7086    235.7787   1336.8076     24.8621
  2141.3565     69.1844     33.2800     -0.3761     45.6150     46.7361     44.9005    235.8998   1337.3320     24.6963
  2141.4564     67.4980     33.0362      0.8984     45.2679     46.1553     44.7104    235.9267   1337.9663     24.7559
  2141.5563     65.9052     32.9575     -0.2692     45.1819     45.9254     44.7674    235.9213   1338.7106     24.8529
  2141.6562     63.4302     33.3708      0.5757     45.8768     46.5971     45.6334    235.8106   1339.7898     24.4698
  2141.7561     62.6347     33.8593      0.5168     46.6312     47.4371     46.2915    235.7173   1339.9313     23.8961
  2141.8560     62.1102     34.5037     -0.4074     47.5962     48.5211     47.1358    235.6124   1339.9192     23.4558
  2141.9559     61.4540     36.1112     -1.0057     49.9144     51.0953     49.2236    235.4051   1340.4766     22.4402
  2142.0558     61.0039     37.0125     -0.4894     51.1751     52.4577     50.4412    235.3109   1341.5455     22.1975
  2142.1557     60.2555     37.9618      0.1001     52.4827     53.8265     51.6274    235.2197   1343.2515     21.9953
  2142.2556     57.4894     40.0465      0.6856     55.3210     56.6773     54.2632    235.0206   1347.7816     21.6208
  2142.3555     55.4837     41.2201     -0.0423     56.9206     58.4545     55.7294    234.9044   1349.9233     21.4674
  2142.4554     53.2224     42.5005     -0.8778     58.6791     60.3082     57.3984    234.7790   1351.5476     21.4579
  2142.5553     48.8510     45.3583      0.1711     62.6809     64.3075     61.3843    234.5341   1352.6407     21.9708
  2142.6552     47.2596     46.8776     -0.3761     64.8598     66.4218     63.6527    234.4342   1352.1111     21.5320
  2142.7551     46.3663     48.3845      0.6415     67.0605     68.5313     66.0133    234.3592   1350.9803     21.7561
  2142.8550     46.3149     49.8007      0.5266     69.1686     70.5275     68.0921    234.3112   1349.3698     22.0499
  2142.9549     48.8593     51.9886     -0.6866     72.5338     74.6329     70.1676    234.2851   1345.3235     23.1417
  2143.0548     51.2447     52.5823      0.2450     73.5068     75.9510     70.3706    234.2968   1343.2776     23.7783
  2143.1547     54.0565     52.7626      0.0606     73.8735     76.5812     70.1011    234.3182   1341.4850     24.3473
  2143.2546     59.7342     51.8987      0.4238     72.7792     75.6807     68.3358    234.3798   1339.0466     24.9076
  2143.3545     62.1133     50.9804      0.8787     71.4955     74.3344     67.0334    234.4180   1338.2834     24.9589
  2143.4544     64.0467     49.8771     -0.1415     69.9239     72.6289     65.6178    234.4610   1337.5947     24.9088
  2143.5543     66.8030     47.5573     -0.0529     66.5713     68.9566     62.8851    234.5568   1335.9110     24.6853
  2143.6542     67.8562     46.5043      0.5429     65.0358     67.3142     61.6946    234.6054   1334.9507     24.4762
  2143.7541     68.8308     45.5769     -0.1965     63.6802     65.9225     60.6377    234.6506   1334.1016     24.3462
  2143.8540     70.6217     44.1020     -0.6304     61.5361     63.9264     58.8334    234.7220   1333.1805     24.2115
  2143.9539     71.3011     43.5246     -0.2829     60.7138     63.2524     58.0410    234.7473   1333.0056     24.2368
  2144.0538     71.6943     43.0306      0.3165     60.0266     62.7245     57.3118    234.7674   1332.7629     24.3043
  2144.1537     71.4968     42.2397     -0.2015     58.9725     61.9186     56.0746    234.8019   1331.4224     24.7398
  2144.2536     71.0865     41.9233      0.1406     58.5679     61.5764     55.5837    234.8198   1330.3702     25.2579
  2144.3535     70.6920     41.6494      1.2338     58.2228     61.2538     55.1781    234.8387   1329.3530     25.6979
  2144.4534     70.4638     41.4128     -0.1315     57.9251     60.9507     54.8479    234.8571   1328.6655     25.8406
  2144.5533     70.7179     41.0478      0.4154     57.4631     60.4586     54.3574    234.8828   1329.0491     26.1457
  2144.6532     71.1438     40.9253      0.6815     57.3122     60.3115     54.1726    234.8859   1330.1636     26.2733
  2144.7531     71.6940     40.8442     -0.0529     57.2222     60.2477     54.0155    234.8813   1331.7439     26.3838
