~Version Information
VERS.                            2.0: CWLS Log ASCII STANDARD - VERSION 2.0
WRAP.                             NO: One line per depth step
~Well Information
STRT.M                     1749.9483: FIRST INDEX VALUE
STOP.M                     2729.7675: LAST INDEX VALUE
STEP.M                        0.0999: STEP
NULL.                      -999.2500: NULL VALUE
COMP.                PAN AMERICAN ENERGY L.L.C.: COMPANY
WELL.                PAE.Ch.PLMS-1041: WELL
FLD.                 LA MADRE SELVA SUR: FIELD
LOC.                 X: 4.915.236,49--Y: 2.543.733,51--Z:          701,17: LOCATION
PROV.                         CHUBUT: PROVINCE
SRVC.                          EXPRO: SERVICE COMPANY
DATE.                do. feb. 04 04-26-35 2024: LOG DATE
UWI.                   9702908104100: UNIQUE WELL ID
CTRY.                      ARGENTINA: COUNTRY
SECT.                               : SECTION
TOWN.                               : TOWNSHIP
RANG.                               : RANGE
OS.                  CANASTA--114 mm.: OTHER SERVICES
PDAT.FT                   N. TERRENO: PERMANENT DATUM
EEL.FT                        701,17: ELEVATION
LMF.FT               KB:     4,60 m.: LOG MEASURED FROM
DMF.FT                 KELLY BUSHING: DRILLING MEASURED FROM
EKB.FT                              : KB
EDF.FT                        705,77: DF
EGL.FT                        701,17: GL
DATE1.                    04-02-2024: DATE1
RUN1.                             02: RUN NUMBER
TDD1.FT                       2728 m: DEPTH DRILLER
TDL1.FT                       2726 m: DEPTH LOGGER
BLI1.FT                      2726 m.: BOTTOM LOGGED INTERVAL
TLI1.FT                      1750 m.: TOP LOG INTERVAL
CDD1.IN_FT                          : CASING DRILLER
CDL1.FT                             : CASING LOGGER
BS1.IN                        9.625": BIT SIZE
DFT1.                           AGUA: TYPE FLUID IN HOLE
DFDV1.GM/C3_CP                 LLENO: DENSITY/VISCOSITY
DFPL1.C3                            : PH/FLUID LOSS
MSS1.                               : SOURCE OF SAMPLE
RMT1.OHHM_DEGF                      : RM@MEASURED TEMP
RMFT1.OHMM_DEGF                     : RMF@MEASURED TEMP
RMCT1.OHMM_DEGF                     : RMC@MEASURED TEMP
RMFS1.                              : SOURCE OF RMF/RMC
RMBT1.OHMM_DEGF                     : RM@BHT
TCS1.                               : TIME CIRCULATION STOPPED
TLOB1.                         ARROW: TIME LOGGER ON BOTTOM
BHT1.DEGF                   8.33 PPG: MAXIMUM RECORDED TEMPERATURE
LUN1.                       COMODORO: EQUIPMENT NUMBER
LUL1.                     A. BELTRAN: LOCATION
ENGI1.                  M. HARAMILLA: RECORDED BY
WITN1.                              : WITNESSED BY
COMW.                               : Common Well Name
~Curve Information
DEPT.M                   0 000 00 00: Depth
GR.GAPI                            0: Gamma Ray
AMP3FT.MV                          0: AMP3FT Amplitude
CCL.                               0: Casing Collar Locator
AMPAVG.                            0: Average Sector Amplitude
AMPMAX.                            0: Maximum Sector Amplitude
AMPMIN.                            0: Minimum Sector Amplitude
TT3FT.USEC                         0: 3FT Travel Time
LTEN.LB                            0: Surface Line Tension
Neutron.                           0: SGA1
~Parameter Information
~Other Information
SE TOMA DE REFERENCIA MESA ROTARIA (KB: 4,60 m.).

REGISTRO CORRELACIONADO CON REGISTRO PERFILES COMBINADOS (LINEAL) 

DE CIA BAKER HUGHES DE FECHA 28-ENERO-2024

SE CORRIGE EN FONDO 2726 m.

AMPLITUD 3" MAX.ESPERADA: 71,92 mV.

TIEMPO DE TRANSITO 3" ESPERADA: 233 uSeg.


~A  Depth        GR        AMP3FT       CCL        AMPAVG      AMPMAX      AMPMIN      TT3FT        LTEN      Neutron   
# ...
  2399.1984     71.9597     45.2865     -0.3822     60.4533     68.7618     54.3768    235.0935   1455.3556     27.1163
  2399.2983     72.6770     43.4606      0.3084     57.9314     66.3277     51.9237    235.2416   1455.4387     26.6838
  2399.3982     72.5824     41.4489     -0.7848     55.1984     63.4257     49.3913    235.4334   1455.4950     26.2880
  2399.4981     71.8995     39.2821      0.6189     52.3000     60.0541     46.8473    235.6679   1455.4241     25.7337
  2399.5980     69.7041     34.7460     -0.3626     46.3481     52.2750     42.0431    236.2427   1455.3219     25.2063
  2399.6979     68.5737     32.5509      0.4588     43.5058     48.2141     39.9218    236.5638   1455.7181     25.0807
  2399.7978     67.5803     30.5203      0.8016     40.8870     44.3143     38.0479    236.8914   1456.6050     25.0014
  2399.8977     66.1482     27.1952     -0.6559     36.5967     37.6828     35.1049    237.5152   1459.5470     24.9141
  2399.9976     65.7081     25.9609      0.7266     34.9981     36.0450     34.0359    237.7872   1461.2289     24.9371
  2400.0975     65.4348     25.0171     -0.5265     33.7748     34.9575     33.2087    238.0171   1462.8495     25.0960
  2400.1974     65.3321     23.9360      0.2015     32.3910     33.8626     30.9419    238.3086   1465.8560     25.7135
  2400.2973     65.4872     23.7470      0.3685     32.1716     33.7953     30.4831    238.3567   1467.2952     26.1860
  2400.3972     65.7806     23.7493     -0.1709     32.2129     33.9272     30.3689    238.3394   1468.6188     26.5818
  2400.4971     66.6716     24.1765      0.5822     32.8726     34.6509     30.8596    238.1445   1470.1200     27.1052
  2400.5970     67.0763     24.5199     -0.4147     33.3764     35.1431     31.3361    237.9973   1469.8607     27.0600
  2400.6969     67.2482     24.8951      0.4074     33.9179     35.6442     31.9012    237.8405   1468.7963     26.9555
  2400.7968     66.4672     25.5904      0.2704     34.9043     36.4659     33.1230    237.5587   1464.7826     26.7447
  2400.8967     65.5875     25.8535     -0.6287     35.2742     36.7202     33.6920    237.4526   1462.3463     26.7609
  2400.9966     64.6242     26.0421      0.3685     35.5409     36.8576     34.1818    237.3723   1459.9514     26.8133
  2401.0965     63.8167     26.1623     -1.5198     35.7133     36.8891     34.5759    237.3128   1457.7261     26.8394
  2401.1964     63.2685     26.2906      0.1578     35.8903     36.7263     35.1452    237.2267   1453.8032     26.8767
  2401.2963     63.5085     26.3653      0.4883     35.9761     36.5964     35.4124    237.1915   1452.0460     27.0383
  2401.3962     63.8851     26.4839     -0.5562     36.1097     36.4849     35.7309    237.1749   1450.4581     27.3379
  2401.4961     64.1915     26.8423     -0.0179     36.5430     37.2038     35.9907    237.3986   1448.1702     26.4921
  2401.5960     63.7991     26.9968     -0.2840     36.7553     37.5614     36.1190    237.8479   1447.5867     26.3186
  2401.6959     62.9396     27.0278      0.8221     36.8337     37.6870     36.1416    238.7394   1447.2949     26.1618
  2401.7958     59.7743     26.3490      0.2619     36.0728     36.5817     35.4444    242.6166   1446.8740     25.7984
  2401.8957     57.4828     25.5276     -0.9026     35.0487     35.7689     34.3007    245.8564   1446.4520     24.7354
  2401.9956     54.7625     24.4058     -1.0924     33.5921     34.8899     32.3559    249.9300   1445.8804     23.8536
  2402.0955     48.4682     21.7109      0.7970     29.9207     32.2501     27.8633    259.4896   1444.9437     22.0954
  2402.1954     45.2437     20.4526      0.0668     28.1303     30.7535     25.8884    264.1092   1444.9570     21.5045
  2402.2953     42.2195     19.4565     -3.0484     26.6676     29.3975     24.4174    267.9804   1445.4221     21.0020
  2402.3952     39.5248     18.8280      9.9237     25.7027     28.3819     23.5790    270.7072   1446.3025     20.5980
  2402.4951     35.2663     18.8494     46.6529     25.5832     27.9217     23.7790    271.9081   1448.8777     19.8507
  2402.5950     33.6416     19.4897      9.7463     26.4224     28.5706     24.7117    270.3787   1450.4219     19.4588
  2402.6949     32.2824     20.5081     -0.6697     27.7886     29.7598     26.1837    267.6376   1452.1697     19.0915
  2402.7948     30.1793     23.5286      0.9946     31.8429     33.4644     30.5212    259.5885   1456.6616     18.6079
  2402.8947     29.3711     25.4655     -0.0487     34.4364     35.8680     33.2895    254.9283   1459.4604     18.4834
  2402.9946     28.7055     27.6447     -0.9802     37.3619     38.6855     36.1197    250.3194   1462.4579     18.3730
  2403.0945     27.8433     32.5379      0.0088     44.0027     46.0340     42.1798    242.5128   1468.0409     18.0840
  2403.1944     27.6769     35.1084     -0.3882     47.5391     50.0080     45.4400    239.6981   1470.2457     17.9587
  2403.2943     27.6864     37.6455     -0.9795     51.0612     53.9928     48.7222    237.6555   1472.0338     17.9303
  2403.3942     28.1007     42.3497     -1.1816     57.6634     61.4531     55.0050    235.4401   1474.8733     18.2484
  2403.4941     28.3996     44.4567      0.0145     60.6447     64.7615     57.9146    234.9641   1476.0925     18.4915
  2403.5940     28.6875     46.4019      0.6118     63.4074     67.7526     60.6585    234.7254   1477.1002     18.6635
  2403.6939     29.0760     49.8214      0.4259     68.2940     72.7792     65.6318    234.6015   1477.8387     18.4897
  2403.7938     29.1368     51.2627     -0.4582     70.3722     74.7830     67.8015    234.6104   1477.3907     18.3925
  2403.8937     29.1027     52.4754      0.3250     72.1343     76.3936     69.6823    234.6314   1476.4819     18.1968
  2403.9936     28.9883     53.4103      0.6437     73.5058     77.5512     71.1991    234.6537   1475.2860     18.0733
  2404.0935     28.7294     54.2372      0.1246     74.7574     78.2344     72.8259    234.6859   1472.5354     18.2529
  2404.1934     28.8062     54.0215     -0.2143     74.4843     77.6211     72.7840    234.6973   1470.9526     18.5148
  2404.2933     29.2371     53.3255     -0.6066     73.5345     76.3000     72.0912    234.7096   1469.0710     19.0127
  2404.3932     31.7581     50.4442      0.0909     69.5757     71.5103     68.4503    234.7549   1464.1841     20.3198
  2404.4931     33.9311     48.3269      0.3030     66.6705     68.1413     65.7695    234.7995   1461.4291     21.0724
  2404.5930     36.5504     45.8633      0.3242     63.2881     64.2565     62.6492    234.8692   1458.8401     21.8725
  2404.6929     42.0232     40.3184      0.4879     55.6297     55.9000     55.4780    235.1321   1455.2218     23.6128
  2404.7928     44.3125     37.4415     -0.3747     51.6197     52.1489     50.8761    235.3540   1454.3942     24.1820
  2404.8927     46.0678     34.6207      0.0926     47.6618     48.4122     46.3428    235.6499   1454.1155     24.4673
  2404.9926     48.0044     29.5396     -0.7415     40.4721     41.4832     38.2057    236.4229   1454.5271     24.3068
  2405.0925     48.4248     27.4906      0.1523     37.5488     38.7434     34.9752    236.8283   1454.9561     24.1095
  2405.1924     48.7282     25.8908     -0.0586     35.2500     36.5888     32.5000    237.1773   1455.4487     23.9558
  2405.2923     49.9608     24.1228     -0.1341     32.6682     34.0576     29.8981    237.5493   1456.4635     24.0165
  2405.3922     51.4022     23.8290     -0.0047     32.2284     33.5491     29.5397    237.5801   1456.8536     24.3034
  2405.4921     53.6170     23.7586      0.1769     32.1335     33.3558     29.5214    237.5800   1457.0688     24.9277
  2405.5920     56.5499     23.7672     -0.1341     32.1904     33.3128     29.6049    237.6447   1457.0996     25.5126
  2405.6919     63.2283     23.5974      0.6832     32.1648     33.6311     29.3932    238.4556   1457.0696     26.1271
  2405.7918     65.9906     23.3211     -0.4590     31.9230     33.6142     28.9534    239.4566   1457.4207     26.2225
