~Version Information
VERS.                            2.0: CWLS Log ASCII STANDARD - VERSION 2.0
WRAP.                             NO: One line per depth step
~Well Information
STRT.M                     1749.9483: FIRST INDEX VALUE
STOP.M                     2729.7675: LAST INDEX VALUE
STEP.M                        0.0999: STEP
NULL.                      -999.2500: NULL VALUE
COMP.                PAN AMERICAN ENERGY L.L.C.: COMPANY
WELL.                PAE.Ch.PLMS-1041: WELL
FLD.                 LA MADRE SELVA SUR: FIELD
LOC.                 X: 4.915.236,49--Y: 2.543.733,51--Z:          701,17: LOCATION
PROV.                         CHUBUT: PROVINCE
SRVC.                          EXPRO: SERVICE COMPANY
DATE.                do. feb. 04 04-26-35 2024: LOG DATE
UWI.                   9702908104100: UNIQUE WELL ID
CTRY.                      ARGENTINA: COUNTRY
SECT.                               : SECTION
TOWN.                               : TOWNSHIP
RANG.                               : RANGE
OS.                  CANASTA--114 mm.: OTHER SERVICES
PDAT.FT                   N. TERRENO: PERMANENT DATUM
EEL.FT                        701,17: ELEVATION
LMF.FT               KB:     4,60 m.: LOG MEASURED FROM
DMF.FT                 KELLY BUSHING: DRILLING MEASURED FROM
EKB.FT                              : KB
EDF.FT                        705,77: DF
EGL.FT                        701,17: GL
DATE1.                    04-02-2024: DATE1
RUN1.                             02: RUN NUMBER
TDD1.FT                       2728 m: DEPTH DRILLER
TDL1.FT                       2726 m: DEPTH LOGGER
BLI1.FT                      2726 m.: BOTTOM LOGGED INTERVAL
TLI1.FT                      1750 m.: TOP LOG INTERVAL
CDD1.IN_FT                          : CASING DRILLER
CDL1.FT                             : CASING LOGGER
BS1.IN                        9.625": BIT SIZE
DFT1.                           AGUA: TYPE FLUID IN HOLE
DFDV1.GM/C3_CP                 LLENO: DENSITY/VISCOSITY
DFPL1.C3                            : PH/FLUID LOSS
MSS1.                               : SOURCE OF SAMPLE
RMT1.OHHM_DEGF                      : RM@MEASURED TEMP
RMFT1.OHMM_DEGF                     : RMF@MEASURED TEMP
RMCT1.OHMM_DEGF                     : RMC@MEASURED TEMP
RMFS1.                              : SOURCE OF RMF/RMC
RMBT1.OHMM_DEGF                     : RM@BHT
TCS1.                               : TIME CIRCULATION STOPPED
TLOB1.                         ARROW: TIME LOGGER ON BOTTOM
BHT1.DEGF                   8.33 PPG: MAXIMUM RECORDED TEMPERATURE
LUN1.                       COMODORO: EQUIPMENT NUMBER
LUL1.                     A. BELTRAN: LOCATION
ENGI1.                  M. HARAMILLA: RECORDED BY
WITN1.                              : WITNESSED BY
COMW.                               : Common Well Name
~Curve Information
DEPT.M                   0 000 00 00: Depth
GR.GAPI                            0: Gamma Ray
AMP3FT.MV                          0: AMP3FT Amplitude
CCL.                               0: Casing Collar Locator
AMPAVG.                            0: Average Sector Amplitude
AMPMAX.                            0: Maximum Sector Amplitude
AMPMIN.                            0: Minimum Sector Amplitude
TT3FT.USEC                         0: 3FT Travel Time
LTEN.LB                            0: Surface Line Tension
Neutron.                           0: SGA1
~Parameter Information
~Other Information
SE TOMA DE REFERENCIA MESA ROTARIA (KB: 4,60 m.).

REGISTRO CORRELACIONADO CON REGISTRO PERFILES COMBINADOS (LINEAL) 

DE CIA BAKER HUGHES DE FECHA 28-ENERO-2024

SE CORRIGE EN FONDO 2726 m.

AMPLITUD 3" MAX.ESPERADA: 71,92 mV.

TIEMPO DE TRANSITO 3" ESPERADA: 233 uSeg.


~A  Depth        GR        AMP3FT       CCL        AMPAVG      AMPMAX      AMPMIN      TT3FT        LTEN      Neutron   
# ...
  2653.5438     77.0275      6.4236     -1.0023      7.6365      9.0233      5.6372    321.0609   1602.4454     27.8018
  2653.6437     75.6701      6.3709     -0.9056      7.5404      9.0185      5.5433    318.9080   1600.7224     27.2754
  2653.7436     74.4621      6.4269      0.0455      7.6132      9.1464      5.5950    313.8286   1600.1171     27.0300
  2653.8435     73.3574      6.5309     -0.9836      7.7563      9.3537      5.6977    307.1996   1599.8947     26.6636
  2653.9434     72.4313      6.8356      1.0092      8.1826      9.9366      5.9867    293.8524   1599.9540     25.7140
  2654.0433     72.6540      7.0134      0.2313      8.4313     10.2720      6.1456    288.7531   1599.6620     25.7393
  2654.1432     73.0854      7.1980     -0.1622      8.6881     10.6140      6.3063    285.0676   1598.8995     25.1190
  2654.2431     73.5296      7.5775     -0.2194      9.2085     11.2779      6.6450    281.1146   1596.3458     24.8264
  2654.3430     73.2034      7.7692     -1.0518      9.4672     11.5888      6.8312    280.1997   1595.0824     24.6176
  2654.4429     72.4674      7.9577      0.4276      9.7185     11.8800      7.0291    279.6315   1594.1581     24.2981
  2654.5428     70.1316      8.2962     -0.0855     10.1626     12.3822      7.4286    278.9698   1593.4392     23.7575
  2654.6427     68.8432      8.4309     -0.7940     10.3350     12.5814      7.6071    278.7528   1593.3662     23.7380
  2654.7426     67.7546      8.5351     -0.5077     10.4643     12.7393      7.7575    278.5861   1593.2727     24.0790
  2654.8425     67.0997      8.6067     -0.3678     10.5482     12.8533      7.8749    278.4648   1593.1223     24.2802
  2654.9424     67.7738      8.6588     -0.0365     10.5895     12.9471      8.0148    278.3365   1593.0311     24.9849
  2655.0423     69.1636      8.6437     -0.1582     10.5541     12.9238      8.0435    278.3220   1593.2845     25.4274
  2655.1422     71.0961      8.6027      0.2250     10.4838     12.8487      8.0460    278.3334   1593.6989     25.7175
  2655.2421     75.7458      8.4477     -0.0056     10.2458     12.5380      7.9708    278.3998   1594.2882     26.4453
  2655.3420     78.0604      8.3434      0.0329     10.0923     12.3205      7.8991    278.4319   1594.1443     26.8133
  2655.4419     80.1505      8.2349      0.5321      9.9357     12.0916      7.8175    278.4475   1593.6952     26.9936
  2655.5418     83.1863      8.0589     -0.5507      9.6889     11.7226      7.6786    278.3994   1592.5612     27.0958
  2655.6417     83.9932      8.0114      0.4016      9.6256     11.6291      7.6410    278.3331   1592.2284     26.9851
  2655.7416     84.3271      7.9950      0.4848      9.6064     11.6059      7.6276    278.2436   1592.1138     26.6998
  2655.8415     83.9240      8.0396     -0.5908      9.6708     11.7263      7.6578    278.0210   1592.0541     26.1196
  2655.9414     83.4141      8.0893      0.0329      9.7361     11.8368      7.6957    277.9008   1591.8873     25.9149
  2656.0413     82.8196      8.1516      0.0457      9.8156     11.9620      7.7511    277.7823   1591.6926     25.7759
  2656.1412     82.1828      8.2237      0.1760      9.9063     12.0917      7.8285    277.6709   1591.7028     25.7337
  2656.2411     80.7926      8.3759      0.0457     10.0960     12.3251      8.0473    277.4910   1593.3004     25.9093
  2656.3410     80.0318      8.4372      0.1946     10.1696     12.4019      8.1673    277.4338   1594.9607     26.0701
  2656.4409     79.2485      8.4724     -0.4933     10.2057     12.4312      8.2682    277.4065   1596.8549     26.2163
  2656.5408     77.8172      8.4285      0.0457     10.1126     12.3027      8.3362    277.4590   1599.6846     26.3155
  2656.6407     77.3030      8.3459     -0.1745      9.9789     12.1406      8.2861    277.5418   1600.1101     26.2420
  2656.7406     77.0028      8.2318     -0.0060      9.8015     11.9243      8.1871    277.6595   1599.9449     26.1067
  2656.8405     77.1148      7.9648     -1.0823      9.4049     11.4047      7.9196    277.9801   1599.0040     25.7432
  2656.9404     77.4557      7.8425      0.4460      9.2342     11.1467      7.7971    278.1737   1598.6582     25.6936
  2657.0403     77.8774      7.7431     -0.2823      9.1064     10.9161      7.7065    278.3853   1598.3645     25.7232
  2657.1402     78.5202      7.6223      0.1894      8.9908     10.5666      7.6356    278.8539   1597.0100     25.8756
  2657.2401     78.5434      7.5904     -0.6848      8.9836     10.4388      7.6381    279.1046   1595.6165     25.9069
  2657.3400     78.2873      7.5654      0.0277      8.9881     10.3266      7.6455    279.3587   1593.8158     25.8420
  2657.4399     76.9105      7.5060     -0.1211      8.9760     10.1019      7.6265    279.8428   1590.0389     25.1941
  2657.5398     75.8342      7.4639     -1.0192      8.9441      9.9738      7.5911    280.0516   1588.5248     24.7344
  2657.6397     74.5249      7.4131      0.7345      8.8945      9.8309      7.5435    280.2224   1587.3455     24.2977
  2657.7396     72.9774      7.3562     -0.4992      8.8329      9.6743      7.4937    280.3443   1586.4186     23.6747
  2657.8395     69.0761      7.2443     -0.5760      8.7119      9.3410      7.4327    280.4193   1585.0938     21.8462
  2657.9394     66.7573      7.2010     -0.2153      8.6719      9.2260      7.4382    280.3781   1584.8678     21.3111
  2658.0393     64.3558      7.1716      0.1007      8.6532      9.1355      7.4691    280.2999   1585.2013     20.8468
  2658.1392     60.3145      7.1526     -0.5660      8.6708      9.1880      7.5734    280.1006   1588.0315     20.7331
  2658.2391     59.1790      7.1553      0.6626      8.6938      9.2910      7.6232    280.0161   1590.3517     20.9894
  2658.3390     58.7830      7.1591     -0.5310      8.7159      9.3808      7.6580    279.9655   1592.9340     21.3447
  2658.4389     59.6593      7.1493      0.7108      8.7316      9.4872      7.6575    280.1078   1597.9711     21.8466
  2658.5388     60.4150      7.1251     -0.7457      8.7126      9.4917      7.6118    280.4694   1600.3146     21.8779
  2658.6387     61.0743      7.0805     -0.3592      8.6662      9.4557      7.5266    281.2679   1602.6584     21.7483
  2658.7386     61.8600      6.9110      0.3321      8.4672      9.2406      7.2103    285.6540   1607.5920     21.9151
  2658.8385     62.1580      6.7842      0.6559      8.3115      9.0597      6.9745    290.2798   1610.0055     22.3542
  2658.9384     62.6212      6.6348      0.1630      8.1249      8.8384      6.6953    297.2400   1612.0995     23.0382
  2659.0383     64.6325      6.3051     -0.5452      7.7033      8.3294      6.0689    318.9077   1614.6044     24.9037
  2659.1382     66.2248      6.1441     -0.3622      7.4917      8.1189      5.7570    332.8311   1614.9858     25.5002
  2659.2381     67.9824      5.9948     -0.0384      7.2914      7.9315      5.4636    347.5156   1615.0057     25.7781
  2659.3380     69.5583      5.8600     -0.3622      7.1069      7.7535      5.1939    361.6961   1614.9124     25.7678
  2659.4379     70.6463      5.6335      0.1858      6.7907      7.4902      4.7225    384.2460   1615.0587     24.8455
  2659.5378     69.6944      5.5405     -0.7984      6.6612      7.3836      4.5170    391.2840   1615.3201     23.8441
  2659.6377     67.7922      5.4620      0.3666      6.5535      7.2877      4.3315    395.0721   1615.5544     22.8094
  2659.7376     62.4989      5.3516      0.0692      6.4092      7.2568      4.0301    392.4197   1615.5198     20.3465
  2659.8375     60.0263      5.3153     -0.8130      6.3663      7.2528      3.9158    386.1150   1615.2458     19.5606
  2659.9374     58.2600      5.2829      0.4964      6.3301      7.2359      3.8221    377.1488   1614.8977     19.0755
  2660.0373     58.0428      5.1954     -0.6986      6.2270      7.1118      3.6758    356.3383   1614.0997     19.1170
  2660.1372     59.8601      5.1307     -0.4648      6.1427      6.9946      3.6143    348.0726   1613.5192     19.6624
