~Version Information
VERS.                            2.0: CWLS Log ASCII STANDARD - VERSION 2.0
WRAP.                             NO: One line per depth step
~Well Information
STRT.M                     1749.9483: FIRST INDEX VALUE
STOP.M                     2729.7675: LAST INDEX VALUE
STEP.M                        0.0999: STEP
NULL.                      -999.2500: NULL VALUE
COMP.                PAN AMERICAN ENERGY L.L.C.: COMPANY
WELL.                PAE.Ch.PLMS-1041: WELL
FLD.                 LA MADRE SELVA SUR: FIELD
LOC.                 X: 4.915.236,49--Y: 2.543.733,51--Z:          701,17: LOCATION
PROV.                         CHUBUT: PROVINCE
SRVC.                          EXPRO: SERVICE COMPANY
DATE.                do. feb. 04 04-26-35 2024: LOG DATE
UWI.                   9702908104100: UNIQUE WELL ID
CTRY.                      ARGENTINA: COUNTRY
SECT.                               : SECTION
TOWN.                               : TOWNSHIP
RANG.                               : RANGE
OS.                  CANASTA--114 mm.: OTHER SERVICES
PDAT.FT                   N. TERRENO: PERMANENT DATUM
EEL.FT                        701,17: ELEVATION
LMF.FT               KB:     4,60 m.: LOG MEASURED FROM
DMF.FT                 KELLY BUSHING: DRILLING MEASURED FROM
EKB.FT                              : KB
EDF.FT                        705,77: DF
EGL.FT                        701,17: GL
DATE1.                    04-02-2024: DATE1
RUN1.                             02: RUN NUMBER
TDD1.FT                       2728 m: DEPTH DRILLER
TDL1.FT                       2726 m: DEPTH LOGGER
BLI1.FT                      2726 m.: BOTTOM LOGGED INTERVAL
TLI1.FT                      1750 m.: TOP LOG INTERVAL
CDD1.IN_FT                          : CASING DRILLER
CDL1.FT                             : CASING LOGGER
BS1.IN                        9.625": BIT SIZE
DFT1.                           AGUA: TYPE FLUID IN HOLE
DFDV1.GM/C3_CP                 LLENO: DENSITY/VISCOSITY
DFPL1.C3                            : PH/FLUID LOSS
MSS1.                               : SOURCE OF SAMPLE
RMT1.OHHM_DEGF                      : RM@MEASURED TEMP
RMFT1.OHMM_DEGF                     : RMF@MEASURED TEMP
RMCT1.OHMM_DEGF                     : RMC@MEASURED TEMP
RMFS1.                              : SOURCE OF RMF/RMC
RMBT1.OHMM_DEGF                     : RM@BHT
TCS1.                               : TIME CIRCULATION STOPPED
TLOB1.                         ARROW: TIME LOGGER ON BOTTOM
BHT1.DEGF                   8.33 PPG: MAXIMUM RECORDED TEMPERATURE
LUN1.                       COMODORO: EQUIPMENT NUMBER
LUL1.                     A. BELTRAN: LOCATION
ENGI1.                  M. HARAMILLA: RECORDED BY
WITN1.                              : WITNESSED BY
COMW.                               : Common Well Name
~Curve Information
DEPT.M                   0 000 00 00: Depth
GR.GAPI                            0: Gamma Ray
AMP3FT.MV                          0: AMP3FT Amplitude
CCL.                               0: Casing Collar Locator
AMPAVG.                            0: Average Sector Amplitude
AMPMAX.                            0: Maximum Sector Amplitude
AMPMIN.                            0: Minimum Sector Amplitude
TT3FT.USEC                         0: 3FT Travel Time
LTEN.LB                            0: Surface Line Tension
Neutron.                           0: SGA1
~Parameter Information
~Other Information
SE TOMA DE REFERENCIA MESA ROTARIA (KB: 4,60 m.).

REGISTRO CORRELACIONADO CON REGISTRO PERFILES COMBINADOS (LINEAL) 

DE CIA BAKER HUGHES DE FECHA 28-ENERO-2024

SE CORRIGE EN FONDO 2726 m.

AMPLITUD 3" MAX.ESPERADA: 71,92 mV.

TIEMPO DE TRANSITO 3" ESPERADA: 233 uSeg.


~A  Depth        GR        AMP3FT       CCL        AMPAVG      AMPMAX      AMPMIN      TT3FT        LTEN      Neutron   
# ...
  2071.2267     37.0768     54.7376      0.3014     75.2007     78.9736     72.5241    234.1642   1281.1356     20.6846
  2071.3266     42.2456     52.5719     -0.0595     72.1485     75.9747     69.3727    234.1984   1281.7781     21.2780
  2071.4265     45.2959     51.3226      0.1045     70.4557     74.1490     67.7470    234.2268   1281.3807     21.8318
  2071.5264     48.4557     50.0181     -0.0507     68.7236     72.1935     66.1523    234.2598   1280.7144     22.4423
  2071.6263     54.3764     47.4834      0.4815     65.4215     68.3323     63.1865    234.3294   1279.8574     24.5420
  2071.7262     56.7980     46.3772     -0.0424     63.9956     66.6396     61.7745    234.3626   1280.1580     25.4032
  2071.8261     58.7235     45.4470      0.4746     62.8030     65.2020     60.5808    234.3940   1280.9896     25.8071
  2071.9260     61.1688     44.1963     -0.0595     61.2296     63.6306     59.0531    234.4545   1283.4647     26.2322
  2072.0259     61.8697     43.8362      0.0960     60.7997     63.1667     58.7118    234.4864   1284.6664     26.2330
  2072.1258     62.3403     43.5694     -0.2634     60.4940     62.7754     58.5500    234.5219   1285.7003     26.1489
  2072.2257     62.6724     42.9674      0.2908     59.7583     61.7383     58.2344    234.6115   1287.4773     25.6587
  2072.3256     62.5100     42.4996      0.2457     59.1301     60.9163     57.8519    234.6675   1288.3770     25.4388
  2072.4255     62.1488     41.8950     -0.1718     58.2823     59.8569     57.2555    234.7308   1289.2834     25.0892
  2072.5254     61.6676     41.1799     -0.1836     57.2472     58.5939     56.4713    234.8008   1290.0897     24.8022
  2072.6253     60.8201     39.5867      0.0416     54.8560     55.6877     54.0716    234.9601   1290.9028     24.1081
  2072.7252     60.6513     38.7768      0.2266     53.6108     54.6025     52.7464    235.0485   1290.8334     23.8416
  2072.8251     60.6919     37.9881      1.5665     52.3905     53.8097     51.4762    235.1399   1290.5616     23.7873
  2072.9250     61.1120     36.5865     -0.6573     50.2290     52.3907     49.1047    235.3082   1289.9540     24.1825
  2073.0249     61.2497     36.0620      0.0140     49.4297     51.8827     48.1756    235.3722   1289.7023     24.4369
  2073.1248     61.1938     35.7221      0.6350     48.9189     51.6033     47.5977    235.4176   1289.3667     24.7567
  2073.2247     60.3934     35.6750     -0.5275     48.8741     51.8394     47.3076    235.5037   1287.9449     25.0229
  2073.3246     59.7563     35.8952      0.0416     49.2322     52.2479     47.3638    235.6179   1286.8363     25.0492
  2073.4245     59.0910     36.1433     -0.5585     49.6469     52.6526     47.4824    235.8723   1285.6411     25.0183
  2073.5244     57.9365     36.1118     -0.4617     49.7530     52.5435     47.0657    237.2089   1283.6879     24.9204
  2073.6243     57.4191     35.5524      0.4081     49.0320     51.6003     46.1580    238.4664   1283.0625     25.3282
  2073.7242     56.8180     34.5465     -0.0859     47.6654     49.9226     44.6876    240.1305   1282.5815     25.5996
  2073.8241     54.9545     31.5377      0.3889     43.4634     45.2516     40.5739    244.0448   1281.6129     25.5784
  2073.9240     53.6754     29.8981     -0.8836     41.1440     42.7406     38.4146    245.7702   1281.0673     25.3099
  2074.0239     52.3495     28.4301      0.9577     39.0565     40.4485     36.5083    247.0190   1280.5747     24.4753
  2074.1238     51.2240     27.2610      2.3674     37.3894     38.5951     34.9955    247.7208   1280.2423     24.1499
  2074.2237     50.4129     25.9582     10.9783     35.5412     36.5895     33.2714    248.1083   1280.2134     23.3862
  2074.3236     50.8083     25.8050     40.7486     35.3440     36.4304     33.0489    248.3277   1280.3967     23.1120
  2074.4235     51.5222     25.9996      9.5125     35.6604     36.7846     33.3056    248.8016   1280.5669     22.9857
  2074.5234     52.8499     27.7222     -2.0557     38.2587     39.4927     35.7359    250.0159   1280.7286     22.5829
  2074.6233     53.1076     29.3987      0.5043     40.7544     42.0950     38.1302    250.0936   1280.8896     22.3990
  2074.7232     53.0771     31.6116      0.7000     44.0347     45.5587     41.2974    249.3812   1281.2917     22.0618
  2074.8231     52.6734     36.9603      0.8148     51.9412     53.8723     48.9671    245.4810   1282.9385     21.5512
  2074.9230     52.5720     39.5543     -0.7354     55.7748     57.9018     52.7018    242.8379   1283.9012     21.6636
  2075.0229     52.6170     41.7445     -0.1167     59.0160     61.3173     55.8768    240.2767   1284.6460     21.6168
  2075.1228     52.8863     44.4747      0.1377     63.0703     65.6373     59.9407    236.5292   1284.9662     20.8835
  2075.2227     52.8475     45.1127     -0.6573     64.0194     66.6828     60.9752    235.4867   1284.6718     21.0328
  2075.3226     52.5176     45.4702      0.8594     64.5419     67.2848     61.6377    234.8826   1284.3469     21.2103
  2075.4225     50.8152     46.0055      0.0529     65.2462     68.1029     62.4837    234.4354   1284.3119     21.5852
  2075.5224     49.5633     46.4045     -0.1385     65.7361     68.6150     62.9054    234.3812   1284.6735     21.8057
  2075.6223     48.2196     46.9488     -0.0484     66.3940     69.2554     63.5071    234.3617   1285.1738     22.0693
  2075.7222     46.9379     47.6284     -0.2676     67.2034     69.9923     64.2731    234.3526   1285.7103     22.3820
  2075.8221     45.1400     49.2367      0.0968     69.0656     72.0813     66.0964    234.3339   1286.8580     23.0284
  2075.9220     44.9033     50.0550      0.0265     69.9780     73.3068     67.0292    234.3210   1287.6133     23.5042
  2076.0219     45.2685     50.7939     -0.0728     70.7695     74.3862     67.6049    234.3060   1288.5535     24.0495
  2076.1218     47.9292     51.7419     -0.5314     71.6423     75.6738     67.8699    234.2737   1290.5167     25.3170
  2076.2217     50.0675     51.8162     -0.4337     71.5668     76.0216     67.6216    234.2597   1291.0767     25.6475
  2076.3216     52.5495     51.5586      0.1801     71.0751     75.9748     67.0650    234.2504   1291.0828     25.9622
  2076.4215     58.0115     49.9954     -0.2450     68.7896     73.8762     64.9559    234.2600   1289.4734     25.6498
  2076.5214     60.7857     48.7371      0.4612     67.0552     71.9133     63.4269    234.2871   1288.2532     25.7659
  2076.6213     63.4331     47.2399      0.4457     65.0241     69.4859     61.6521    234.3335   1287.1072     25.9730
  2076.7212     67.6626     43.8783      0.3829     60.5106     63.8265     57.7673    234.4863   1285.6355     26.1473
  2076.8211     68.8990     42.1945     -0.2997     58.2563     60.8891     55.8859    234.5879   1285.3041     26.1959
  2076.9210     69.3994     40.6084     -0.4658     56.1280     58.3750     54.1688    234.6999   1285.1119     26.2840
  2077.0209     69.1464     39.1664      0.8256     54.1810     56.0682     52.6613    234.8169   1284.9589     26.4001
  2077.1208     66.7322     36.7725     -0.0188     50.8871     52.0088     50.1136    235.0495   1284.6016     26.4888
  2077.2207     64.9433     35.7961     -0.8042     49.5036     50.2576     48.9592    235.1625   1284.3793     26.4021
  2077.3206     63.1323     34.9280     -0.0170     48.2479     48.6695     47.2899    235.2748   1284.0896     26.2370
  2077.4205     60.6917     33.3842     -0.8657     45.9665     46.6224     44.4479    235.5069   1283.0007     25.6183
  2077.5204     60.5466     32.6525     -0.8708     44.8764     45.7966     43.2127    235.6310   1282.0734     25.4403
  2077.6203     61.2345     31.9192      1.1381     43.7858     44.8854     42.0712    235.7627   1280.9176     25.3053
  2077.7202     64.5822     30.3966      0.4277     41.5338     42.7296     39.9832    236.0570   1278.5162     25.2396
  2077.8201     66.7389     29.6027     -0.1039     40.3652     41.5018     38.9982    236.2221   1277.6343     25.1837
