~Version Information
VERS.                            2.0: CWLS Log ASCII STANDARD - VERSION 2.0
WRAP.                             NO: One line per depth step
~Well Information
STRT.M                     1749.9483: FIRST INDEX VALUE
STOP.M                     2729.7675: LAST INDEX VALUE
STEP.M                        0.0999: STEP
NULL.                      -999.2500: NULL VALUE
COMP.                PAN AMERICAN ENERGY L.L.C.: COMPANY
WELL.                PAE.Ch.PLMS-1041: WELL
FLD.                 LA MADRE SELVA SUR: FIELD
LOC.                 X: 4.915.236,49--Y: 2.543.733,51--Z:          701,17: LOCATION
PROV.                         CHUBUT: PROVINCE
SRVC.                          EXPRO: SERVICE COMPANY
DATE.                do. feb. 04 04-26-35 2024: LOG DATE
UWI.                   9702908104100: UNIQUE WELL ID
CTRY.                      ARGENTINA: COUNTRY
SECT.                               : SECTION
TOWN.                               : TOWNSHIP
RANG.                               : RANGE
OS.                  CANASTA--114 mm.: OTHER SERVICES
PDAT.FT                   N. TERRENO: PERMANENT DATUM
EEL.FT                        701,17: ELEVATION
LMF.FT               KB:     4,60 m.: LOG MEASURED FROM
DMF.FT                 KELLY BUSHING: DRILLING MEASURED FROM
EKB.FT                              : KB
EDF.FT                        705,77: DF
EGL.FT                        701,17: GL
DATE1.                    04-02-2024: DATE1
RUN1.                             02: RUN NUMBER
TDD1.FT                       2728 m: DEPTH DRILLER
TDL1.FT                       2726 m: DEPTH LOGGER
BLI1.FT                      2726 m.: BOTTOM LOGGED INTERVAL
TLI1.FT                      1750 m.: TOP LOG INTERVAL
CDD1.IN_FT                          : CASING DRILLER
CDL1.FT                             : CASING LOGGER
BS1.IN                        9.625": BIT SIZE
DFT1.                           AGUA: TYPE FLUID IN HOLE
DFDV1.GM/C3_CP                 LLENO: DENSITY/VISCOSITY
DFPL1.C3                            : PH/FLUID LOSS
MSS1.                               : SOURCE OF SAMPLE
RMT1.OHHM_DEGF                      : RM@MEASURED TEMP
RMFT1.OHMM_DEGF                     : RMF@MEASURED TEMP
RMCT1.OHMM_DEGF                     : RMC@MEASURED TEMP
RMFS1.                              : SOURCE OF RMF/RMC
RMBT1.OHMM_DEGF                     : RM@BHT
TCS1.                               : TIME CIRCULATION STOPPED
TLOB1.                         ARROW: TIME LOGGER ON BOTTOM
BHT1.DEGF                   8.33 PPG: MAXIMUM RECORDED TEMPERATURE
LUN1.                       COMODORO: EQUIPMENT NUMBER
LUL1.                     A. BELTRAN: LOCATION
ENGI1.                  M. HARAMILLA: RECORDED BY
WITN1.                              : WITNESSED BY
COMW.                               : Common Well Name
~Curve Information
DEPT.M                   0 000 00 00: Depth
GR.GAPI                            0: Gamma Ray
AMP3FT.MV                          0: AMP3FT Amplitude
CCL.                               0: Casing Collar Locator
AMPAVG.                            0: Average Sector Amplitude
AMPMAX.                            0: Maximum Sector Amplitude
AMPMIN.                            0: Minimum Sector Amplitude
TT3FT.USEC                         0: 3FT Travel Time
LTEN.LB                            0: Surface Line Tension
Neutron.                           0: SGA1
~Parameter Information
~Other Information
SE TOMA DE REFERENCIA MESA ROTARIA (KB: 4,60 m.).

REGISTRO CORRELACIONADO CON REGISTRO PERFILES COMBINADOS (LINEAL) 

DE CIA BAKER HUGHES DE FECHA 28-ENERO-2024

SE CORRIGE EN FONDO 2726 m.

AMPLITUD 3" MAX.ESPERADA: 71,92 mV.

TIEMPO DE TRANSITO 3" ESPERADA: 233 uSeg.


~A  Depth        GR        AMP3FT       CCL        AMPAVG      AMPMAX      AMPMIN      TT3FT        LTEN      Neutron   
# ...
  2332.2654     65.1484     26.6479     -0.4939     36.4877     39.2992     32.2065    237.0251   1436.6394     25.6332
  2332.3653     66.1275     26.6263     -0.1963     36.4016     39.0405     32.4333    237.2869   1435.9813     25.4264
  2332.4652     66.5867     25.8910      0.3139     35.2615     37.6542     32.0330    238.9012   1433.9773     24.7612
  2332.5651     66.0093     25.1909     -0.9124     34.2185     36.4939     31.4113    240.5734   1432.6392     24.3781
  2332.6650     65.0179     24.3001      0.7885     32.8999     35.0253     30.5345    243.0361   1430.9639     24.0663
  2332.7649     62.4721     22.1130     -0.0198     29.6716     31.4750     28.1749    250.4843   1426.0817     23.4404
  2332.8648     61.1899     20.9248      0.1256     27.9219     29.5787     26.8019    255.1529   1422.8228     23.3080
  2332.9647     59.9711     19.7523      0.1515     26.2033     27.7267     25.3860    259.9844   1419.2395     23.1997
  2333.0646     57.5959     17.6472     -0.3623     23.1651     24.4392     22.3198    268.4758   1412.4750     22.8439
  2333.1645     56.3369     16.7649     -0.0122     21.9273     23.0747     21.1129    271.5617   1409.9688     22.4576
  2333.2644     54.9877     15.9954     -0.7894     20.8753     21.8948     20.1475    273.7753   1408.3243     21.9759
  2333.3643     52.1461     14.7150      0.1675     19.1910     19.9833     18.3140    276.1119   1407.6569     21.2418
  2333.4642     50.8465     14.1662     -0.1430     18.4895     19.2038     17.4101    276.6095   1408.4352     21.1969
  2333.5641     49.8161     13.6726     -0.5259     17.8644     18.5347     16.5607    276.8717   1409.7686     21.2549
  2333.6640     49.1156     12.9319     -0.0122     16.9427     17.7757     15.1502    277.0312   1413.5160     21.8957
  2333.7639     49.6095     12.7516     -0.9083     16.7371     17.7033     14.7057    277.0040   1415.6061     22.3177
  2333.8638     50.6626     12.7392      0.4780     16.7589     17.8438     14.5201    276.9251   1417.5900     22.6795
  2333.9637     52.1717     12.9056      0.2318     17.0234     18.2016     14.6327    276.7993   1419.2842     22.9672
  2334.0636     55.8358     13.7054     -0.7320     18.1801     19.4368     15.7264    276.3765   1421.3912     23.4945
  2334.1635     57.5911     14.2609     -0.5969     18.9599     20.1957     16.6103    276.0076   1421.8551     23.9891
  2334.2634     59.0990     14.8624      0.2318     19.7903     20.9670     17.6288    275.4208   1422.1046     24.8451
  2334.3633     61.2899     16.1003     -0.0787     21.4581     22.4113     19.8545    273.0350   1422.5072     25.6638
  2334.4632     62.0875     16.7233      0.2925     22.2826     23.0742     21.0030    270.9660   1422.7302     26.0200
  2334.5631     62.7703     17.3494     -0.2261     23.1075     23.7087     22.1510    268.2639   1422.8772     26.2276
  2334.6630     63.7808     18.5512      0.2525     24.6905     25.4529     24.1876    261.7507   1422.7050     26.6156
  2334.7629     64.0265     19.0647      0.1306     25.3649     26.2795     24.7207    258.6793   1422.5278     26.9413
  2334.8628     64.0780     19.4772      0.5423     25.9019     26.9022     25.1537    256.2463   1422.5590     27.1183
  2334.9627     63.9143     19.9685      0.5174     26.5226     27.4305     25.7033    253.8836   1423.9800     27.2003
  2335.0626     63.9692     20.0774      0.0682     26.6479     27.3909     25.8570    253.7393   1425.3751     27.0963
  2335.1625     64.2624     20.1221      0.7196     26.6857     27.4319     25.9488    253.9975   1426.9540     26.9136
  2335.2624     64.7949     20.1076      0.0269     26.6417     27.6238     25.9657    254.5328   1428.4158     26.6575
  2335.3623     66.0149     19.8335      0.0949     26.2190     27.5655     25.4958    256.6437   1430.1713     26.5775
  2335.4622     66.2585     19.5208      0.3405     25.7742     27.2129     25.0024    258.4644   1430.4183     26.6385
  2335.5621     66.0013     19.0661      0.1010     25.1449     26.6032     24.3318    260.8328   1430.4006     26.6893
  2335.6620     63.8664     17.7528     -0.0730     23.3630     24.6561     22.4974    266.4616   1430.0123     26.5330
  2335.7619     62.2545     16.9468     -0.0201     22.2736     23.4128     21.3884    269.1494   1429.6675     26.3265
  2335.8618     60.6117     16.0970      0.6963     21.1190     22.0914     20.2194    271.4262   1429.1594     26.1435
  2335.9617     58.3638     14.4727     -0.1616     18.8788     19.5953     17.9707    274.4344   1427.7539     26.1098
  2336.0616     58.1954     13.8016     -0.3416     17.9327     18.6067     17.0266    275.2626   1427.1425     26.2766
  2336.1615     58.7667     13.2789      0.2530     17.1797     17.8855     16.2725    275.7804   1426.8414     26.3801
  2336.2614     61.5458     12.7154      0.9818     16.3188     17.3089     15.3756    276.2663   1427.3337     26.6874
  2336.3613     63.1591     12.6232      0.5317     16.1465     17.3608     15.1710    276.3592   1427.7915     26.5978
  2336.4612     64.4641     12.5831      0.2530     16.0472     17.4990     15.0502    276.4018   1427.9948     26.4513
  2336.5611     65.2345     12.4023      0.1244     15.7237     17.5059     14.6430    276.4396   1426.9165     25.4571
  2336.6610     64.5924     12.1820      0.4811     15.3945     17.1921     14.2511    276.4799   1425.8105     25.0913
  2336.7609     63.4008     11.8757      0.3404     14.9572     16.6587     13.8089    276.5620   1424.7468     24.9168
  2336.8608     61.8444     11.5195     -0.4745     14.4616     15.9867     13.3619    276.6967   1424.0620     24.9497
  2336.9607     58.3636     10.8227     -0.0894     13.5174     14.6540     12.6059    277.1053   1424.2460     24.6894
  2337.0606     56.7373     10.5271     -0.8918     13.1249     14.1346     12.2937    277.3387   1424.7954     24.6006
  2337.1605     55.3371     10.2643      0.7533     12.7768     13.7252     11.9471    277.5526   1425.3016     24.5470
  2337.2604     53.4866      9.7946     -0.5529     12.1408     13.1155     11.3502    277.8125   1425.8254     24.8248
  2337.3603     53.0907      9.5911     -0.0526     11.8525     12.8791     11.0831    277.8274   1426.0991     24.9287
  2337.4602     53.0451      9.4279      0.3253     11.6106     12.6985     10.8525    277.7667   1426.6613     24.9683
  2337.5601     53.9468      9.2771      0.1453     11.3498     12.5752     10.5669    277.4963   1428.8424     24.9377
  2337.6600     54.8238      9.2922      0.4116     11.3402     12.6435     10.5216    277.3384   1430.1294     24.5862
  2337.7599     55.8621      9.3574     -0.7289     11.3995     12.7898     10.5346    277.1939   1431.1793     24.6211
  2337.8598     57.7313      9.6117     -0.0136     11.6912     13.2870     10.7261    276.9742   1431.8851     24.6354
  2337.9597     58.1860      9.7941     -0.0136     11.9150     13.6280     10.9071    276.8933   1431.5862     24.7391
  2338.0596     58.1534     10.0044     -0.2798     12.1790     14.0169     11.1373    276.8238   1431.0723     24.8614
  2338.1595     56.6629     10.4499      0.5438     12.7457     14.8581     11.5715    276.7047   1430.0264     24.8520
  2338.2594     55.4218     10.6558     -0.0804     13.0064     15.2704     11.7233    276.6566   1429.5942     24.5255
  2338.3593     54.0705     10.8423     -0.2243     13.2400     15.6636     11.8438    276.6209   1429.1732     24.3393
  2338.4592     52.7889     11.0112      0.1583     13.4488     16.0340     11.9386    276.6099   1428.7222     24.2113
  2338.5591     51.0300     11.2844      0.2315     13.7837     16.6454     12.0706    276.7717   1427.7841     24.1546
  2338.6590     50.7195     11.3582      0.8529     13.8746     16.8162     12.0939    277.0492   1427.3732     24.1325
  2338.7589     50.7668     11.3594     -0.2212     13.8772     16.8382     12.0655    277.5643   1426.9889     24.0368
  2338.8588     51.3323     11.0891      1.0211     13.5475     16.3472     11.8011    279.6459   1425.9109     23.5969
