~Version Information
 VERS.                2.00:   CWLS log ASCII Standard -VERSION 2.00
 WRAP.                  NO:   One line per frame      
~Well Information Block
#MNEM.UNIT                     Data                     Description
#----.----   ----------------------------------------   -------------------------------
 STRT.M                                      940.0032 : Starting Depth
 STOP.M                                     2179.5486 : Ending Depth
 STEP.M                                        0.0762 : Level Spacing
 NULL.                                      -999.2500 : Absent Value
 COMP.       PANAMERICAN ENERGY LLC                   : Company
 WELL.       PAE.Ch.PCD-1295(d)                       : Well
 FLD .       CERRO DRAGON                             : Field
 LOC .                                                : Location
 PROV.                                                : Province
 CTRY.                                                : Country
 SRVC.       Baker Hughes                             : Service Company
 DATE.       15-Oct-2021                              : Log Date
 UWI .                                                : Unique Well ID
 LIC .                                                : License Number
 EKB .                                          549.4 : KB
 EGL .                                          546.0 : GL
 APD .                                            3.4 : MESA
 FL1 .                      X: 5.764,35               :X(N)
 FL2 .                      Y:2.450.000,04            :Y(N)
 FL3 .                      Y:546,0                   :Z  (N)
 RIG .                                        DLS-336 : EQUIPO
~Curve Information Block
#MNEM    .UNIT        API Codes     Curve Description
#--------.--------   LG--CV-CL--M   ---------------------------------------------------
 DEPT    .M          99 995 99  1 : Depth
 CBL     .MV         81 524 99  1 : Waveform, 12-bit data with 4-bit gain code
 GR      .GAPI       30 310  1  1 : Gamma ray
 LSN     .CPS        42 334 31  1 : Long space neutron
 SSN     .CPS        42 334 30  1 : Short space count rate
 TEN     .LBF        99 635 99  1 : Differential tension
 TTEN    .LBF        99 635 99  1 : Total tension
 WCCL    .V          99 150 99  1 : Wireline telemetry casing collar locator
~Parameter Information Block
#MNEM.UNIT                     Value                    Description
#----.----   ----------------------------------------   -------------------------------
 APIN.                                                : API Serial Number
 STAT.                                                : State Or Province
 LATI.DEG    0.0000                                   : Latitude
 LONG.DEG    0.0000                                   : Longitude
~Other information
#  Curve Data
~A   DEPT         CBL          GR           LSN          SSN          TEN          TTEN         WCCL      
# ...
    1673.4282       2.2709      60.9870     420.7569    1440.0708     -60.9486    3744.9509       4.0342
    1673.5044       2.1247      60.6044     415.7661    1450.4531     -56.6993    3749.1738     -12.3393
    1673.5806       1.9823      59.9199     412.4182    1463.6304     -56.9463    3748.9292      -0.9906
    1673.6568       1.8720      59.1193     411.5886    1476.8416     -55.2945    3750.6343     -23.0122
    1673.7330       1.8059      58.2096     413.7879    1487.4349     -45.6856    3760.3350      -5.0911
    1673.8092       1.7773      57.1516     418.0139    1493.8719     -26.5012    3779.6082     -21.8834
    1673.8854       1.7763      55.9811     422.4266    1496.1455      -3.5302    3802.6230       2.1261
    1673.9616       1.7942      54.8594     425.5901    1495.7999      14.4355    3820.5718     -11.7916
    1674.0378       1.8084      53.9174     427.1458    1495.5823      18.6123    3824.6919       3.3351
    1674.1140       1.8055      53.2538     427.4883    1498.3868       8.6640    3814.6936      -3.0585
    1674.1902       1.7940      52.9739     427.8049    1505.5115      -8.7185    3797.3066     -19.1897
    1674.2664       1.7904      53.0982     429.9955    1516.0452     -21.5662    3784.5073       5.5111
    1674.3426       1.7974      53.4969     436.1332    1527.8357     -22.4465    3783.6895     -15.4441
    1674.4188       1.8045      53.9928     446.8672    1538.9255     -11.7918    3794.3638       8.3634
    1674.4950       1.8077      54.4062     460.1035    1548.3694      -0.2044    3805.8862     -48.2821
    1674.5712       1.8159      54.6005     472.1042    1556.4163       0.7434    3806.6929      20.7216
    1674.6474       1.8530      54.4679     479.6066    1563.4761     -14.9543    3790.8306     -20.5058
    1674.7236       1.9571      53.9381     481.4127    1569.0967     -42.9537    3762.7139       4.3581
    1674.7998       2.1605      53.1142     479.0257    1571.7094     -70.3662    3735.2808     -18.3431
    1674.8760       2.4733      52.2476     476.1685    1569.8354     -80.8481    3724.8794      21.4786
    1674.9522       2.8823      51.6793     475.6916    1563.5759     -66.4812    3739.3760     -22.4770
    1675.0284       3.3629      51.6251     478.6477    1555.7178     -31.4261    3774.5369       4.0011
    1675.1046       3.8917      52.0676     483.4719    1550.6985      10.0223    3816.0125     -17.7530
    1675.1808       4.4673      52.8462     487.6825    1552.3540      42.0030    3847.9404     -18.1762
    1675.2570       5.1046      53.6185     490.3821    1561.7305      55.6722    3861.5220     -24.1155
    1675.3332       5.8122      53.9653     492.6262    1576.8296      53.2260    3859.0151      14.6434
    1675.4094       6.5786      53.6877     494.7640    1593.7463      45.0101    3850.8059      -9.6910
    1675.4856       7.3655      52.8713     496.8533    1608.6140      41.2290    3847.0894     -18.8048
    1675.5618       8.1238      51.7446     498.9920    1619.0408      47.1167    3853.0510      -8.2426
    1675.6380       8.8303      50.4958     501.4297    1624.7048      58.1181    3864.0754      -9.3960
    1675.7142       9.4923      49.3172     504.5945    1626.5291      64.4753    3870.3711     -16.0855
    1675.7904      10.1476      48.3799     509.7234    1625.5430      57.6579    3863.4189     -37.0966
    1675.8666      10.8442      47.7606     517.5205    1622.7683      36.3491    3841.9539      11.3107
    1675.9428      11.6103      47.4115     527.8962    1619.5258       6.9188    3812.4043     -17.6386
    1676.0190      12.4254      47.2764     539.9996    1617.2999     -17.3473    3788.0903      21.0368
    1676.0952      13.2288      47.3687     551.5779    1617.7688     -26.5495    3778.9019     -11.5061
    1676.1714      13.9516      47.7425     560.0416    1622.7448     -17.3327    3788.1514       0.6542
    1676.2476      14.5550      48.3412     564.4020    1632.9034       3.7189    3809.2078     -30.6435
    1676.3238      15.0504      49.0102     565.0800    1647.3770      26.3945    3831.8384       4.3773
    1676.4000      15.4985      49.5804     563.4637    1664.4158      39.5212    3844.8833     -34.5055
    1676.4762      15.9640      50.0361     562.2906    1682.0916      39.6609    3844.9470      14.4179
    1676.5524      16.4771      50.4604     564.7024    1698.5103      30.2897    3835.5525     -16.4959
    1676.6286      17.0002      50.9733     572.5088    1712.7954      21.2891    3826.6060      22.5538
    1676.7048      17.4439      51.6398     584.8823    1724.9119      21.5258    3826.9565     -15.5724
    1676.7810      17.7189      52.3599     598.9824    1735.1224      34.5658    3840.1177       8.5119
    1676.8572      17.7793      52.8122     610.6591    1743.6995      55.0261    3860.6428     -30.1059
    1676.9334      17.6447      52.6887     616.5586    1750.7825      73.7871    3879.3733       2.1929
    1677.0096      17.3869      52.0170     616.1251    1755.7284      82.6259    3888.0891     -34.7140
    1677.0858      17.0935      51.0807     611.4594    1757.7620      77.5534    3882.8425       6.2549
    1677.1620      16.8355      50.2960     605.5283    1756.9803      61.0963    3866.2178      -3.1619
    1677.2382      16.6533      49.9803     601.1845    1754.2598      40.3723    3845.3755     -21.2420
    1677.3144      16.5551      50.0907     599.3519    1750.8635      24.1159    3829.0542       4.6884
    1677.3906      16.5312      50.3732     598.8209    1748.3942      17.0959    3821.9878     -12.9812
    1677.4668      16.5721      50.6170     597.8625    1747.9813      18.8429    3823.6570      12.5195
    1677.5430      16.6756      50.7216     596.4415    1749.3501      23.2962    3827.9663     -43.6898
    1677.6192      16.8436      50.6566     595.1360    1751.2378      25.4502    3829.9165       7.0147
    1677.6954      17.0873      50.4634     594.1635    1752.0219      22.8840    3827.1265     -30.0291
    1677.7716      17.4135      50.1871     592.7830    1750.5171      19.2672    3823.3149      33.9924
    1677.8478      17.8300      49.8654     590.0730    1746.6136      18.7677    3822.6807     -40.4830
    1677.9240      18.3215      49.6765     585.7236    1741.2576      26.0397    3829.8774      13.0326
    1678.0002      18.8622      49.8885     580.7867    1735.6747      40.8075    3844.5991     -28.0579
    1678.0764      19.4063      50.6134     576.9667    1731.2607      59.1329    3862.8682      38.0971
    1678.1526      19.7718      51.8480     575.4644    1729.3558      72.5640    3876.1992     -37.8406
    1678.2288      19.8086      53.4115     576.4866    1730.7703      74.4585    3877.9407      -5.9471
    1678.3050      19.4942      54.8776     578.4435    1735.6180      61.9166    3865.2051      -7.8739
    1678.3812      18.9844      55.7974     579.5647    1743.0513      39.1220    3842.2014      25.8819
    1678.4574      18.5320      55.8762     579.9111    1750.9268      12.8771    3815.7480     -21.7858
    1678.5336      18.4075      55.0096     580.7628    1755.8564      -9.5789    3793.0920       3.0160
    1678.6098      18.7369      53.3291     582.5984    1754.5686     -25.4784    3776.9988     -11.0155
    1678.6860      19.4300      51.2371     584.1764    1745.5073     -35.5686    3766.7224      65.1371
    1678.7622      20.1503      49.2547     582.8250    1730.4619     -43.7897    3758.3293       2.0844
    1678.8384      20.6270      47.8619     576.9983    1714.1531     -53.5605    3748.4199     480.8968
    1678.9146      20.8780      47.3917     567.2275    1702.3447     -63.7533    3738.1465     -14.3153
    1678.9908      21.1393      47.8164     556.5892    1699.3782     -69.8130    3732.0791    -425.9952
    1679.0670      21.5845      48.7829     550.4747    1706.4561     -67.1777    3734.7749      44.4338
    1679.1432      22.2092      49.9060     553.5338    1720.9608     -55.1879    3746.8706      -8.0117
    1679.2194      23.0293      50.9017     566.3230    1738.3989     -36.9760    3765.2063       9.7552
