~Version Information
 VERS.                2.00:   CWLS log ASCII Standard -VERSION 2.00
 WRAP.                  NO:   One line per frame      
~Well Information Block
#MNEM.UNIT                     Data                     Description
#----.----   ----------------------------------------   -------------------------------
 STRT.M                                      940.0032 : Starting Depth
 STOP.M                                     2179.5486 : Ending Depth
 STEP.M                                        0.0762 : Level Spacing
 NULL.                                      -999.2500 : Absent Value
 COMP.       PANAMERICAN ENERGY LLC                   : Company
 WELL.       PAE.Ch.PCD-1295(d)                       : Well
 FLD .       CERRO DRAGON                             : Field
 LOC .                                                : Location
 PROV.                                                : Province
 CTRY.                                                : Country
 SRVC.       Baker Hughes                             : Service Company
 DATE.       15-Oct-2021                              : Log Date
 UWI .                                                : Unique Well ID
 LIC .                                                : License Number
 EKB .                                          549.4 : KB
 EGL .                                          546.0 : GL
 APD .                                            3.4 : MESA
 FL1 .                      X: 5.764,35               :X(N)
 FL2 .                      Y:2.450.000,04            :Y(N)
 FL3 .                      Y:546,0                   :Z  (N)
 RIG .                                        DLS-336 : EQUIPO
~Curve Information Block
#MNEM    .UNIT        API Codes     Curve Description
#--------.--------   LG--CV-CL--M   ---------------------------------------------------
 DEPT    .M          99 995 99  1 : Depth
 CBL     .MV         81 524 99  1 : Waveform, 12-bit data with 4-bit gain code
 GR      .GAPI       30 310  1  1 : Gamma ray
 LSN     .CPS        42 334 31  1 : Long space neutron
 SSN     .CPS        42 334 30  1 : Short space count rate
 TEN     .LBF        99 635 99  1 : Differential tension
 TTEN    .LBF        99 635 99  1 : Total tension
 WCCL    .V          99 150 99  1 : Wireline telemetry casing collar locator
~Parameter Information Block
#MNEM.UNIT                     Value                    Description
#----.----   ----------------------------------------   -------------------------------
 APIN.                                                : API Serial Number
 STAT.                                                : State Or Province
 LATI.DEG    0.0000                                   : Latitude
 LONG.DEG    0.0000                                   : Longitude
~Other information
#  Curve Data
~A   DEPT         CBL          GR           LSN          SSN          TEN          TTEN         WCCL      
# ...
    1350.7212       4.1250      44.3381     375.1674    1328.9713     -64.6851    3224.1062      11.0828
    1350.7974       4.0783      43.8380     373.5676    1333.4574     -69.2317    3219.7466      16.7781
    1350.8736       4.0286      43.9657     375.2743    1338.5724     -71.7877    3217.4099     -14.3409
    1350.9498       3.9791      44.5982     378.3678    1343.3674     -60.7594    3228.6794       8.4413
    1351.0260       3.9388      45.5749     380.9068    1347.8998     -32.2562    3257.3975     -43.2645
    1351.1022       3.9094      46.7494     382.1858    1352.6919       5.4592    3295.2427      23.8332
    1351.1784       3.8753      47.9470     383.3193    1358.2859      36.9852    3326.7896     -44.1605
    1351.2546       3.8196      49.0711     385.8206    1364.7319      47.9737    3337.7168       6.3190
    1351.3308       3.7313      50.1068     390.2074    1371.0632      36.6541    3326.3218      19.0978
    1351.4070       3.6156      50.9169     394.7693    1375.5662      14.5181    3304.1641     -23.0379
    1351.4832       3.4903      51.3240     396.6763    1376.7555      -4.2513    3285.4502       9.3903
    1351.5594       3.3783      51.3086     394.1304    1373.6620     -11.3546    3278.4539     -51.6870
    1351.6356       3.2930      51.0096     387.6250    1365.9094      -9.9999    3279.9170      22.4258
    1351.7118       3.2342      50.6441     379.5912    1353.7384      -9.8125    3280.1812     -14.9310
    1351.7880       3.1892      50.4909     372.9342    1338.1388     -19.0778    3270.9619     -13.0346
    1351.8642       3.1432      50.5855     368.8620    1321.4565     -37.7524    3252.3286      25.6515
    1351.9404       3.0847      50.7437     366.3280    1307.3806     -57.8893    3232.2544     -22.7586
    1352.0166       3.0251      50.6815     363.4717    1299.3879     -71.9143    3218.3140     -10.1117
    1352.0928       2.9943      50.2137     359.0859    1299.0616     -77.2641    3213.0564     -48.9477
    1352.1690       3.0216      49.3884     353.4024    1305.5743     -78.4543    3211.9519       2.2185
    1352.2452       3.1237      48.5580     348.5440    1315.7327     -82.1454    3208.3464       5.7579
    1352.3214       3.2946      48.1637     346.9607    1325.0414     -88.6189    3201.9839     -13.7218
    1352.3976       3.5113      48.5942     348.8155    1329.9058     -92.2021    3198.5596      11.1277
    1352.4738       3.7416      49.9302     352.5470    1329.4918     -84.5309    3206.4353     -31.7348
    1352.5500       3.9561      51.9976     356.4480    1325.6340     -63.1438    3228.0425     -11.0353
    1352.6262       4.1287      54.3955     359.1644    1321.2600     -33.0974    3258.2876     -11.2496
    1352.7024       4.2443      56.6831     360.4778    1318.6404      -4.8882    3286.6577     -18.9186
    1352.7786       4.3034      58.5044     360.8369    1318.3132      11.4900    3303.1711      31.0787
    1352.8548       4.3167      59.7420     359.9093    1318.9518      15.1888    3307.0156     -14.5154
    1352.9310       4.2983      60.3341     357.5642    1318.3188      13.0943    3305.1045       6.1347
    1353.0072       4.2757      60.3403     354.5460    1315.1031      12.6914    3304.9180     -31.0787
    1353.0834       4.2734      60.0487     351.8545    1309.9414      16.7140    3309.1606     -30.7715
    1353.1596       4.2944      59.7613     351.0786    1305.2098      20.5581    3313.1943      17.6898
    1353.2358       4.3198      59.5810     353.8874    1303.9490      17.9022    3310.6877     -26.6552
    1353.3120       4.3239      59.5780     360.6278    1308.3025       4.2352    3297.1455      20.0363
    1353.3882       4.2938      59.7340     369.6158    1318.4271     -18.1767    3274.8623     -14.8738
    1353.4644       4.2366      59.8940     378.5579    1332.8196     -42.7357    3250.4565      -1.0291
    1353.5406       4.1685      59.9400     385.3624    1348.9685     -62.8331    3230.5352     -24.4483
    1353.6168       4.1075      59.9030     389.3068    1364.2222     -75.2333    3218.3198     -36.3013
    1353.6930       4.0703      59.8113     390.9761    1376.9154     -81.7781    3211.9570       9.0825
    1353.7692       4.0626      59.7274     392.0655    1386.4785     -84.9157    3209.0059     -30.8483
    1353.8454       4.0767      59.6979     394.1822    1392.6696     -83.4696    3210.6609      44.2373
    1353.9216       4.1000      59.6537     398.5058    1395.3997     -73.3057    3221.0684      -4.5589
    1353.9978       4.1227      59.5306     404.5049    1394.9718     -52.0750    3242.5642     -13.9522
    1354.0740       4.1426      59.3582     410.3478    1392.1033     -24.4765    3270.4141     -24.9603
    1354.1502       4.1621      59.0367     414.4826    1388.1869       1.1578    3296.2524     -40.6020
    1354.2264       4.1834      58.4901     416.2303    1384.9573      16.4618    3311.7031      13.3661
    1354.3026       4.2116      57.7985     415.4460    1383.2621      18.5714    3313.9204     -34.2489
    1354.3788       4.2566      57.1364     412.9576    1382.4404      12.1612    3307.6138      19.3026
    1354.4550       4.3222      56.7680     409.5077    1380.7206       4.6709    3300.2500      -0.5035
    1354.5312       4.4015      56.9931     405.6688    1376.1946       2.6914    3298.4253     -38.5333
    1354.6074       4.4823      57.8638     402.0997    1368.2405       5.9065    3301.8022      -6.7390
    1354.6836       4.5502      59.0239     399.5170    1358.5583       8.7444    3304.7817     -19.2770
    1354.7598       4.5902      59.8593     398.5962    1350.8739       3.2335    3299.3765      -1.2667
    1354.8360       4.5899      59.8674     399.3993    1349.2139     -14.3240    3281.9006      -8.8654
    1354.9122       4.5414      58.8698     401.6369    1355.8441     -40.3325    3255.9814      -1.7312
    1354.9884       4.4498      57.2004     404.9498    1370.2451     -67.9530    3228.4878       7.9027
    1355.0646       4.3345      55.5410     409.5088    1389.7488     -89.9734    3206.6411     -40.0900
    1355.1408       4.2205      54.4143     415.8447    1410.6683    -101.7216    3195.1018       1.5393
    1355.2170       4.1278      53.9543     423.4083    1429.3179    -102.9904    3194.0474     -22.7331
    1355.2932       4.0691      53.9671     429.7346    1442.7281     -96.1507    3201.0801       1.0195
    1355.3694       4.0482      54.0868     431.7668    1448.9865     -85.8978    3211.4902       5.2129
    1355.4456       4.0584      54.1927     427.0031    1447.2561     -74.6287    3222.8877     -11.6248
    1355.5218       4.0876      54.3818     415.5807    1438.1091     -63.0011    3234.6357       6.0465
    1355.5980       4.1240      54.7387     400.9470    1423.7157     -49.1183    3248.6509     -39.2452
    1355.6742       4.1593      55.1431     387.6375    1407.6218     -31.0294    3266.8892       4.3473
    1355.7504       4.1861      55.3486     379.4001    1394.0659      -9.0652    3289.0054      -4.9340
    1355.8266       4.1935      55.0358     377.9260    1386.6245      14.3462    3312.5488      -5.8557
    1355.9028       4.1706      54.0586     381.9773    1386.6071      34.3886    3332.6816      31.2730
    1355.9790       4.1168      52.5376     388.7183    1392.7330      47.1138    3345.4478     -34.6081
    1356.0552       4.0505      50.8282     395.3343    1401.7859      51.5262    3349.8628      11.4421
    1356.1314       4.0037      49.2460     399.6692    1409.5548      48.8750    3347.1948     -18.3042
    1356.2076       4.0024      48.0295     400.8162    1412.2153      42.4570    3340.7576     -12.8546
    1356.2838       4.0521      47.1909     399.5811    1408.0334      33.4553    3331.7388     -17.4965
    1356.3600       4.1390      46.6621     397.6584    1397.6799      21.9790    3320.2437       3.6260
    1356.4362       4.2385      46.5209     396.3487    1383.8820       6.6610    3304.9014       8.7427
    1356.5124       4.3222      46.9166     395.9118    1370.5869     -12.4224    3285.7898     -17.4082
