~Version Information
 VERS.                2.00:   CWLS log ASCII Standard -VERSION 2.00
 WRAP.                  NO:   One line per frame      
~Well Information Block
#MNEM.UNIT                     Data                     Description
#----.----   ----------------------------------------   -------------------------------
 STRT.M                                      940.0032 : Starting Depth
 STOP.M                                     2179.5486 : Ending Depth
 STEP.M                                        0.0762 : Level Spacing
 NULL.                                      -999.2500 : Absent Value
 COMP.       PANAMERICAN ENERGY LLC                   : Company
 WELL.       PAE.Ch.PCD-1295(d)                       : Well
 FLD .       CERRO DRAGON                             : Field
 LOC .                                                : Location
 PROV.                                                : Province
 CTRY.                                                : Country
 SRVC.       Baker Hughes                             : Service Company
 DATE.       15-Oct-2021                              : Log Date
 UWI .                                                : Unique Well ID
 LIC .                                                : License Number
 EKB .                                          549.4 : KB
 EGL .                                          546.0 : GL
 APD .                                            3.4 : MESA
 FL1 .                      X: 5.764,35               :X(N)
 FL2 .                      Y:2.450.000,04            :Y(N)
 FL3 .                      Y:546,0                   :Z  (N)
 RIG .                                        DLS-336 : EQUIPO
~Curve Information Block
#MNEM    .UNIT        API Codes     Curve Description
#--------.--------   LG--CV-CL--M   ---------------------------------------------------
 DEPT    .M          99 995 99  1 : Depth
 CBL     .MV         81 524 99  1 : Waveform, 12-bit data with 4-bit gain code
 GR      .GAPI       30 310  1  1 : Gamma ray
 LSN     .CPS        42 334 31  1 : Long space neutron
 SSN     .CPS        42 334 30  1 : Short space count rate
 TEN     .LBF        99 635 99  1 : Differential tension
 TTEN    .LBF        99 635 99  1 : Total tension
 WCCL    .V          99 150 99  1 : Wireline telemetry casing collar locator
~Parameter Information Block
#MNEM.UNIT                     Value                    Description
#----.----   ----------------------------------------   -------------------------------
 APIN.                                                : API Serial Number
 STAT.                                                : State Or Province
 LATI.DEG    0.0000                                   : Latitude
 LONG.DEG    0.0000                                   : Longitude
~Other information
#  Curve Data
~A   DEPT         CBL          GR           LSN          SSN          TEN          TTEN         WCCL      
# ...
    1432.8648       4.3578      46.1890     446.0970    1502.6930     -48.3035    3361.4438       3.0521
    1432.9410       4.3696      46.3041     443.6574    1499.2964     -31.6498    3378.2439     -29.7081
    1433.0172       4.3538      46.6637     441.0203    1488.6921     -29.2914    3380.6919      22.3195
    1433.0934       4.3097      47.0876     437.5974    1471.5288     -44.1277    3365.9282     -36.8144
    1433.1696       4.2412      47.5608     433.5482    1450.6731     -67.6719    3342.4907      16.2818
    1433.2458       4.1547      48.1400     428.9802    1429.9995     -84.7422    3325.5876      -0.0898
    1433.3220       4.0646      48.8774     424.0474    1412.8199     -83.9880    3326.5503       2.7964
    1433.3982       3.9860      49.7224     418.8177    1400.7490     -65.6270    3345.1113     -26.8291
    1433.4744       3.9278      50.4580     413.3303    1393.6541     -42.3935    3368.4961     -14.3923
    1433.5506       3.8910      50.7605     407.9702    1390.7164     -30.1992    3380.7922       3.3182
    1433.6268       3.8683      50.4540     403.0746    1391.5042     -36.9550    3374.1265     -23.2451
    1433.7030       3.8489      49.6213     398.8265    1396.3612     -56.6831    3354.5225      19.1897
    1433.7792       3.8243      48.5095     395.8272    1405.8480     -75.7654    3335.6108     -15.4370
    1433.8554       3.7890      47.4604     395.5489    1419.5361     -81.6877    3329.8750       4.7897
    1433.9316       3.7463      46.7708     398.7334    1435.6650     -71.9520    3339.7559     -20.8130
    1434.0078       3.7109      46.4812     404.9319    1452.0447     -54.7612    3357.0151       5.5703
    1434.0840       3.7105      46.4608     413.5678    1466.9932     -42.3751    3369.4028     -25.5491
    1434.1602       3.7790      46.5791     424.6055    1479.6117     -42.5200    3369.2500      -8.5503
    1434.2364       3.9515      46.6289     437.3474    1489.9958     -53.4360    3358.3809      -0.7600
    1434.3126       4.2594      46.4017     449.9594    1498.8047     -66.7461    3345.2031     -12.8001
    1434.3888       4.7241      45.7374     460.3099    1506.3101     -74.4911    3337.6555       0.9460
    1434.4650       5.3527      44.6463     467.0886    1512.1040     -76.0312    3336.3289     -18.3687
    1434.5412       6.1358      43.3085     471.1083    1515.6008     -76.2559    3336.2925      11.1950
    1434.6174       7.0535      42.0001     473.6618    1516.9219     -80.5695    3332.1365     -31.1555
    1434.6936       8.0987      40.9203     476.4387    1517.3690     -88.5304    3324.3276      12.1859
    1434.7698       9.2590      40.1017     481.0393    1519.3182     -93.6732    3319.3618     -24.5507
    1434.8460      10.4689      39.4696     487.9134    1525.2070     -89.5440    3323.6958      -1.9749
    1434.9222      11.6092      38.9502     495.5670    1536.6470     -76.5483    3336.8960      -7.6206
    1434.9984      12.5404      38.4016     502.2385    1553.3962     -62.8901    3350.7222      -8.3827
    1435.0746      13.1437      37.7960     506.6123    1573.2209     -59.3670    3354.3667      -0.4937
    1435.1508      13.3622      37.1367     508.2571    1592.5901     -71.9423    3341.8926     -29.6054
    1435.2270      13.2291      36.4422     507.3202    1608.5562     -95.2408    3318.7217      20.0194
    1435.3032      12.8508      35.7550     504.6049    1619.8943    -115.9303    3298.2163     -35.0212
    1435.3794      12.3493      35.1714     500.9614    1627.3658    -120.9934    3293.3784      13.7252
    1435.4556      11.8235      34.7341     498.3514    1632.7314    -106.8189    3307.7693     -16.6402
    1435.5318      11.3196      34.4601     499.1508    1637.8964     -82.2921    3332.4507      10.0539
    1435.6080      10.8426      34.2629     504.4677    1643.6550     -62.2003    3352.6167     -19.8054
    1435.6842      10.3984      34.0718     513.1944    1649.1970     -57.1540    3357.6855     -16.7938
    1435.7604      10.0020      33.9031     521.7245    1652.5557     -67.1291    3347.7346       5.5431
    1435.8366       9.6505      33.8558     525.2129    1651.8645     -84.1368    3330.7954     -25.4237
    1435.9128       9.3155      33.9644     521.0298    1646.0066     -98.2352    3316.8191      -3.1908
    1435.9890       8.9656      34.2192     510.5583    1635.1648    -104.7755    3310.4346     -23.9619
    1436.0652       8.5868      34.5593     497.6740    1621.1007    -105.8124    3309.5640      20.8898
    1436.1414       8.1900      34.8120     487.3494    1606.8765    -106.1795    3309.3691     -34.5532
    1436.2176       7.8083      34.7387     484.6329    1595.8203    -108.2523    3307.4941       0.8079
    1436.2938       7.4652      34.2684     491.8264    1590.4507    -109.0817    3306.9126     -11.8846
    1436.3700       7.1517      33.6122     506.4768    1591.8043    -104.0955    3312.1982     -14.3923
    1436.4462       6.8341      33.1073     523.1242    1599.4221     -91.8392    3324.7754     -15.6674
    1436.5224       6.4725      33.0314     536.1205    1611.7209     -76.5781    3340.3320     -29.4885
    1436.5986       6.0468      33.4603     542.1690    1626.3298     -65.4002    3351.7461      25.8051
    1436.6748       5.5698      34.3285     540.8766    1640.2805     -64.4232    3352.8977     -12.2693
    1436.7510       5.0845      35.5384     534.0964    1650.1691     -73.8562    3343.6089       1.6291
    1436.8272       4.6306      37.0054     524.1700    1652.3899     -87.6320    3329.9915     -38.0715
    1436.9034       4.2221      38.5803     512.8234    1643.9006     -96.5863    3321.2397      12.2822
    1436.9796       3.8564      40.1815     500.8956    1623.5966     -93.5161    3324.5557       0.7534
    1437.0558       3.5347      41.8381     488.6537    1593.4342     -78.7797    3339.5503      -2.9367
    1437.1320       3.2715      43.5419     476.9525    1558.3201     -60.5189    3358.0415       0.5997
    1437.2082       3.0827      45.1703     467.6130    1525.0691     -48.7281    3370.0146     -21.4986
    1437.2844       2.9721      46.6531     462.3109    1500.0792     -48.5738    3370.3125       6.3078
    1437.3606       2.9267      47.8618     461.1228    1487.2771     -58.4199    3360.5955     -33.4280
    1437.4368       2.9216      48.6161     462.8205    1487.4031     -69.5601    3349.5874      41.4981
    1437.5130       2.9334      48.7352     465.6342    1498.6603     -72.5864    3346.6914      -4.8282
    1437.5892       2.9497      48.1931     468.8852    1517.5837     -64.3855    3354.9927      23.7562
    1437.6654       2.9711      47.0918     472.6248    1540.5190     -50.7012    3368.7188     -42.6893
    1437.7416       3.0058      45.7267     477.8960    1564.6182     -42.1084    3377.2925       2.2570
    1437.8178       3.0578      44.3813     485.0944    1587.5552     -46.5798    3372.7773      -5.4242
    1437.8940       3.1148      43.1330     493.7306    1606.7764     -63.6674    3355.6772     -21.0434
    1437.9702       3.1494      41.9547     503.1740    1619.5364     -83.6650    3335.7388      -9.3511
    1438.0464       3.1351      40.8738     513.1924    1623.2422     -96.1455    3323.3901     -20.5826
    1438.1226       3.0594      40.0151     522.1646    1616.3876     -95.6724    3324.0269      19.6001
    1438.1988       2.9319      39.6902     527.3597    1599.6199     -85.4846    3334.3594     -36.5579
    1438.2750       2.7821      40.1639     526.1206    1575.5557     -74.0609    3345.8789       4.7237
    1438.3512       2.6448      41.4579     516.8126    1547.8040     -68.4398    3351.5596     -13.7765
    1438.4274       2.5486      43.2695     499.0347    1519.8446     -69.4148    3350.6443      -6.3735
    1438.5036       2.5077      45.1598     475.0780    1493.8817     -72.2954    3347.8540     -18.4322
    1438.5798       2.5189      46.9986     449.4360    1470.3400     -71.4676    3348.8030     -15.8466
    1438.6560       2.5682      48.7607     426.7188    1448.5482     -64.9731    3355.4182      21.0111
