~Version Information
 VERS.                2.00:   CWLS log ASCII Standard -VERSION 2.00
 WRAP.                  NO:   One line per frame      
~Well Information Block
#MNEM.UNIT                     Data                     Description
#----.----   ----------------------------------------   -------------------------------
 STRT.M                                      940.0032 : Starting Depth
 STOP.M                                     2179.5486 : Ending Depth
 STEP.M                                        0.0762 : Level Spacing
 NULL.                                      -999.2500 : Absent Value
 COMP.       PANAMERICAN ENERGY LLC                   : Company
 WELL.       PAE.Ch.PCD-1295(d)                       : Well
 FLD .       CERRO DRAGON                             : Field
 LOC .                                                : Location
 PROV.                                                : Province
 CTRY.                                                : Country
 SRVC.       Baker Hughes                             : Service Company
 DATE.       15-Oct-2021                              : Log Date
 UWI .                                                : Unique Well ID
 LIC .                                                : License Number
 EKB .                                          549.4 : KB
 EGL .                                          546.0 : GL
 APD .                                            3.4 : MESA
 FL1 .                      X: 5.764,35               :X(N)
 FL2 .                      Y:2.450.000,04            :Y(N)
 FL3 .                      Y:546,0                   :Z  (N)
 RIG .                                        DLS-336 : EQUIPO
~Curve Information Block
#MNEM    .UNIT        API Codes     Curve Description
#--------.--------   LG--CV-CL--M   ---------------------------------------------------
 DEPT    .M          99 995 99  1 : Depth
 CBL     .MV         81 524 99  1 : Waveform, 12-bit data with 4-bit gain code
 GR      .GAPI       30 310  1  1 : Gamma ray
 LSN     .CPS        42 334 31  1 : Long space neutron
 SSN     .CPS        42 334 30  1 : Short space count rate
 TEN     .LBF        99 635 99  1 : Differential tension
 TTEN    .LBF        99 635 99  1 : Total tension
 WCCL    .V          99 150 99  1 : Wireline telemetry casing collar locator
~Parameter Information Block
#MNEM.UNIT                     Value                    Description
#----.----   ----------------------------------------   -------------------------------
 APIN.                                                : API Serial Number
 STAT.                                                : State Or Province
 LATI.DEG    0.0000                                   : Latitude
 LONG.DEG    0.0000                                   : Longitude
~Other information
#  Curve Data
~A   DEPT         CBL          GR           LSN          SSN          TEN          TTEN         WCCL      
# ...
    1022.1468      25.4533      47.5794     379.3994    1308.3041     -46.4116    2592.5017      -3.6965
    1022.2230      25.2141      47.8653     373.3105    1302.9518     -46.1975    2592.9080      -3.1675
    1022.2992      25.1579      48.0171     363.0937    1302.0769     -42.3792    2596.9165      -9.6853
    1022.3754      25.2115      48.0690     350.2357    1302.6897     -36.4885    2602.9868     -12.1603
    1022.4516      25.3026      48.0738     336.7546    1301.9623     -30.3854    2609.2546       7.4463
    1022.5278      25.3899      48.0860     324.8138    1298.0621     -24.7280    2615.0603     -10.1913
    1022.6040      25.4718      48.1920     316.1156    1291.2520     -19.4778    2620.4407      -6.5819
    1022.6802      25.5705      48.4878     312.3493    1283.3380     -14.8960    2625.1309      -7.7200
    1022.7564      25.7037      48.9020     315.1360    1276.5652     -11.6830    2628.4331      -4.1421
    1022.8326      25.8670      49.2087     324.5018    1272.5157     -10.3440    2629.8491      -9.4576
    1022.9088      26.0289      49.2810     338.0849    1271.4321     -10.2392    2630.0271      -2.0518
    1022.9850      26.1657      49.2094     351.0723    1272.0084      -9.6344    2630.7058     -14.7514
    1023.0612      26.2810      49.0767     359.0554    1272.8574      -7.4910    2632.9204     -14.2082
    1023.1374      26.4018      48.9366     360.2620    1273.6351      -4.4803    2635.9888       4.4018
    1023.2136      26.5574      48.8757     356.1772    1275.4617      -2.0633    2638.4424      -8.2233
    1023.2898      26.7544      48.9195     350.7183    1280.7139      -1.0516    2639.4688     -11.5063
    1023.3660      26.9482      48.8902     348.3205    1292.0840      -1.3253    2639.1934     -11.1405
    1023.4422      27.0568      48.6176     350.9614    1310.7480      -2.9131    2637.5938      -9.5032
    1023.5184      27.0091      47.9725     357.4882    1335.7820      -6.7515    2633.7410     -20.4290
    1023.5946      26.7995      47.0185     364.6754    1364.6389     -13.0867    2627.4009      -3.1419
    1023.6708      26.4964      45.9468     369.7492    1393.3844     -19.9273    2620.5796      -6.7614
    1023.7470      26.2121      44.9016     371.9286    1417.6995     -23.2299    2617.3276     -10.5865
    1023.8232      26.0406      44.0846     372.5916    1434.6149     -19.7075    2620.9216     -17.6504
    1023.8994      26.0181      43.7459     373.5771    1443.1921      -9.0734    2631.6240     -11.8493
    1023.9756      26.1165      43.9520     376.3580    1444.4733       5.1404    2645.8728      -0.4457
    1024.0518      26.2674      44.4238     380.9126    1441.3064      17.7543    2658.4722     -11.0315
    1024.1280      26.4017      44.7134     386.9240    1437.0830      25.0405    2665.6968     -14.7001
    1024.2042      26.5043      44.5049     394.2860    1434.3425      26.4000    2666.9656     -14.4130
    1024.2804      26.6352      43.6908     402.3618    1434.1151      23.6172    2664.0830      -2.4814
    1024.3566      26.8777      42.4018     410.0721    1435.6086      18.9529    2659.3262      -8.2394
    1024.4328      27.2434      41.0430     415.9893    1436.9636      13.9785    2654.2686     -12.9556
    1024.5090      27.6411      39.9951     419.2540    1436.8929       9.8524    2650.0679      -5.3458
    1024.5852      27.9790      39.4273     420.8793    1435.3904       6.6174    2646.7656     -14.2686
    1024.6614      28.1117      39.3189     422.7566    1433.7039       3.7094    2643.8003     -17.2802
    1024.7376      27.7003      39.5801     426.1530    1434.2283       0.7181    2640.7651      19.5232
    1024.8138      26.5152      40.1280     431.1096    1439.6582      -2.8920    2637.1265       3.3246
    1024.8900      24.7141      40.8664     436.6293    1451.6442      -7.4654    2632.5391     -15.3602
    1024.9662      22.8095      41.5750     440.8047    1469.8285     -12.5210    2627.4844      -4.4679
    1025.0424      21.4349      41.9501     441.3557    1491.2299     -16.6011    2623.4199      -9.7750
    1025.1186      21.0631      41.7766     438.1129    1510.6621     -18.3164    2621.7314     -14.0587
    1025.1948      21.7734      41.0925     432.3936    1522.9075     -17.5369    2622.5410      20.3522
    1025.2710      23.2302      40.1179     426.3017    1524.9075     -15.4410    2624.6636      -3.5019
    1025.3472      24.8450      39.2572     421.7707    1517.3810     -13.1563    2626.9697     567.6088
    1025.4234      26.2039      38.8427     419.6882    1505.3015     -10.0085    2630.1328     141.5760
    1025.4996      27.3893      38.8911     420.0190    1496.1639      -4.5877    2635.5576     -36.8388
    1025.5758      28.8903      39.1553     423.1786    1496.4080       2.8769    2643.0046       4.7115
    1025.6520      30.9830      39.4486     430.0482    1508.5782      10.8573    2650.9387     -11.6699
    1025.7282      33.4544      39.7191     440.6688    1530.3525      17.0269    2657.0312      -0.4969
    1025.8044      35.7974      40.0658     454.4861    1555.9509      18.9528    2658.8560      13.9778
    1025.8806      37.5160      40.5635     469.8094    1578.6995      15.1711    2654.9724       0.2084
    1025.9568      38.3248      41.1242     483.1100    1594.0875       5.6769    2645.4109      -3.1506
    1026.0330      38.2385      41.5330     490.8178    1601.3430      -7.2010    2632.5334     -11.1728
    1026.1092      37.4996      41.6019     491.3537    1603.3212     -18.9420    2620.8716      -2.5584
    1026.1854      36.4702      41.2422     485.6670    1604.6379     -24.2361    2615.7170     -32.3076
    1026.2616      35.3843      40.6591     477.1008    1609.2388     -20.0390    2620.0732      13.2891
    1026.3378      34.3041      40.2836     469.9393    1617.9792      -8.2497    2631.9995      -4.0716
    1026.4140      33.3092      40.4380     467.0844    1628.3411       4.9654    2645.3025     -13.5200
    1026.4902      32.5668      41.1395     468.2618    1635.4996      13.4969    2653.8735     -27.3478
    1026.5664      32.1590      42.0585     471.0081    1634.1228      14.3431    2654.7305       0.0609
    1026.6426      32.0389      42.7734     471.6378    1620.2568       8.3013    2648.6965      -3.8632
    1026.7188      32.1150      43.1291     466.8445    1592.9619      -2.0379    2638.3811      -8.4340
    1026.7950      32.3258      43.2431     455.6519    1554.2931     -12.8996    2627.5679     -11.2017
    1026.8712      32.6653      43.3617     438.5829    1508.4296     -20.4627    2620.0791      -3.3919
    1026.9474      33.1558      43.6668     417.5258    1460.6815     -22.2489    2618.3875     -24.7811
    1027.0236      33.7969      44.2151     395.4830    1416.6938     -19.0853    2621.6533       9.0994
    1027.0998      34.5602      44.8304     375.5806    1381.6514     -14.1763    2626.6582      -0.6095
    1027.1760      35.3986      45.1895     360.4900    1359.4734     -10.2183    2630.6975     -17.6504
    1027.2522      36.2384      45.1181     352.2329    1351.6931      -7.7973    2633.1873     -18.9331
    1027.3284      36.9919      44.7155     351.3028    1356.8333      -7.0089    2634.0356       6.2245
    1027.4046      37.5798      44.1992     357.0278    1371.1847      -8.4858    2632.6172     -12.4417
    1027.4808      37.9714      43.7043     367.5660    1390.2080     -12.4868    2628.6833      -5.8830
    1027.5570      38.1962      43.1725     380.6003    1410.0894     -17.8272    2623.4312      -8.7290
    1027.6332      38.3250      42.6327     394.4328    1429.3169     -22.7211    2618.6519     -10.5321
    1027.7094      38.4304      42.3172     408.3669    1449.3641     -26.5043    2615.0049      -8.2672
    1027.7856      38.5481      42.3992     422.2079    1473.4358     -30.4648    2611.1934      -0.5513
    1027.8618      38.6443      42.8315     436.5497    1504.3389     -36.3968    2605.4209       1.1026
    1027.9380      38.6399      43.3145     452.6952    1543.1782     -44.2063    2597.7874     -10.3938
