~Version Information
 VERS.                2.00:   CWLS log ASCII Standard -VERSION 2.00
 WRAP.                  NO:   One line per frame      
~Well Information Block
#MNEM.UNIT                     Data                     Description
#----.----   ----------------------------------------   -------------------------------
 STRT.M                                      940.0032 : Starting Depth
 STOP.M                                     2179.5486 : Ending Depth
 STEP.M                                        0.0762 : Level Spacing
 NULL.                                      -999.2500 : Absent Value
 COMP.       PANAMERICAN ENERGY LLC                   : Company
 WELL.       PAE.Ch.PCD-1295(d)                       : Well
 FLD .       CERRO DRAGON                             : Field
 LOC .                                                : Location
 PROV.                                                : Province
 CTRY.                                                : Country
 SRVC.       Baker Hughes                             : Service Company
 DATE.       15-Oct-2021                              : Log Date
 UWI .                                                : Unique Well ID
 LIC .                                                : License Number
 EKB .                                          549.4 : KB
 EGL .                                          546.0 : GL
 APD .                                            3.4 : MESA
 FL1 .                      X: 5.764,35               :X(N)
 FL2 .                      Y:2.450.000,04            :Y(N)
 FL3 .                      Y:546,0                   :Z  (N)
 RIG .                                        DLS-336 : EQUIPO
~Curve Information Block
#MNEM    .UNIT        API Codes     Curve Description
#--------.--------   LG--CV-CL--M   ---------------------------------------------------
 DEPT    .M          99 995 99  1 : Depth
 CBL     .MV         81 524 99  1 : Waveform, 12-bit data with 4-bit gain code
 GR      .GAPI       30 310  1  1 : Gamma ray
 LSN     .CPS        42 334 31  1 : Long space neutron
 SSN     .CPS        42 334 30  1 : Short space count rate
 TEN     .LBF        99 635 99  1 : Differential tension
 TTEN    .LBF        99 635 99  1 : Total tension
 WCCL    .V          99 150 99  1 : Wireline telemetry casing collar locator
~Parameter Information Block
#MNEM.UNIT                     Value                    Description
#----.----   ----------------------------------------   -------------------------------
 APIN.                                                : API Serial Number
 STAT.                                                : State Or Province
 LATI.DEG    0.0000                                   : Latitude
 LONG.DEG    0.0000                                   : Longitude
~Other information
#  Curve Data
~A   DEPT         CBL          GR           LSN          SSN          TEN          TTEN         WCCL      
# ...
    1186.4340      12.7205      44.0842     361.5474    1338.8622     -33.6219    2938.4336     -26.6552
    1186.5102      12.4034      44.3874     353.6491    1328.1440     -27.0343    2945.1768      27.7583
    1186.5864      11.8688      44.9562     343.7679    1316.1532     -21.1055    2951.2109      12.3013
    1186.6626      11.1980      45.5190     334.3718    1304.9396     -22.6458    2949.7197       8.3003
    1186.7388      10.4954      45.8733     327.4479    1294.9976     -30.3952    2942.0027     -11.2818
    1186.8150       9.8908      45.8763     323.7460    1285.3224     -35.0552    2937.3987     -21.4216
    1186.8912       9.4776      45.4368     322.5718    1273.6094     -27.4728    2945.0625     -20.4724
    1186.9674       9.2778      44.7373     322.1655    1258.0736      -7.9849    2964.6196      21.4729
    1187.0436       9.1729      44.2183     320.4628    1239.1671      11.5448    2984.1599    -511.8100
    1187.1198       8.9709      44.2974     316.2593    1220.2092      17.9271    2990.4888      94.6656
    1187.1960       8.5623      45.0687     309.9709    1206.1501       6.7769    2979.2666      -8.2897
    1187.2722       8.1084      46.1741     303.6085    1201.9722     -13.2704    2959.1921       1.1477
    1187.3484       7.7891      47.0369     299.9806    1209.9297     -26.8092    2945.7053     -67.0356
    1187.4246       7.6899      47.2581     301.4115    1228.1614     -24.7371    2947.8892      48.3846
    1187.5008       7.7861      46.8691     308.5097    1251.6973     -11.9068    2960.8389       0.9428
    1187.5770       7.9599      46.2495     319.9579    1275.3256      -1.9480    2970.8931      13.6483
    1187.6532       8.0562      46.0257     333.0678    1295.7832      -5.6173    2967.3042      -8.6690
    1187.7294       7.9951      46.5062     345.2973    1312.9760     -20.6724    2952.3486      -9.5666
    1187.8056       7.8143      47.4616     354.9453    1328.8801     -35.2972    2937.8604     -20.7289
    1187.8818       7.6568      48.2892     362.1575    1345.4670     -39.8001    2933.5151     -15.6162
    1187.9580       7.6533      48.5374     368.0525    1362.8591     -33.7745    2939.6853      26.6243
    1188.0342       7.8204      48.1054     373.9143    1378.7996     -25.5969    2947.9810       5.0751
    1188.1104       8.0449      47.3557     380.7952    1389.3823     -24.5081    2949.1829       4.9596
    1188.1866       8.2229      46.7027     388.7830    1391.0123     -31.7582    2942.0806      -9.5891
    1188.2628       8.2996      46.3581     396.0503    1381.8696     -40.8574    2933.1838     -39.5081
    1188.3390       8.2844      46.2976     399.5079    1362.7246     -44.9158    2929.3589      -0.2885
    1188.4152       8.2555      46.4410     396.2683    1336.7966     -43.5958    2930.8916      11.2305
    1188.4914       8.3191      46.7129     385.7570    1308.5779     -42.6941    2931.9600      26.5987
    1188.5676       8.5638      47.1499     370.0720    1282.1311     -46.2190    2928.5798       0.7761
    1188.6438       9.0220      47.8008     352.2705    1260.3282     -50.7039    2924.2678     -18.2274
    1188.7200       9.6496      48.5116     335.1737    1244.3699     -48.0490    2927.1499      -1.6286
    1188.7962      10.3513      48.9223     320.7015    1233.8644     -34.6535    2940.8010     -48.9989
    1188.8724      11.0229      48.7918     309.7465    1227.6438     -16.7525    2958.9250       4.0075
    1188.9486      11.5854      48.1508     302.5196    1224.5417      -6.1944    2969.6328      10.5284
    1189.0248      12.0067      47.1883     298.7702    1223.4236     -11.0561    2964.8589      -4.5076
    1189.1010      12.2983      46.2270     298.2256    1223.5828     -27.6843    2948.3120      -9.6179
    1189.1772      12.4711      45.5157     300.1982    1224.5909     -42.2865    2933.8376      -5.8156
    1189.2534      12.5199      45.0956     302.9821    1225.9216     -43.1721    2933.1311     -27.3411
    1189.3296      12.4546      44.8163     305.1112    1227.1034     -31.0332    2945.4551       6.4985
    1189.4058      12.3065      44.4338     306.5146    1228.0787     -18.1903    2958.4438     -28.1091
    1189.4820      12.1216      43.8013     308.3085    1229.0844     -18.0666    2958.6692      10.8138
    1189.5582      11.9619      43.0106     311.8916    1230.9321     -31.9038    2944.9265      26.3217
    1189.6344      11.8742      42.3463     317.7815    1235.2061     -47.5276    2929.4312     -30.0547
    1189.7106      11.8325      42.0077     325.5664    1243.6450     -51.2194    2925.9038     -17.2290
    1189.7868      11.7547      41.9786     334.7319    1257.1284     -38.4830    2938.8008     -22.2210
    1189.8630      11.5497      42.2519     345.0458    1275.3054     -17.2738    2960.1240      -5.5816
    1189.9392      11.1745      42.7972     356.1257    1296.6671      -1.4147    2976.0396     -10.4511
    1190.0154      10.6713      43.5089     367.0984    1319.0027       0.8871    2978.3679      18.9698
    1190.0916      10.1524      44.2606     377.3557    1340.3994      -8.2522    2969.2681     -14.1100
    1190.1678       9.6989      44.9043     385.8503    1359.7544     -20.1964    2957.3977     -25.8819
    1190.2440       9.3213      45.2772     390.8797    1376.6667     -27.4772    2950.2148     -15.3928
    1190.3202       8.9803      45.2687     392.2072    1391.2792     -29.7769    2948.0200      -8.1496
    1190.3964       8.6266      44.8026     391.0811    1403.6892     -30.9916    2946.9185      10.7689
    1190.4726       8.2297      44.0089     389.3377    1413.5027     -32.8226    2945.2297      -4.4146
    1190.5488       7.7992      43.2124     389.2406    1420.6240     -32.7283    2945.5105     -16.1794
    1190.6250       7.3693      42.7087     392.9236    1426.0303     -28.2053    2950.2456     -19.9682
    1190.7012       6.9880      42.5029     400.5012    1431.4597     -21.4185    2957.2224     -26.3427
    1190.7774       6.6985      42.4080     410.1732    1438.8052     -18.0577    2960.7166      -4.3794
    1190.8536       6.5208      42.2189     418.9800    1449.3910     -21.9908    2956.8635      -2.4237
    1190.9298       6.4421      41.8978     424.7828    1463.3328     -31.1264    2947.7947       8.5654
    1191.0060       6.4496      41.5478     427.2744    1479.2455     -37.0997    2941.9192      -2.0486
    1191.0822       6.5502      41.3016     428.8027    1494.9537     -32.3722    2946.7876     -14.2383
    1191.1584       6.7478      41.1630     432.1182    1508.2207     -17.6553    2961.6570      -9.0505
    1191.2346       7.0208      41.0193     438.5639    1517.7849      -2.8762    2976.5596     -21.6834
    1191.3108       7.3285      40.7469     446.9643    1523.8687      -0.0112    2979.5056     -12.1603
    1191.3870       7.6159      40.3670     454.2866    1527.5127     -11.1676    2968.4141      21.6834
    1191.4632       7.8198      40.0734     456.6221    1529.4802     -25.6577    2954.0122      -1.5549
    1191.5394       7.8870      40.0716     453.0269    1530.6315     -30.1327    2949.6555     -18.0096
    1191.6156       7.8129      40.3888     445.7459    1532.0029     -19.2655    2960.6387     -13.3377
    1191.6918       7.6505      40.9062     438.9727    1534.9198      -0.1598    2979.8174     -27.7583
    1191.7680       7.4800      41.3451     436.0717    1541.1721      13.4480    2993.4434      14.5666
    1191.8442       7.3630      41.4600     439.2562    1552.8750      13.1291    2993.1177       1.0577
    1191.9204       7.3140      41.2346     448.2190    1571.3477       1.7893    2981.7954       7.7798
    1191.9966       7.3314      40.7898     460.2120    1596.2092      -7.7459    2972.3284      -3.7071
    1192.0728       7.4349      40.1723     472.3722    1625.2843      -4.4250    2975.7446      -9.9391
    1192.1490       7.6468      39.3802     484.1931    1655.6101      10.2973    2990.5332     -23.8083
    1192.2252       7.9765      38.4800     497.7962    1684.2699      23.3604    3003.5972     -36.9683
