~Version Information
 VERS.                2.00:   CWLS log ASCII Standard -VERSION 2.00
 WRAP.                  NO:   One line per frame      
~Well Information Block
#MNEM.UNIT                     Data                     Description
#----.----   ----------------------------------------   -------------------------------
 STRT.M                                      940.0032 : Starting Depth
 STOP.M                                     2179.5486 : Ending Depth
 STEP.M                                        0.0762 : Level Spacing
 NULL.                                      -999.2500 : Absent Value
 COMP.       PANAMERICAN ENERGY LLC                   : Company
 WELL.       PAE.Ch.PCD-1295(d)                       : Well
 FLD .       CERRO DRAGON                             : Field
 LOC .                                                : Location
 PROV.                                                : Province
 CTRY.                                                : Country
 SRVC.       Baker Hughes                             : Service Company
 DATE.       15-Oct-2021                              : Log Date
 UWI .                                                : Unique Well ID
 LIC .                                                : License Number
 EKB .                                          549.4 : KB
 EGL .                                          546.0 : GL
 APD .                                            3.4 : MESA
 FL1 .                      X: 5.764,35               :X(N)
 FL2 .                      Y:2.450.000,04            :Y(N)
 FL3 .                      Y:546,0                   :Z  (N)
 RIG .                                        DLS-336 : EQUIPO
~Curve Information Block
#MNEM    .UNIT        API Codes     Curve Description
#--------.--------   LG--CV-CL--M   ---------------------------------------------------
 DEPT    .M          99 995 99  1 : Depth
 CBL     .MV         81 524 99  1 : Waveform, 12-bit data with 4-bit gain code
 GR      .GAPI       30 310  1  1 : Gamma ray
 LSN     .CPS        42 334 31  1 : Long space neutron
 SSN     .CPS        42 334 30  1 : Short space count rate
 TEN     .LBF        99 635 99  1 : Differential tension
 TTEN    .LBF        99 635 99  1 : Total tension
 WCCL    .V          99 150 99  1 : Wireline telemetry casing collar locator
~Parameter Information Block
#MNEM.UNIT                     Value                    Description
#----.----   ----------------------------------------   -------------------------------
 APIN.                                                : API Serial Number
 STAT.                                                : State Or Province
 LATI.DEG    0.0000                                   : Latitude
 LONG.DEG    0.0000                                   : Longitude
~Other information
#  Curve Data
~A   DEPT         CBL          GR           LSN          SSN          TEN          TTEN         WCCL      
# ...
    1919.8590      25.0097      66.5712     530.0396    1639.3152      -9.1649    4213.3149      18.8305
    1919.9352      28.8212      63.3162     551.5507    1674.7740      10.6638    4232.9834     -36.4292
    1920.0114      32.8966      59.1313     577.8741    1712.6393      25.3131    4247.3657      10.1341
    1920.0876      37.9185      54.4323     605.0932    1748.9221      32.1747    4253.9009      14.5922
    1920.1638      44.4611      49.9632     628.3075    1780.0146      31.3107    4252.7178     -38.0458
    1920.2400      52.5108      46.4324     644.2516    1803.6057      24.8811    4246.0444      20.3698
    1920.3162      61.2580      44.2091     652.3650    1818.9207      16.8587    4237.8906     -20.1645
    1920.3924      69.3440      43.0407     654.7878    1827.2147       9.0890    4230.1011      -6.6716
    1920.4686      75.4280      42.2839     656.2330    1831.1030       5.5854    4226.6655       2.0684
    1920.5448      78.7600      41.3888     661.4510    1833.4414       9.7451    4230.9385     -38.5333
    1920.6210      79.4294      40.2454     671.7526    1836.4065      21.2751    4242.5811       8.9695
    1920.6972      78.1997      39.2884     684.8602    1841.3774      37.4130    4258.7910      -7.4090
    1920.7734      76.0335      39.1636     697.0743    1849.0308      52.2453    4273.6328     -46.9509
    1920.8496      73.6746      40.1787     704.3923    1859.3904      60.1348    4281.4692      30.2851
    1920.9258      71.4706      41.9910     704.9711    1871.7178      57.1872    4278.4287      -0.2212
    1921.0020      69.5277      43.8165     699.6318    1883.9966      41.7125    4262.8608       6.0096
    1921.0782      67.9366      44.9709     691.8035    1893.2356      18.6973    4239.8013      -5.5303
    1921.1544      66.7957      45.1912     685.3400    1896.5283      -3.9044    4217.2349     -29.0667
    1921.2306      66.1092      44.7754     682.7550    1892.5388     -18.4770    4202.7769      14.7258
    1921.3068      65.7089      44.2826     683.4700    1882.1389     -20.7072    4200.7129     -26.3217
    1921.3830      65.3036      44.1564     685.6113    1868.7303     -12.2661    4209.3228     -15.2645
    1921.4592      64.5930      44.4166     687.8127    1856.7271       2.1887    4223.9058       1.0259
    1921.5354      63.3622      44.8883     689.9750    1849.4331      13.8543    4235.6284     -19.8567
    1921.6116      61.5323      45.3136     692.6428    1847.4055      14.2400    4236.0015      35.6599
    1921.6878      59.1612      45.6020     696.1552    1848.7358      -0.3014    4221.4102     -11.2654
    1921.7640      56.4265      45.7511     700.0138    1850.4309     -29.1263    4192.5537     -32.3761
    1921.8402      53.5915      45.7225     703.8893    1850.3699     -65.0373    4156.6860       9.2140
    1921.9164      50.9261      45.3975     708.1412    1848.4404     -97.0457    4124.8301     -19.3538
    1921.9926      48.5974      44.7540     713.0957    1846.2782    -116.3700    4105.7603      12.7504
    1922.0688      46.6251      43.9372     717.9889    1846.1504    -116.3367    4106.1025     -12.2881
    1922.1450      44.8909      43.2179     721.2025    1849.6108     -96.8062    4125.9180     -54.4648
    1922.2212      43.1914      42.7334     721.4896    1856.5812     -64.0444    4158.8643      50.6936
    1922.2974      41.3299      42.4791     717.5980    1865.0520     -28.7142    4194.2314     -21.4530
    1922.3736      39.2288      42.2525     709.8615    1872.0608      -1.2681    4221.5718     -35.9428
    1922.4498      36.9644      41.8232     700.6072    1874.9912      13.7641    4236.4185      20.7618
    1922.5260      34.7194      41.1630     693.3048    1872.8068      15.4495    4237.9238      -8.2939
    1922.6022      32.7055      40.4912     690.1029    1866.3428       6.4978    4228.8711      26.0651
    1922.6784      31.0755      40.1746     690.6956    1858.0537      -5.8465    4216.5503     -10.5861
    1922.7546      29.8380      40.3859     693.5122    1850.7841     -14.8161    4207.7236     -47.8725
    1922.8308      28.8604      41.0589     696.5633    1846.7368     -13.1973    4209.5596      30.4007
    1922.9070      27.9448      41.9801     697.9553    1846.7349       3.0225    4226.0005      -4.2736
    1922.9832      26.9309      42.8905     696.7947    1850.1852      31.2528    4254.3877     -31.8374
    1923.0594      25.7786      43.6548     693.7526    1855.4973      63.7272    4286.9077       1.4780
    1923.1356      24.5597      44.2675     690.9875    1860.9797      90.1877    4313.2969       8.3067
    1923.2118      23.3953      44.7411     690.8770    1865.4932     101.5457    4324.5000      15.0336
    1923.2880      22.3911      45.0946     694.3165    1868.5776      94.0389    4316.8105     -33.3767
    1923.3642      21.5826      45.3001     700.8829    1870.1279      71.2624    4293.8877     -26.2659
    1923.4404      20.9090      45.3564     709.4817    1870.1521      44.7788    4267.3398       6.2452
    1923.5166      20.2293      45.2661     718.5769    1868.9498      25.7871    4248.3672     -18.5090
    1923.5928      19.3954      45.0981     724.8086    1866.9758      21.4181    4244.0610       5.1873
    1923.6690      18.3163      44.9257     724.4028    1864.2581      31.4880    4254.1758     -20.5494
    1923.7452      16.9912      44.8280     715.3900    1860.3198      46.5474    4269.2065     -46.4092
    1923.8214      15.5156      44.9139     698.8600    1854.4124      54.9136    4277.4521      52.0198
    1923.8976      14.0462      45.3090     678.5957    1845.7745      48.2278    4270.5840     -19.4206
    1923.9738      12.7382      46.0412     660.6429    1834.3987      23.0561    4245.2349     -19.0870
    1924.0500      11.6827      47.1349     650.2507    1821.8346     -15.2007    4206.8828      -1.1545
    1924.1262      10.8732      48.5175     649.5249    1811.0580     -54.8800    4167.2383       5.2642
    1924.2024      10.2384      49.9737     656.8238    1805.2192     -82.4166    4139.8613      23.3970
    1924.2786       9.6979      51.2229     668.0376    1805.9487     -88.1940    4134.3115     -37.7123
    1924.3548       9.2100      52.0704     678.3193    1812.5071     -71.2766    4151.4312     -60.3655
    1924.4310       8.7781      52.5512     685.0508    1822.2336     -38.6559    4184.1465      26.3473
    1924.5072       8.4189      52.8433     688.3019    1832.2372      -3.8216    4218.9258       0.2917
    1924.5834       8.1320      53.1979     689.0917    1840.6345      19.0549    4241.6211     -13.6193
    1924.6596       7.8935      53.8294     688.7577    1847.1882      21.5885    4243.9272      -7.5136
    1924.7358       7.6667      54.8181     688.3170    1852.9419       1.7198    4223.8862      17.7154
    1924.8120       7.4232      56.0262     688.8354    1859.3054     -31.6845    4190.4473      -1.9749
    1924.8882       7.1611      57.0521     690.8848    1867.1912     -62.9524    4159.3125     -27.5203
    1924.9644       6.9073      57.5740     694.9976    1876.9196     -78.9426    4143.5859     -13.4174
    1925.0406       6.6946      57.5693     701.1027    1888.4485     -73.6508    4149.1890     -18.2786
    1925.1168       6.5376      57.1429     709.3644    1901.7158     -51.8059    4171.2969     -21.0111
    1925.1930       6.4258      56.4824     719.7404    1916.3418     -25.3347    4197.9282      43.1511
    1925.2692       6.3369      55.8289     731.2385    1931.2552      -5.9012    4217.4268     -53.7465
    1925.3454       6.2540      55.4118     742.4081    1944.8936      -0.5114    4222.8428     630.7192
    1925.4216       6.1713      55.3756     752.9652    1955.8450      -6.5027    4216.9175       3.8536
    1925.4978       6.0977      55.7768     762.0427    1963.2521     -14.1952    4209.3784     -55.9014
    1925.5740       6.0619      56.6134     768.4573    1967.2343     -12.3551    4211.4536      17.1116
    1925.6502       6.1046      57.7434     770.8846    1969.1072       6.0319    4230.0981      -9.6724
