~Version Information
 VERS.                2.00:   CWLS log ASCII Standard -VERSION 2.00
 WRAP.                  NO:   One line per frame      
~Well Information Block
#MNEM.UNIT                     Data                     Description
#----.----   ----------------------------------------   -------------------------------
 STRT.M                                      940.0032 : Starting Depth
 STOP.M                                     2179.5486 : Ending Depth
 STEP.M                                        0.0762 : Level Spacing
 NULL.                                      -999.2500 : Absent Value
 COMP.       PANAMERICAN ENERGY LLC                   : Company
 WELL.       PAE.Ch.PCD-1295(d)                       : Well
 FLD .       CERRO DRAGON                             : Field
 LOC .                                                : Location
 PROV.                                                : Province
 CTRY.                                                : Country
 SRVC.       Baker Hughes                             : Service Company
 DATE.       15-Oct-2021                              : Log Date
 UWI .                                                : Unique Well ID
 LIC .                                                : License Number
 EKB .                                          549.4 : KB
 EGL .                                          546.0 : GL
 APD .                                            3.4 : MESA
 FL1 .                      X: 5.764,35               :X(N)
 FL2 .                      Y:2.450.000,04            :Y(N)
 FL3 .                      Y:546,0                   :Z  (N)
 RIG .                                        DLS-336 : EQUIPO
~Curve Information Block
#MNEM    .UNIT        API Codes     Curve Description
#--------.--------   LG--CV-CL--M   ---------------------------------------------------
 DEPT    .M          99 995 99  1 : Depth
 CBL     .MV         81 524 99  1 : Waveform, 12-bit data with 4-bit gain code
 GR      .GAPI       30 310  1  1 : Gamma ray
 LSN     .CPS        42 334 31  1 : Long space neutron
 SSN     .CPS        42 334 30  1 : Short space count rate
 TEN     .LBF        99 635 99  1 : Differential tension
 TTEN    .LBF        99 635 99  1 : Total tension
 WCCL    .V          99 150 99  1 : Wireline telemetry casing collar locator
~Parameter Information Block
#MNEM.UNIT                     Value                    Description
#----.----   ----------------------------------------   -------------------------------
 APIN.                                                : API Serial Number
 STAT.                                                : State Or Province
 LATI.DEG    0.0000                                   : Latitude
 LONG.DEG    0.0000                                   : Longitude
~Other information
#  Curve Data
~A   DEPT         CBL          GR           LSN          SSN          TEN          TTEN         WCCL      
# ...
    1104.2904       2.6124      50.4576     495.7747    1645.0649     -18.5384    2800.8230     -25.3468
    1104.3666       2.3990      50.4862     499.7636    1652.8943     -27.7701    2791.6843     -20.4467
    1104.4428       2.1620      49.8929     506.3569    1665.7996     -34.0975    2785.4751       1.1801
    1104.5190       1.9159      48.9672     515.1154    1682.2749     -33.7381    2785.9590       9.7782
    1104.5952       1.6803      48.0742     525.7584    1701.1013     -28.4962    2791.3115      -1.4263
    1104.6714       1.4811      47.4386     536.9521    1720.8486     -23.3522    2796.5471     -19.7284
    1104.7476       1.3646      47.0710     546.7435    1739.4478     -21.1558    2798.8284     -29.2206
    1104.8238       1.3863      46.8113     555.3534    1754.2462     -19.9842    2800.0913     -16.3933
    1104.9000       1.5705      46.5052     563.3058    1761.9536     -16.1059    2804.0640       5.0206
    1104.9762       1.8883      46.0900     569.8328    1759.4757      -8.8462    2811.3999      -6.4152
    1105.0524       2.2680      45.6476     572.3887    1744.8740      -1.2834    2819.0027      -2.7162
    1105.1286       2.6260      45.3710     567.3099    1717.9465       3.4320    2823.7236     -10.8679
    1105.2048       2.9044      45.3346     552.0739    1680.1825       4.1759    2824.4580     -21.7858
    1105.2810       3.0957      45.4035     528.1594    1634.1139       2.2699    2822.5498      -4.5461
    1105.3572       3.2338      45.2677     500.4604    1582.4602      -0.3793    2819.9153      -0.8400
    1105.4334       3.3655      44.7901     473.8073    1528.2140      -3.6663    2816.6577       1.5265
    1105.5096       3.5273      44.0769     451.2026    1474.9546      -8.4837    2811.8811     -11.5969
    1105.5858       3.7551      43.2440     433.4003    1426.1453     -14.2765    2806.1450     -16.6658
    1105.6620       4.1073      42.2982     418.5425    1384.1288     -18.6428    2801.8523     -11.3588
    1105.7382       4.6512      41.2489     404.5815    1349.6400     -18.7575    2801.8162      -0.5354
    1105.8144       5.4157      40.2922     390.3328    1321.4241     -14.4534    2806.1812      -3.4057
    1105.8906       6.3549      39.7498     376.1184    1296.6171      -9.8770    2810.7852      -2.9655
    1105.9668       7.3511      39.8437     363.0030    1272.3181     -10.7203    2809.9448       1.4651
    1106.0430       8.2626      40.5625     351.2227    1246.9231     -18.4153    2802.2615     -14.5666
    1106.1192       8.9915      41.6247     340.2330    1220.3826     -28.0230    2792.7083     -12.4690
    1106.1954       9.5357      42.6049     329.9668    1194.0574     -32.9856    2787.8538      -3.4528
    1106.2716       9.9769      43.1592     320.5844    1170.0502     -31.3080    2789.6731     -15.1810
    1106.3478      10.4217      43.2607     312.0406    1149.9209     -27.4125    2793.7153      -6.6574
    1106.4240      10.9265      43.2783     304.0752    1134.1279     -28.0478    2793.2227      -1.7088
    1106.5002      11.4563      43.6545     296.4732    1122.3556     -34.8222    2786.6045     -16.4446
    1106.5764      11.9218      44.5288     288.8051    1114.0531     -41.9453    2779.6719      -6.4472
    1106.6526      12.2450      45.7138     281.4582    1108.5372     -41.7222    2780.1143     -19.1127
    1106.7288      12.4006      46.9335     275.3465    1105.1810     -31.0893    2790.9583      -7.7200
    1106.8050      12.4281      47.9983     270.7104    1103.4958     -15.4234    2806.7874      -1.0516
    1106.8812      12.4139      48.7911     267.6168    1103.3162      -4.8590    2817.4561      -6.8736
    1106.9574      12.4383      49.2851     265.9404    1104.7509      -5.5404    2816.8469       0.0289
    1107.0336      12.5216      49.4405     265.3039    1107.9572     -14.2505    2808.2202     -21.9650
    1107.1098      12.6180      49.1656     266.0128    1113.3744     -22.3654    2800.2222     -13.0326
    1107.1860      12.6455      48.3426     268.8500    1122.1854     -24.6465    2798.0801       5.0815
    1107.2622      12.5189      46.9193     274.2578    1135.7573     -23.4414    2799.4209      -8.1849
    1107.3384      12.1966      45.0100     282.6032    1154.5114     -25.5145    2797.4707      -8.3708
    1107.4146      11.7042      42.9257     293.9809    1177.4836     -34.9888    2788.1235      -8.5664
    1107.4908      11.1132      41.0246     307.8773    1202.2485     -48.2871    2774.9790      -4.8763
    1107.5670      10.5019      39.5389     322.5014    1225.7106     -58.4759    2764.9751     -13.8242
    1107.6432       9.9273      38.5882     335.4943    1244.9890     -62.1349    2761.5146      -5.2482
    1107.7194       9.4182      38.1634     344.9031    1258.4695     -61.6943    2762.1487      -9.9930
    1107.7956       8.9839      38.1872     349.7536    1266.2896     -62.6203    2761.4172       1.9049
    1107.8718       8.6220      38.6228     350.3326    1269.8525     -67.3608    2756.8994     -15.8546
    1107.9480       8.3264      39.4959     347.7678    1269.9753     -71.5765    2752.9600      -3.7157
    1108.0242       8.0893      40.7020     343.2887    1266.0148     -69.1414    2755.7168     -19.5074
    1108.1004       7.9090      42.0188     337.5483    1256.4265     -59.7839    2765.3979       6.4023
    1108.1766       7.7945      43.0670     330.1437    1240.0216     -50.2858    2775.1792      -4.7724
    1108.2528       7.7558      43.5053     320.7963    1217.4760     -47.5556    2778.1450     -11.1474
    1108.3290       7.7927      43.2168     310.3884    1192.3518     -52.3808    2773.5352     -11.4005
    1108.4052       7.8998      42.3845     301.6069    1170.1482     -58.8764    2767.2676      -8.1752
    1108.4814       8.0680      41.3321     297.9910    1156.0616     -60.2929    2766.0964      -6.3126
    1108.5576       8.2754      40.4451     301.2116    1153.1558     -55.9859    2770.6421     -12.2276
    1108.6338       8.4933      39.9990     310.5761    1161.3608     -52.1944    2774.6396      -3.7157
    1108.7100       8.7163      39.9989     323.2807    1177.9397     -54.7337    2772.2778      -5.9920
    1108.7862       8.9382      40.3326     336.1260    1198.9275     -62.8229    2764.3687      -8.7949
    1108.8624       9.1274      40.8269     347.0031    1220.5983     -69.2236    2758.1790     -15.5394
    1108.9386       9.2230      41.2708     355.7000    1240.3478     -66.4881    2761.1558      -5.9695
    1109.0148       9.1532      41.4892     362.5159    1256.9674     -54.8892    2772.9954     -15.7776
    1109.0910       8.8668      41.4020     367.7932    1269.8401     -42.5030    2785.5918      -1.5389
    1109.1672       8.3718      41.0935     370.6777    1278.4172     -37.7320    2790.5408      -8.0470
    1109.2434       7.7412      40.8009     369.6205    1282.3997     -41.6371    2786.8076     -11.4966
    1109.3196       7.0859      40.7072     364.3754    1281.6370     -47.8222    2780.8154     -10.4771
    1109.3958       6.5152      40.8159     356.9669    1276.1282     -49.3288    2779.5244     -13.5713
    1109.4720       6.1162      41.0631     349.8181    1266.4138     -44.7969    2784.2734      -5.2468
    1109.5482       5.9445      41.4252     344.1688    1253.8435     -39.1025    2790.1626      -2.2730
    1109.6244       6.0409      41.9293     340.1674    1240.5125     -38.5591    2790.8777     -11.8012
    1109.7006       6.4329      42.5808     337.3283    1228.9758     -44.1634    2785.4446      -9.6942
    1109.7768       7.1260      43.3712     335.2707    1221.1331     -51.0475    2778.7539      -3.3045
    1109.8530       8.0907      44.1225     334.2340    1217.5962     -53.1726    2776.8457     -17.1886
    1109.9292       9.2775      44.6598     334.8623    1217.5239     -48.6917    2781.5471      -3.3246
    1110.0054      10.6217      44.7572     337.1860    1218.7274     -41.1428    2789.3003      16.1538
    1110.0816      12.0614      44.2591     340.2714    1218.0869     -35.2029    2795.4233      -3.0497
