~Version Information
 VERS.                2.00:   CWLS log ASCII Standard -VERSION 2.00
 WRAP.                  NO:   One line per frame      
~Well Information Block
#MNEM.UNIT                     Data                     Description
#----.----   ----------------------------------------   -------------------------------
 STRT.M                                      940.0032 : Starting Depth
 STOP.M                                     2179.5486 : Ending Depth
 STEP.M                                        0.0762 : Level Spacing
 NULL.                                      -999.2500 : Absent Value
 COMP.       PANAMERICAN ENERGY LLC                   : Company
 WELL.       PAE.Ch.PCD-1295(d)                       : Well
 FLD .       CERRO DRAGON                             : Field
 LOC .                                                : Location
 PROV.                                                : Province
 CTRY.                                                : Country
 SRVC.       Baker Hughes                             : Service Company
 DATE.       15-Oct-2021                              : Log Date
 UWI .                                                : Unique Well ID
 LIC .                                                : License Number
 EKB .                                          549.4 : KB
 EGL .                                          546.0 : GL
 APD .                                            3.4 : MESA
 FL1 .                      X: 5.764,35               :X(N)
 FL2 .                      Y:2.450.000,04            :Y(N)
 FL3 .                      Y:546,0                   :Z  (N)
 RIG .                                        DLS-336 : EQUIPO
~Curve Information Block
#MNEM    .UNIT        API Codes     Curve Description
#--------.--------   LG--CV-CL--M   ---------------------------------------------------
 DEPT    .M          99 995 99  1 : Depth
 CBL     .MV         81 524 99  1 : Waveform, 12-bit data with 4-bit gain code
 GR      .GAPI       30 310  1  1 : Gamma ray
 LSN     .CPS        42 334 31  1 : Long space neutron
 SSN     .CPS        42 334 30  1 : Short space count rate
 TEN     .LBF        99 635 99  1 : Differential tension
 TTEN    .LBF        99 635 99  1 : Total tension
 WCCL    .V          99 150 99  1 : Wireline telemetry casing collar locator
~Parameter Information Block
#MNEM.UNIT                     Value                    Description
#----.----   ----------------------------------------   -------------------------------
 APIN.                                                : API Serial Number
 STAT.                                                : State Or Province
 LATI.DEG    0.0000                                   : Latitude
 LONG.DEG    0.0000                                   : Longitude
~Other information
#  Curve Data
~A   DEPT         CBL          GR           LSN          SSN          TEN          TTEN         WCCL      
# ...
    1755.5718      57.8157      49.5049     591.3187    1742.8464     -26.1171    3893.2993     -33.9154
    1755.6480      53.7500      48.4386     592.4152    1731.3477     -14.5179    3904.9585       6.1940
    1755.7242      49.3027      47.3234     595.0972    1731.6166      -5.1491    3914.3782     -18.9588
    1755.8004      44.7941      46.6146     599.6216    1744.0051      -1.7948    3917.7832     -17.2912
    1755.8766      40.4289      46.6762     607.1140    1766.1497      -4.6505    3914.9766     -14.1915
    1755.9528      36.2606      47.6023     618.5024    1793.2010      -8.1679    3911.4937      21.3506
    1756.0290      32.2468      49.1546     632.6725    1819.2966      -7.0808    3912.5840     -13.3889
    1756.1052      28.3447      50.9378     646.8963    1839.5422       0.7586    3920.3872     -18.1378
    1756.1814      24.5665      52.6272     658.1473    1851.7014      10.6705    3930.2295       2.1229
    1756.2576      20.9707      54.1819     664.4458    1856.6423      16.6195    3936.0991     -12.6990
    1756.3338      17.6028      55.8903     664.7244    1856.9280      12.5170    3931.9377       3.4368
    1756.4100      14.4955      58.1810     658.9850    1854.6052      -2.2715    3917.1377     -41.3445
    1756.4862      11.6977      61.3494     649.1371    1849.8765     -23.5022    3895.9565      33.2548
    1756.5624       9.2668      65.3584     637.0987    1841.3225     -40.4246    3879.1426     -16.2050
    1756.6386       7.2541      69.6344     624.6593    1827.2646     -44.5632    3875.1504      11.6151
    1756.7148       5.6771      73.3228     613.3115    1807.6338     -32.9201    3886.9485     -18.5346
    1756.7910       4.5043      75.6550     604.8473    1784.8695     -12.0415    3907.9548      23.4499
    1756.8672       3.6647      76.3113     600.8818    1762.8478       7.5074    3927.5784     -19.7284
    1756.9434       3.0810      75.3565     601.5704    1744.9126      14.8002    3934.8838      17.1116
    1757.0196       2.6838      73.3254     604.7062    1732.1417       5.0173    3925.0664     -17.4082
    1757.0958       2.4166      70.9844     607.2242    1722.7561     -17.9359    3902.0654       4.7397
    1757.1720       2.2314      68.9662     606.7574    1713.2939     -41.4406    3878.5415     -31.5139
    1757.2482       2.0935      67.5616     601.5873    1700.7151     -52.2391    3867.7754      21.5755
    1757.3244       1.9868      66.8185     590.9493    1683.8553     -45.1195    3874.9722     -18.9588
    1757.4006       1.9110      66.6382     575.7559    1663.7073     -26.3206    3893.8589      -4.3741
    1757.4768       1.8680      66.9952     557.9392    1642.8870      -8.8742    3911.3687     -27.2643
    1757.5530       1.8569      67.8525     539.5671    1624.2910      -4.2172    3916.0503      11.9038
    1757.6292       1.8700      69.0446     522.5463    1609.9370     -15.9453    3904.3271     -25.9075
    1757.7054       1.8951      70.3308     508.2901    1600.3691     -36.9430    3883.3516      -7.3077
    1757.7816       1.9194      71.4316     497.2586    1594.6447     -54.6906    3865.6753      -3.7029
    1757.8578       1.9399      72.0466     489.5045    1590.6187     -57.8053    3862.6875     -30.0672
    1757.9340       1.9627      71.9032     484.5840    1586.2524     -44.8372    3875.8125      -7.7669
    1758.0102       1.9879      70.9902     481.3409    1580.5596     -22.2347    3898.5603     -10.7593
    1758.0864       2.0072      69.5473     478.6108    1573.9171      -1.3053    3919.5859      -7.1833
    1758.1626       2.0134      68.0178     475.2617    1567.5322      10.8209    3931.7485     -33.7615
    1758.2388       2.0055      66.8360     470.2924    1562.6379      11.8623    3932.7808      -6.5113
    1758.3150       1.9852      66.2820     463.6427    1559.1096       5.4450    3926.3406     -16.4354
    1758.3912       1.9567      66.4396     455.6490    1555.1578      -4.3371    3916.5537      13.1608
    1758.4674       1.9228      67.2337     446.8381    1548.1248     -12.4579    3908.4666     -40.2008
    1758.5436       1.8836      68.3861     437.3138    1535.9495     -18.0464    3902.9446      25.8599
    1758.6198       1.8450      69.5586     427.0551    1517.9817     -21.1141    3899.9539     -16.5122
    1758.6960       1.8243      70.3677     415.9245    1495.3624     -23.3269    3897.8064       8.1518
    1758.7722       1.8395      70.5741     404.1430    1470.6061     -24.8735    3896.3098     -35.0724
    1758.8484       1.9086      70.0549     392.3423    1446.8518     -27.8123    3893.4224       5.8092
    1758.9246       2.0373      68.9573     381.7470    1427.2906     -31.7796    3889.5444     -32.5814
    1759.0008       2.2091      67.5412     374.1632    1414.9084     -36.5265    3884.9539      13.4430
    1759.0770       2.3941      66.0493     371.4833    1411.7506     -39.3519    3882.3555     -15.4882
    1759.1532       2.5641      64.6360     374.9242    1418.1140     -38.4905    3883.4768      11.5255
    1759.2294       2.6970      63.4186     384.4162    1432.3407     -32.5128    3889.6914     -36.5060
    1759.3056       2.7836      62.4201     398.4264    1451.3782     -24.0583    3898.3154      15.6237
    1759.3818       2.8266      61.6435     414.7544    1471.8987     -15.9951    3906.4805     -22.2210
    1759.4580       2.8315      61.0470     431.1566    1492.0938     -10.5815    3911.9663      45.4600
    1759.5342       2.7976      60.7004     446.2615    1512.3418      -8.4936    3914.1499     -33.5306
    1759.6104       2.7278      60.6782     459.3256    1534.0161     -10.2948    3912.4976      16.6499
    1759.6866       2.6264      61.0113     470.1512    1557.5310     -15.0177    3907.9717     -24.1667
    1759.7628       2.5008      61.6316     479.3947    1581.6628     -20.6121    3902.5830       8.1752
    1759.8390       2.3672      62.3706     488.5522    1603.7888     -23.7975    3899.5703     -22.6017
    1759.9152       2.2431      63.0563     498.0388    1621.3538     -23.2739    3900.2100       6.4216
    1759.9914       2.1418      63.4941     507.2499    1633.2542     -20.0294    3903.5288     -20.8386
    1760.0676       2.0693      63.4549     515.4290    1640.5354     -16.3877    3907.2427       3.9380
    1760.1438       2.0253      62.7454     522.1008    1645.2427     -15.5440    3908.1997     -28.6467
    1760.2200       2.0063      61.4080     526.7874    1648.9275     -18.9958    3904.9224      -8.9599
    1760.2962       2.0118      59.8172     529.4874    1651.5942     -26.0343    3898.1094     -11.6921
    1760.3724       2.0453      58.3769     530.1841    1652.1299     -32.1599    3892.2229      -8.7042
    1760.4486       2.1060      57.3632     528.8238    1649.2253     -33.2771    3891.3132       0.6668
    1760.5248       2.1830      56.9522     526.0806    1642.8636     -28.4946    3896.2402       1.5517
    1760.6010       2.2562      57.1557     522.4661    1634.4727     -22.9881    3901.8262     -11.1341
    1760.6772       2.3065      57.8241     518.0472    1625.9067     -22.9066    3901.9517     -39.6548
    1760.7534       2.3411      58.7262     513.2728    1618.2434     -31.5303    3893.3804       3.0713
    1760.8296       2.3972      59.5285     508.6382    1611.5737     -45.3712    3879.6375     -22.6530
    1760.9058       2.5135      59.8933     503.7882    1604.8933     -58.2784    3866.8853       4.9340
    1760.9820       2.6992      59.7058     498.8179    1596.6128     -61.8643    3863.4971       4.8026
    1761.0582       2.9329      59.1142     493.9391    1585.6396     -53.7226    3871.8455       3.6035
    1761.1344       3.1825      58.3399     489.6311    1572.0381     -37.2756    3888.4758     -26.8861
    1761.2106       3.4202      57.6996     486.5243    1556.8420     -23.0564    3902.8359      -4.0791
    1761.2868       3.6319      57.4672     484.4892    1541.9006     -20.0378    3905.9631     -53.6182
    1761.3630       3.8159      57.6064     482.6419    1529.3599     -31.5030    3894.6069      17.7530
