~Version Information
 VERS.                2.00:   CWLS log ASCII Standard -VERSION 2.00
 WRAP.                  NO:   One line per frame      
~Well Information Block
#MNEM.UNIT                     Data                     Description
#----.----   ----------------------------------------   -------------------------------
 STRT.M                                      940.0032 : Starting Depth
 STOP.M                                     2179.5486 : Ending Depth
 STEP.M                                        0.0762 : Level Spacing
 NULL.                                      -999.2500 : Absent Value
 COMP.       PANAMERICAN ENERGY LLC                   : Company
 WELL.       PAE.Ch.PCD-1295(d)                       : Well
 FLD .       CERRO DRAGON                             : Field
 LOC .                                                : Location
 PROV.                                                : Province
 CTRY.                                                : Country
 SRVC.       Baker Hughes                             : Service Company
 DATE.       15-Oct-2021                              : Log Date
 UWI .                                                : Unique Well ID
 LIC .                                                : License Number
 EKB .                                          549.4 : KB
 EGL .                                          546.0 : GL
 APD .                                            3.4 : MESA
 FL1 .                      X: 5.764,35               :X(N)
 FL2 .                      Y:2.450.000,04            :Y(N)
 FL3 .                      Y:546,0                   :Z  (N)
 RIG .                                        DLS-336 : EQUIPO
~Curve Information Block
#MNEM    .UNIT        API Codes     Curve Description
#--------.--------   LG--CV-CL--M   ---------------------------------------------------
 DEPT    .M          99 995 99  1 : Depth
 CBL     .MV         81 524 99  1 : Waveform, 12-bit data with 4-bit gain code
 GR      .GAPI       30 310  1  1 : Gamma ray
 LSN     .CPS        42 334 31  1 : Long space neutron
 SSN     .CPS        42 334 30  1 : Short space count rate
 TEN     .LBF        99 635 99  1 : Differential tension
 TTEN    .LBF        99 635 99  1 : Total tension
 WCCL    .V          99 150 99  1 : Wireline telemetry casing collar locator
~Parameter Information Block
#MNEM.UNIT                     Value                    Description
#----.----   ----------------------------------------   -------------------------------
 APIN.                                                : API Serial Number
 STAT.                                                : State Or Province
 LATI.DEG    0.0000                                   : Latitude
 LONG.DEG    0.0000                                   : Longitude
~Other information
#  Curve Data
~A   DEPT         CBL          GR           LSN          SSN          TEN          TTEN         WCCL      
# ...
    2084.1462       3.8975      59.4461     499.8608    1561.5940     -60.3745    4481.0610     -13.1095
    2084.2224       3.9060      60.2990     485.5764    1527.1082     -54.4900    4487.1006      -6.1234
    2084.2986       3.9185      61.4599     474.0434    1491.6790     -46.4383    4495.3154      -9.0312
    2084.3748       3.9334      62.7109     463.5604    1458.4192     -41.1444    4500.8047     -13.2121
    2084.4510       3.9490      63.8111     453.6416    1430.5164     -44.1532    4498.0361      23.8588
    2084.5272       3.9587      64.6248     444.9754    1410.7747     -55.3279    4487.1504     -28.4931
    2084.6034       3.9556      65.1759     439.1491    1401.6643     -70.0324    4472.7705     -25.7283
    2084.6796       3.9339      65.4605     437.2231    1404.7872     -82.4183    4460.7227      19.2923
    2084.7558       3.8879      65.5321     440.1845    1419.8500     -86.9111    4456.5522     -33.4536
    2084.8320       3.8201      65.4766     448.7417    1444.3204     -81.7262    4462.0156      -4.7397
    2084.9082       3.7396      65.4724     461.3918    1474.0676     -68.7521    4475.2051       9.4120
    2084.9844       3.6620      65.6864     475.4235    1504.4364     -51.8939    4492.2109     -22.4514
    2085.0606       3.6030      66.2350     488.7795    1531.5101     -36.7449    4507.4585       7.4218
    2085.1368       3.5689      66.9650     500.0482    1552.9941     -28.1191    4516.1743     -14.9250
    2085.2130       3.5569      67.6387     507.7783    1567.9230     -29.2002    4515.2227      -8.4692
    2085.2892       3.5582      68.1738     511.0607    1575.9573     -40.3217    4504.3120       8.7835
    2085.3654       3.5703      68.5410     509.4549    1576.7217     -58.3017    4486.6387     -28.6562
    2085.4416       3.6017      68.6364     503.5255    1570.0004     -77.9678    4467.3545      17.4338
    2085.5178       3.6659      68.4417     495.0558    1556.6868     -91.5139    4454.2212       5.0975
    2085.5940       3.7617      67.9628     486.2940    1539.5867     -91.4587    4454.6631     -36.5065
    2085.6702       3.8664      67.2659     478.3191    1522.8309     -75.7566    4470.6758      23.6792
    2085.7464       3.9471      66.6668     471.4558    1510.5374     -48.1016    4498.5371      -8.6200
    2085.8226       3.9756      66.4411     466.0422    1505.0195     -17.4571    4529.2798     -39.7316
    2085.8988       3.9329      66.7099     461.3351    1505.6711       5.2219    4551.9775      28.7845
    2085.9750       3.8235      67.3881     457.1033    1509.5302      12.7803    4559.5278     -19.6258
    2086.0512       3.6719      68.2507     454.8108    1513.0103       3.8247    4550.5977     -11.1405
    2086.1274       3.5197      68.8833     455.7172    1513.4731     -17.1604    4529.7227       9.2838
    2086.2036       3.4075      69.0160     459.4213    1510.6287     -41.8947    4505.1997     -24.8337
    2086.2798       3.3543      68.7314     464.6763    1506.6001     -63.4034    4483.9824       9.9540
    2086.3560       3.3533      68.2489     469.9882    1504.5835     -76.2134    4471.4912      -6.3222
    2086.4322       3.3891      67.6687     475.1031    1507.2893     -77.5878    4470.4033     -33.0688
    2086.5084       3.4430      66.8988     480.8545    1516.1223     -67.5539    4480.6465      23.0122
    2086.5846       3.4995      65.7903     487.8530    1530.9503     -47.9676    4500.3506     -16.6658
    2086.6608       3.5527      64.4473     495.3422    1550.5155     -24.7875    4523.5742     -18.8818
    2086.7370       3.6088      63.0225     503.0460    1573.3063      -7.3029    4541.0669      14.1870
    2086.8132       3.6755      61.4403     511.9483    1598.0649      -3.4934    4544.8950     -27.0913
    2086.8894       3.7501      59.6109     523.4530    1623.9143     -17.9039    4530.5513      -4.9295
    2086.9656       3.8138      57.5986     539.2854    1650.5579     -47.5117    4501.0854       5.9519
    2087.0418       3.8427      55.6392     560.7316    1678.2698     -82.5020    4466.3198     -30.9138
    2087.1180       3.8279      53.9754     586.2532    1707.3459    -111.4560    4437.6602       7.8856
    2087.1942       3.7810      52.6472     612.5837    1737.5105    -125.3651    4424.0845      -9.4858
    2087.2704       3.7239      51.5509     636.6360    1767.5183    -120.4650    4429.3145     -22.2939
    2087.3466       3.6789      50.5448     655.1398    1794.6063     -98.3758    4451.6895      21.1651
    2087.4228       3.6621      49.5578     665.8254    1814.3687     -64.1096    4486.1685     -22.6274
    2087.4990       3.6774      48.6469     667.9108    1822.1011     -26.2299    4524.1753     -13.7252
    2087.5752       3.7204      48.0615     662.4765    1814.9912       5.6058    4556.0586      13.3917
    2087.6514       3.7757      48.0236     651.4712    1793.7559      23.1192    4573.5654     -27.0143
    2087.7276       3.8224      48.3441     637.9947    1763.0645      21.8131    4572.2329      -9.1074
    2087.8038       3.8423      48.5329     625.2135    1730.1156       4.5839    4554.9932       5.2175
    2087.8800       3.8265      48.2722     615.0282    1701.9576     -19.2138    4531.2246     -27.1939
    2087.9562       3.7721      47.7077     607.2588    1682.8757     -38.2218    4512.2910       0.4746
    2088.0324       3.6847      47.3240     599.7491    1672.9288     -42.4015    4508.2207      13.8278
    2088.1086       3.5816      47.5844     590.1686    1668.1760     -29.6095    4521.1318       4.6050
    2088.1848       3.4873      48.6431     578.2654    1663.0310      -5.4996    4545.3398      14.6434
    2088.2610       3.4239      50.2514     564.2979    1652.7808      21.4025    4572.2998     -23.0612
    2088.3372       3.4044      51.9943     548.3243    1635.1678      43.1018    4594.0098     -20.3010
    2088.4134       3.4269      53.7208     530.4958    1610.6353      54.7795    4605.6606      13.1352
    2088.4896       3.4750      55.6490     512.0688    1581.5591      55.0025    4605.8359     -28.3740
    2088.5658       3.5267      58.0909     495.1780    1550.9753      44.1972    4594.9805      -2.6097
    2088.6420       3.5611      61.0988     481.0517    1521.9133      25.8559    4576.6035      -6.3848
    2088.7182       3.5655      64.2807     470.0611    1497.0178       4.6454    4555.3774     -35.5573
    2088.7944       3.5273      67.0272     462.4505    1478.4487     -13.6733    4537.0635       0.7983
    2088.8706       3.4352      68.7473     458.9065    1468.3217     -23.3996    4527.3604     -19.3026
    2088.9468       3.2924      69.0996     460.2236    1468.6736     -22.0892    4528.7070     -10.2175
    2089.0230       3.1095      67.9619     467.4933    1481.1722     -11.2074    4539.6367      32.0939
    2089.0992       2.9089      65.5320     482.1697    1506.8345       4.6168    4555.5190      -9.4128
    2089.1754       2.7489      62.1623     504.4532    1545.6516      19.1334    4570.0991       1.3465
    2089.2516       2.7055      58.2395     532.8270    1595.3634      27.7623    4578.7979       9.8899
    2089.3278       2.8331      54.1004     565.0516    1650.8959      28.0581    4579.1738     -21.7038
    2089.4040       3.1362      50.1447     598.6371    1704.4062      19.0272    4570.2354      11.2111
    2089.4802       3.5645      46.8673     630.5510    1746.4070       2.4915    4553.8086       0.6510
    2089.5564       4.0266      44.7155     656.2941    1768.3846     -17.9472    4533.4917      55.0691
    2089.6326       4.4117      43.9094     671.2663    1766.4679     -36.4406    4515.1284      91.5871
    2089.7088       4.6262      44.3629     672.7792    1743.5540     -47.3916    4504.3037    -171.6295
    2089.7850       4.6405      45.7294     661.8696    1708.8259     -47.9257    4503.8838      45.2357
    2089.8612       4.4859      47.4068     643.4354    1674.6967     -38.4095    4513.5010      10.7974
    2089.9374       4.2392      48.7257     624.7554    1652.2344     -23.4211    4528.5815      -4.4735
