~Version Information
 VERS.                2.00:   CWLS log ASCII Standard -VERSION 2.00
 WRAP.                  NO:   One line per frame      
~Well Information Block
#MNEM.UNIT                     Data                     Description
#----.----   ----------------------------------------   -------------------------------
 STRT.M                                      940.0032 : Starting Depth
 STOP.M                                     2179.5486 : Ending Depth
 STEP.M                                        0.0762 : Level Spacing
 NULL.                                      -999.2500 : Absent Value
 COMP.       PANAMERICAN ENERGY LLC                   : Company
 WELL.       PAE.Ch.PCD-1295(d)                       : Well
 FLD .       CERRO DRAGON                             : Field
 LOC .                                                : Location
 PROV.                                                : Province
 CTRY.                                                : Country
 SRVC.       Baker Hughes                             : Service Company
 DATE.       15-Oct-2021                              : Log Date
 UWI .                                                : Unique Well ID
 LIC .                                                : License Number
 EKB .                                          549.4 : KB
 EGL .                                          546.0 : GL
 APD .                                            3.4 : MESA
 FL1 .                      X: 5.764,35               :X(N)
 FL2 .                      Y:2.450.000,04            :Y(N)
 FL3 .                      Y:546,0                   :Z  (N)
 RIG .                                        DLS-336 : EQUIPO
~Curve Information Block
#MNEM    .UNIT        API Codes     Curve Description
#--------.--------   LG--CV-CL--M   ---------------------------------------------------
 DEPT    .M          99 995 99  1 : Depth
 CBL     .MV         81 524 99  1 : Waveform, 12-bit data with 4-bit gain code
 GR      .GAPI       30 310  1  1 : Gamma ray
 LSN     .CPS        42 334 31  1 : Long space neutron
 SSN     .CPS        42 334 30  1 : Short space count rate
 TEN     .LBF        99 635 99  1 : Differential tension
 TTEN    .LBF        99 635 99  1 : Total tension
 WCCL    .V          99 150 99  1 : Wireline telemetry casing collar locator
~Parameter Information Block
#MNEM.UNIT                     Value                    Description
#----.----   ----------------------------------------   -------------------------------
 APIN.                                                : API Serial Number
 STAT.                                                : State Or Province
 LATI.DEG    0.0000                                   : Latitude
 LONG.DEG    0.0000                                   : Longitude
~Other information
#  Curve Data
~A   DEPT         CBL          GR           LSN          SSN          TEN          TTEN         WCCL      
# ...
    1268.5776       3.7958      51.1010     446.3280    1454.8097     -51.7882    3085.3328       7.9701
    1268.6538       3.8381      51.4176     445.5148    1442.0151     -64.6827    3072.6611     -18.9442
    1268.7300       3.8919      51.4663     444.5203    1428.8860     -68.4202    3069.2200     -21.0434
    1268.8062       3.9480      51.2933     442.3345    1416.9061     -58.4211    3079.5298     -13.7986
    1268.8824       4.0004      50.9920     438.9336    1407.9486     -42.0542    3096.1489      -4.4307
    1268.9586       4.0474      50.7200     435.3340    1403.4729     -32.2075    3106.1638       8.4221
    1269.0348       4.0975      50.5204     432.4944    1403.6868     -35.5230    3102.9731      -7.6847
    1269.1110       4.1634      50.4122     431.1223    1407.8046     -46.5348    3092.1123     -11.6314
    1269.1872       4.2501      50.4026     431.2811    1414.2997     -52.1495    3086.7156     -10.9965
    1269.2634       4.3502      50.5193     432.7028    1421.5621     -43.4052    3095.7207     -12.4682
    1269.3396       4.4524      50.7475     435.5921    1428.6340     -24.8466    3114.5151     -15.4697
    1269.4158       4.5494      50.9480     440.2942    1435.6840     -11.3277    3128.1992      17.4338
    1269.4920       4.6393      50.9020     446.1821    1443.0001     -15.7576    3123.8818     -13.0817
    1269.5682       4.7251      50.6232     451.6477    1450.2401     -37.2314    3102.5361       2.0005
    1269.6444       4.8097      50.2181     454.8187    1456.0662     -60.4587    3079.5159     -31.4371
    1269.7206       4.8895      49.7535     454.3614    1458.8726     -68.4460    3071.8154     -13.0069
    1269.7968       4.9564      49.1877     451.2615    1457.5522     -55.4086    3085.1548       3.6237
    1269.8730       4.9974      48.5677     449.2947    1452.4351     -31.5107    3109.2961     -22.3965
    1269.9492       4.9996      48.0895     451.1301    1445.4419     -14.6737    3126.2993      15.7698
    1270.0254       4.9564      47.9519     456.5322    1439.5698     -16.5977    3124.5132     -10.3681
    1270.1016       4.8705      48.1938     462.3986    1437.2655     -34.2144    3107.0845      -7.3128
    1270.1778       4.7533      48.7092     464.8813    1439.2777     -53.2355    3088.3398     -16.2137
    1270.2540       4.6198      49.3177     461.8271    1444.6837     -59.9881    3081.9136     -24.1923
    1270.3302       4.4807      49.8099     454.6793    1451.6267     -53.5086    3088.6851      -5.5093
    1270.4064       4.3400      50.0372     447.4904    1458.1732     -45.5581    3096.8333       8.0192
    1270.4826       4.2001      50.1251     443.9435    1463.0737     -48.5144    3093.9956      -7.7809
    1270.5588       4.0654      50.2925     444.5883    1465.7970     -63.4166    3079.2153       4.5012
    1270.6350       3.9450      50.5422     447.9488    1466.2600     -78.1799    3064.6577     -37.3018
    1270.7112       3.8498      50.6722     451.2973    1464.8917     -77.7304    3065.4031     -15.9828
    1270.7874       3.7871      50.4508     453.0270    1462.1624     -57.4983    3085.9475     -23.6536
    1270.8636       3.7541      49.8090     452.8167    1458.2997     -28.4687    3115.2104      10.7561
    1270.9398       3.7394      48.9958     451.0309    1453.4847      -9.7989    3133.9912      14.8482
    1271.0160       3.7301      48.4268     448.3703    1448.1396     -14.1737    3129.6487     -15.0080
    1271.0922       3.7220      48.5071     446.4680    1442.8794     -37.5197    3106.3530     -10.1240
    1271.1684       3.7222      49.3384     446.7475    1438.8641     -61.9066    3082.1055     -18.1635
    1271.2446       3.7418      50.6187     449.9445    1437.6580     -69.8125    3074.4248     -29.1843
    1271.3208       3.7830      51.7139     455.2400    1440.4967     -58.9475    3085.5330     -12.4417
    1271.3970       3.8387      52.0944     461.0677    1447.6206     -42.2059    3102.4692       6.3094
    1271.4732       3.8964      51.6016     466.0726    1458.0498     -35.6818    3109.1350       8.3836
    1271.5494       3.9448      50.4708     470.3011    1469.7701     -45.6098    3099.3538       0.4746
    1271.6256       3.9782      49.1077     474.3189    1480.0048     -62.6172    3082.5647     -35.5830
    1271.7018       3.9978      47.9727     478.3865    1486.0763     -70.6741    3074.8088     -11.4261
    1271.7780       4.0080      47.3533     482.0659    1485.9775     -60.9392    3084.8652      -6.4105
    1271.8542       4.0228      47.2624     483.9214    1478.8496     -40.2335    3105.8242       2.2987
    1271.9304       4.0786      47.4369     481.4251    1465.1382     -26.0299    3120.1709       3.3406
    1272.0066       4.2317      47.5186     473.5403    1447.1497     -30.7995    3115.4775     -14.3618
    1272.0828       4.5344      47.3006     461.3582    1429.0159     -50.1038    3096.2822     -13.1073
    1272.1590       5.0109      46.7993     447.2554    1415.6724     -65.3043    3081.2961     -28.0149
    1272.2352       5.6379      46.2248     434.4202    1410.9768     -59.3441    3087.5613     -15.8546
    1272.3114       6.3320      45.8446     425.7246    1416.0973     -31.8390    3115.3665      -0.7694
    1272.3876       6.9974      45.8018     422.9680    1428.7018       0.4691    3147.8730       6.1555
    1272.4638       7.5780      45.9651     426.4969    1443.6213      15.4445    3162.9177       6.7953
    1272.5400       8.0707      45.9527     433.8724    1454.8118       2.8161    3150.2908     -17.6504
    1272.6162       8.5071      45.4100     439.7899    1457.5361     -28.0825    3119.4277     -39.1940
    1272.6924       8.9180      44.3448     439.3314    1450.1204     -55.6333    3092.0122      21.8370
    1272.7686       9.2892      43.1654     431.1326    1434.4077     -61.4077    3086.4541     -84.2531
    1272.8448       9.5347      42.3977     417.4802    1414.8743     -45.2511    3102.8311      58.9831
    1272.9210       9.5029      42.3785     403.0805    1396.6534     -23.9543    3124.2852     -59.2647
    1272.9972       9.0582      43.1109     393.2307    1384.0983     -15.4717    3132.8647      -9.5282
    1273.0734       8.1644      44.3358     391.1717    1379.9231     -24.9140    3123.5229     -82.3770
    1273.1496       6.9486      45.7017     396.4901    1384.5728     -41.5974    3107.0066       2.0935
    1273.2258       5.6582      46.9146     406.4578    1396.0496     -49.5592    3099.2812      24.7824
    1273.3020       4.5605      47.8290     418.1858    1410.6238     -42.3455    3106.7422      13.2378
    1273.3782       3.8524      48.4278     429.6632    1424.1122     -28.6257    3120.6519      -7.5200
    1273.4544       3.5802      48.6847     439.2634    1433.2051     -23.8777    3125.5122       2.0166
    1273.5306       3.6323      48.5757     445.9289    1436.6995     -35.8838    3113.5886     -26.5731
    1273.6068       3.8195      48.1949     449.0025    1435.7144     -58.2919    3091.3081     -30.4899
    1273.6830       4.0009      47.7471     449.1851    1433.2040     -74.2770    3075.5349      31.7956
    1273.7592       4.1637      47.3979     448.1072    1432.6155     -70.4533    3079.6272      -1.6323
    1273.8354       4.3726      47.1765     447.4798    1436.3293     -49.7405    3100.5945      29.9523
    1273.9116       4.6886      47.0628     448.1175    1444.5989     -28.3378    3122.1877      11.7883
    1273.9878       5.1144      46.9837     450.3890    1455.6230     -22.1359    3128.5361       7.0019
    1274.0640       5.5848      46.8199     454.1674    1466.5430     -35.2436    3115.5977     -10.6563
    1274.1402       6.0040      46.4952     457.8886    1474.2656     -56.5080    3094.5798     -38.4772
    1274.2164       6.2950      46.1215     458.6257    1476.0549     -69.5625    3081.8442      23.2944
    1274.2926       6.4285      45.9089     453.4254    1470.1802     -66.5316    3085.1992     401.3668
    1274.3688       6.4198      45.9730     440.5089    1456.8033     -53.1215    3098.8638    -362.0191
