~Version Information
 VERS.                2.00:   CWLS log ASCII Standard -VERSION 2.00
 WRAP.                  NO:   One line per frame      
~Well Information Block
#MNEM.UNIT                     Data                     Description
#----.----   ----------------------------------------   -------------------------------
 STRT.M                                      940.0032 : Starting Depth
 STOP.M                                     2179.5486 : Ending Depth
 STEP.M                                        0.0762 : Level Spacing
 NULL.                                      -999.2500 : Absent Value
 COMP.       PANAMERICAN ENERGY LLC                   : Company
 WELL.       PAE.Ch.PCD-1295(d)                       : Well
 FLD .       CERRO DRAGON                             : Field
 LOC .                                                : Location
 PROV.                                                : Province
 CTRY.                                                : Country
 SRVC.       Baker Hughes                             : Service Company
 DATE.       15-Oct-2021                              : Log Date
 UWI .                                                : Unique Well ID
 LIC .                                                : License Number
 EKB .                                          549.4 : KB
 EGL .                                          546.0 : GL
 APD .                                            3.4 : MESA
 FL1 .                      X: 5.764,35               :X(N)
 FL2 .                      Y:2.450.000,04            :Y(N)
 FL3 .                      Y:546,0                   :Z  (N)
 RIG .                                        DLS-336 : EQUIPO
~Curve Information Block
#MNEM    .UNIT        API Codes     Curve Description
#--------.--------   LG--CV-CL--M   ---------------------------------------------------
 DEPT    .M          99 995 99  1 : Depth
 CBL     .MV         81 524 99  1 : Waveform, 12-bit data with 4-bit gain code
 GR      .GAPI       30 310  1  1 : Gamma ray
 LSN     .CPS        42 334 31  1 : Long space neutron
 SSN     .CPS        42 334 30  1 : Short space count rate
 TEN     .LBF        99 635 99  1 : Differential tension
 TTEN    .LBF        99 635 99  1 : Total tension
 WCCL    .V          99 150 99  1 : Wireline telemetry casing collar locator
~Parameter Information Block
#MNEM.UNIT                     Value                    Description
#----.----   ----------------------------------------   -------------------------------
 APIN.                                                : API Serial Number
 STAT.                                                : State Or Province
 LATI.DEG    0.0000                                   : Latitude
 LONG.DEG    0.0000                                   : Longitude
~Other information
#  Curve Data
~A   DEPT         CBL          GR           LSN          SSN          TEN          TTEN         WCCL      
     940.0032      71.7535      37.5566     405.8471    1480.6367     -15.5487    2512.7053     -10.0251
     940.0794      71.5392      36.8830     406.7725    1499.2994     -18.2583    2510.0930     -22.6274
     940.1556      71.2647      36.0199     407.1219    1511.1384     -21.8139    2506.6462      -2.0192
     940.2318      70.9392      35.1463     407.4884    1516.5364     -25.7949    2502.7847       3.3214
     940.3080      70.5003      34.4234     408.8886    1516.9165     -29.2541    2499.4575      -1.5902
     940.3842      69.8751      33.9555     411.9977    1513.7744     -30.6255    2498.2310     -19.6866
     940.4604      69.0848      33.7885     416.3902    1508.2559     -29.6869    2499.3242      -6.7550
     940.5366      68.3335      33.8971     420.1135    1500.8704     -28.8148    2500.3589      -2.9655
     940.6128      67.9060      34.2015     420.9702    1491.5338     -30.3283    2499.0181       2.1390
     940.6890      67.9546      34.5482     417.6076    1479.9023     -34.1943    2495.3376      -9.8686
     940.7652      68.4085      34.8922     410.6041    1465.9438     -38.7617    2490.9644     -15.8033
     940.8414      69.0702      35.3439     401.2780    1450.2915     -41.6434    2488.2744     -25.4979
     940.9176      69.7320      36.0733     391.4439    1434.1704     -40.7768    2489.3203      15.6418
     940.9938      70.2390      37.1404     383.1176    1419.4586     -36.7285    2493.5322      -0.6733
     941.0700      70.5045      38.4081     377.5121    1408.4335     -32.2139    2498.1975     -14.3874
     941.1462      70.4956      39.6289     375.4877    1403.1270     -29.2178    2501.3408     -23.8588
     941.2224      70.2227      40.5573     377.4468    1404.3669     -29.1302    2501.5803      -6.2036
     941.2986      69.7529      41.0083     382.5262    1411.2494     -32.9165    2497.9500      -8.0160
     941.3748      69.1936      40.8819     388.6654    1420.9799     -40.3621    2490.6614      -2.5327
     941.4510      68.7236      40.1862     393.5928    1429.3784     -49.0902    2482.0928      -8.2853
     941.5272      68.5486      39.1993     395.5527    1432.0432     -54.9039    2476.4456      -4.6519
     941.6034      68.8034      38.3011     393.5046    1426.0166     -53.6037    2477.9172     -14.1357
     941.6796      69.4596      37.7411     388.2246    1410.9119     -44.2839    2487.4009      -5.1026
     941.7558      70.3468      37.6715     382.1761    1388.8412     -30.9277    2500.8960       5.9103
     941.8320      71.2493      38.1983     377.3081    1363.6201     -20.0013    2511.9263     -10.3970
     941.9082      71.9893      39.3482     374.7910    1339.4960     -16.0050    2515.9961     -13.2609
     941.9844      72.4393      41.0186     373.9713    1319.9355     -20.0266    2512.0347     -12.7504
     942.0606      72.5029      42.9514     373.9516    1307.0092     -28.9544    2503.1743      -3.4432
     942.1368      72.0925      44.7337     375.0919    1301.5361     -38.0326    2494.1885       0.5130
     942.2130      71.1646      46.0298     377.1835    1303.1793     -44.1210    2488.2271      -9.5968
     942.2892      69.7492      46.6869     379.4163    1310.8499     -46.7009    2485.8066     -28.1431
     942.3654      68.0125      46.7293     381.1140    1322.6810     -46.7716    2485.9209     -21.6269
     942.4416      66.2382      46.4052     381.2400    1335.6213     -45.6516    2487.2422      12.6977
     942.5178      64.7145      46.1910     378.1303    1345.6222     -43.5226    2489.5820      10.5505
     942.5940      63.6144      46.4881     370.2675    1348.5911     -38.7416    2494.5725     -10.8490
     942.6702      62.9454      47.3076     357.8049    1341.4902     -30.3770    2503.1328     -24.7567
     942.7464      62.5772      48.2465     343.1335    1323.9646     -20.4293    2513.2478       1.0518
     942.8226      62.3205      48.8595     329.3941    1298.9425     -12.6987    2521.1121     -17.3938
     942.8988      61.9881      48.8874     319.0862    1271.7560     -10.5279    2523.3906       6.3030
     942.9750      61.4285      48.4078     312.6556    1248.3540     -14.0780    2519.9382     -11.6599
     943.0512      60.5605      47.6951     309.8806    1233.4066     -20.1402    2513.9792      -7.3513
     943.1274      59.4065      47.0788     309.7332    1228.5624     -25.6304    2508.6047     -19.7122
     943.2036      58.1012      46.7856     310.0616    1232.3506     -29.2904    2505.0718      31.2323
     943.2798      56.8552      46.8237     309.3852    1241.3389     -30.8118    2503.6863      -5.4420
     943.3560      55.9089      46.9925     307.6495    1251.5297     -30.5139    2504.1284     -11.7915
     943.4322      55.4431      47.0921     305.3592    1259.5594     -29.4244    2505.3721     -31.2579
     943.5084      55.5070      47.0307     303.4624    1263.2360     -28.2267    2506.7324     -10.4836
     943.5846      56.0085      46.8048     302.3380    1261.2838     -26.8274    2508.2988     -10.0988
     943.6608      56.7812      46.4823     302.7454    1253.4709     -25.3100    2509.9790      -0.2725
     943.7370      57.6703      46.2626     305.7412    1240.9763     -24.0965    2511.3420      -7.5052
     943.8132      58.5748      46.2236     311.4309    1226.2062     -23.7625    2511.8066     -25.3468
     943.8894      59.4330      46.2807     318.0110    1212.3285     -24.7057    2510.9775     -15.9234
     943.9656      60.2174      46.2491     323.5396    1202.6445     -26.1882    2509.6035      10.0929
     944.0418      60.9214      46.0336     327.2064    1199.5795     -26.4656    2509.4392      15.0274
     944.1180      61.5600      45.6361     329.4365    1203.9194     -24.4892    2511.5369      -1.9332
     944.1942      62.1528      45.0695     330.8868    1214.8192     -20.8051    2515.3425     -30.5034
     944.2704      62.7089      44.3325     332.9906    1230.3518     -17.0199    2519.2371     -32.2308
     944.3466      63.2404      43.4285     336.3989    1248.4274     -13.9967    2522.3501     -11.8461
     944.4228      63.7422      42.3853     340.3390    1267.0490     -11.4889    2524.9260      14.3106
     944.4990      64.1796      41.2839     343.1676    1284.3038      -8.3690    2528.0947       7.2231
     944.5752      64.4974      40.2426     343.3528    1298.2357      -4.3554    2532.1396     -16.3163
     944.6514      64.6501      39.4873     340.5005    1306.8951      -1.2701    2535.2415     -40.5764
     944.7276      64.6102      39.1683     335.6737    1308.6177      -1.4399    2535.0801       4.1240
     944.8038      64.3618      39.2296     330.2162    1302.8539      -5.1630    2531.3691      -2.5847
     944.8800      63.9037      39.5065     325.6182    1290.4114     -10.5507    2526.0083       2.2512
     944.9562      63.2645      39.9233     322.5624    1273.4918     -14.9624    2521.6436     -20.1218
     945.0324      62.4970      40.5386     320.9990    1255.0566     -17.1500    2519.5210      -9.5089
     945.1086      61.6944      41.5042     319.6756    1238.0469     -18.1767    2518.5752     -31.1339
     945.1848      60.9784      42.9139     317.4766    1224.5502     -20.3208    2516.5276       9.7904
     945.2610      60.4560      44.6680     313.9938    1215.7705     -23.9805    2512.9807      -0.7761
     945.3372      60.1735      46.4566     309.6163    1211.8867     -27.9006    2509.1863     -20.5494
     945.4134      60.0731      47.8870     305.3157    1212.2336     -31.6149    2505.6030     -29.6451
     945.4896      60.0056      48.6526     302.3228    1215.5754     -34.8577    2502.4927      17.4082
     945.5658      59.8206      48.6750     301.1573    1220.3423     -36.8724    2500.6123      -4.1314
     945.6420      59.4717      48.0440     301.2832    1224.8000     -37.1828    2500.4370     -12.0962
     945.7182      59.0363      46.9342     300.8079    1227.5392     -35.9071    2501.8474     -26.8803
     945.7944      58.6534      45.6184     299.0882    1228.1194     -33.6458    2504.2427     -11.9775
