~Version Information
 VERS.                2.00:   CWLS log ASCII Standard -VERSION 2.00
 WRAP.                  NO:   One line per frame      
~Well Information Block
#MNEM.UNIT                     Data                     Description
#----.----   ----------------------------------------   -------------------------------
 STRT.M                                      940.0032 : Starting Depth
 STOP.M                                     2179.5486 : Ending Depth
 STEP.M                                        0.0762 : Level Spacing
 NULL.                                      -999.2500 : Absent Value
 COMP.       PANAMERICAN ENERGY LLC                   : Company
 WELL.       PAE.Ch.PCD-1295(d)                       : Well
 FLD .       CERRO DRAGON                             : Field
 LOC .                                                : Location
 PROV.                                                : Province
 CTRY.                                                : Country
 SRVC.       Baker Hughes                             : Service Company
 DATE.       15-Oct-2021                              : Log Date
 UWI .                                                : Unique Well ID
 LIC .                                                : License Number
 EKB .                                          549.4 : KB
 EGL .                                          546.0 : GL
 APD .                                            3.4 : MESA
 FL1 .                      X: 5.764,35               :X(N)
 FL2 .                      Y:2.450.000,04            :Y(N)
 FL3 .                      Y:546,0                   :Z  (N)
 RIG .                                        DLS-336 : EQUIPO
~Curve Information Block
#MNEM    .UNIT        API Codes     Curve Description
#--------.--------   LG--CV-CL--M   ---------------------------------------------------
 DEPT    .M          99 995 99  1 : Depth
 CBL     .MV         81 524 99  1 : Waveform, 12-bit data with 4-bit gain code
 GR      .GAPI       30 310  1  1 : Gamma ray
 LSN     .CPS        42 334 31  1 : Long space neutron
 SSN     .CPS        42 334 30  1 : Short space count rate
 TEN     .LBF        99 635 99  1 : Differential tension
 TTEN    .LBF        99 635 99  1 : Total tension
 WCCL    .V          99 150 99  1 : Wireline telemetry casing collar locator
~Parameter Information Block
#MNEM.UNIT                     Value                    Description
#----.----   ----------------------------------------   -------------------------------
 APIN.                                                : API Serial Number
 STAT.                                                : State Or Province
 LATI.DEG    0.0000                                   : Latitude
 LONG.DEG    0.0000                                   : Longitude
~Other information
#  Curve Data
~A   DEPT         CBL          GR           LSN          SSN          TEN          TTEN         WCCL      
# ...
    1591.2846       2.9474      42.3934     458.3150    1456.5504      63.5323    3767.3567     -49.6389
    1591.3608       2.4826      43.3381     438.9408    1438.6636      68.0277    3771.8159      18.6370
    1591.4370       2.0679      43.9665     425.9027    1432.6826      73.0362    3776.7622     -15.4697
    1591.5132       1.7823      44.2413     420.8177    1433.8147      74.7376    3778.3813       5.5335
    1591.5894       1.6640      44.3574     422.8790    1436.3629      69.3312    3772.8928      -8.6264
    1591.6656       1.7050      44.5422     430.1016    1436.6497      56.3802    3759.8816      -2.4212
    1591.7418       1.8413      44.9179     439.7618    1434.1693      37.6012    3741.0703      13.0326
    1591.8180       1.9999      45.4453     449.6631    1431.2803      17.1337    3720.5898       4.6050
    1591.8942       2.1485      46.0929     458.3159    1431.2844      -2.0660    3701.3779     -31.1043
    1591.9704       2.3040      46.8765     465.1859    1436.5859     -17.9274    3685.4932       3.2613
    1592.0466       2.5141      47.9161     470.1346    1447.3630     -31.2716    3672.1147     -31.0421
    1592.1228       2.8442      49.2553     474.1946    1461.7427     -43.2403    3660.1165      21.8882
    1592.1990       3.3294      50.7609     478.9398    1476.9518     -54.6551    3648.6938     -27.9379
    1592.2752       3.9431      52.1662     486.1482    1490.7504     -64.4428    3638.9321       1.9369
    1592.3514       4.6181      53.2699     495.2545    1501.7234     -71.1557    3632.2749     -15.9828
    1592.4276       5.2737      54.0171     503.4472    1509.5127     -73.7681    3629.7351      32.1196
    1592.5038       5.8478      54.4398     507.0607    1514.6655     -74.2727    3629.3037     -21.0368
    1592.5800       6.3052      54.5204     504.5717    1518.2512     -74.4774    3629.1675      -3.4240
    1592.6562       6.6362      54.1646     497.3309    1521.1445     -75.4525    3628.2551     -23.2431
    1592.7324       6.8453      53.2299     488.7245    1523.9575     -76.1016    3627.6655      -8.6616
    1592.8086       6.9600      51.7455     481.6312    1526.9358     -73.7953    3630.0244     -18.1635
    1592.8848       7.0210      49.9503     477.8026    1530.2188     -65.4138    3638.4453       5.1085
    1592.9610       7.0602      48.2674     477.2759    1533.7881     -49.8392    3654.0376     -12.3173
    1593.0372       7.0793      47.0781     478.2841    1537.3660     -27.7865    3676.0874      -3.7937
    1593.1134       7.0473      46.5055     478.6109    1540.6458      -3.4094    3700.4460      -7.0326
    1593.1896       6.9149      46.3584     477.2466    1543.7297      18.9240    3722.7595       7.0064
    1593.2658       6.6424      46.3721     475.2886    1546.9204      35.6460    3739.4731     -11.2722
    1593.3420       6.2279      46.4151     474.3348    1550.3232      46.5890    3750.4258     -10.6406
    1593.4182       5.7176      46.6139     475.7378    1553.7692      52.8202    3756.6768       0.3398
    1593.4944       5.1933      47.1446     480.0712    1556.3992      57.5488    3761.4229      -9.7205
    1593.5706       4.7347      48.1322     487.3039    1556.5012      62.5494    3766.4219      -8.4404
    1593.6468       4.3877      49.4591     496.0728    1552.1379      68.1468    3771.9912      24.4739
    1593.7230       4.1612      50.8396     503.3480    1542.4116      72.1000    3775.8916      -0.6027
    1593.7992       4.0359      51.9902     505.1421    1528.2007      73.4645    3777.1936     -19.9426
    1593.8754       3.9712      52.8079     499.3296    1512.5742      71.5869    3775.2600     -11.3393
    1593.9516       3.9201      53.3418     486.9399    1500.0237      67.1443    3770.7808     -24.7054
    1594.0278       3.8465      53.6952     471.6558    1494.8794      59.5829    3763.2002      -8.6946
    1594.1040       3.7361      54.0471     458.0212    1499.2476      48.6566    3752.2588     -11.5928
    1594.1802       3.5939      54.5176     449.7851    1511.9661      33.6044    3737.1758      18.5346
    1594.2564       3.4382      55.0185     448.8894    1528.5017      15.0905    3718.6006      11.6409
    1594.3326       3.2920      55.4569     453.8320    1542.6014      -5.5674    3697.8506       0.3014
    1594.4088       3.1727      55.7131     460.7637    1548.5422     -25.7433    3677.5645     -22.4735
    1594.4850       3.0931      55.6812     466.0492    1543.4153     -43.0791    3660.1221       8.1849
    1594.5612       3.0644      55.4570     467.0120    1527.6781     -55.4801    3647.6367     -24.9091
    1594.6374       3.0973      55.2600     462.8191    1504.8136     -61.5606    3641.4998       2.7668
    1594.7136       3.1952      55.1655     454.0681    1479.6229     -61.6143    3641.4077     -47.2581
    1594.7898       3.3469      55.1755     441.6926    1456.5261     -57.3243    3645.6558      16.2394
    1594.8660       3.5233      55.2456     427.0189    1438.2800     -51.4922    3651.4229      -3.6388
    1594.9422       3.6844      55.3094     411.9379    1425.8535     -48.3713    3654.4468       4.7577
    1595.0184       3.7967      55.3754     398.3871    1418.3817     -51.3969    3651.3059     -39.0464
    1595.0946       3.8450      55.6130     387.8708    1414.0740     -61.1870    3641.4109       1.8952
    1595.1708       3.8322      56.1100     381.5917    1411.2487     -74.6713    3627.8628     -13.2378
    1595.2470       3.7761      56.8328     379.6871    1408.9847     -86.6661    3615.8613       4.7012
    1595.3232       3.7059      57.6571     380.7441    1407.1956     -93.0900    3609.4827     -16.7525
    1595.3994       3.6398      58.3619     383.2827    1406.6019     -91.0571    3611.5886      11.9486
    1595.4756       3.5840      58.8244     386.4509    1408.3236     -79.8397    3622.8833     -28.9283
    1595.5518       3.5415      59.1042     389.8687    1412.8455     -61.2985    3641.4915      29.7987
    1595.6280       3.5295      59.3164     394.0074    1419.5737     -38.5823    3664.2700     -25.4494
    1595.7042       3.5700      59.5002     398.4943    1426.8152     -15.0235    3687.8994       7.4206
    1595.7804       3.6841      59.5657     402.1975    1432.2717       7.3351    3710.3496     -27.0400
    1595.8566       3.8787      59.3177     403.6237    1433.7701      27.6303    3730.7549      27.9043
    1595.9328       4.1335      58.7614     401.7786    1430.3129      46.4457    3749.6855     -52.9926
    1596.0090       4.4037      58.0625     396.4804    1422.1335      64.4448    3767.7822      15.7954
    1596.0852       4.6507      57.5510     388.5991    1410.5527      80.9287    3784.3235     -35.0212
    1596.1614       4.8556      57.6062     379.7551    1397.2620      93.9231    3797.3235       9.7744
    1596.2376       5.0276      58.4541     371.3271    1383.3756     100.5202    3803.8804     -17.0498
    1596.3138       5.1934      59.8897     363.9910    1369.0508      98.4622    3801.7549      16.7268
    1596.3900       5.3793      61.4122     358.0221    1354.2649      89.2925    3792.5190     -27.0595
    1596.4662       5.5911      62.5370     352.8359    1339.4314      77.7780    3780.9602      27.7507
    1596.5424       5.8146      63.0112     347.8067    1325.8628      67.2444    3770.4058     -37.4276
    1596.6186       6.0303      63.0004     342.4324    1315.7368      57.6146    3760.7578      24.9107
    1596.6948       6.2176      62.9979     336.9069    1311.1213      45.3198    3748.4229     -24.6028
    1596.7710       6.3578      63.3679     332.4343    1312.6101      26.5906    3729.6172       2.9086
    1596.8472       6.4411      64.1560     330.6575    1319.1571      -0.6873    3702.2373     -36.3270
    1596.9234       6.4631      65.1137     331.7457    1328.4152     -34.4146    3668.4175      37.1736
    1596.9996       6.4351      65.8594     334.3173    1337.4426     -69.0091    3633.7832     -34.7652
    1597.0758       6.3975      66.1429     336.5791    1343.7225     -97.7455    3605.0874       4.3517
