~Version Information
 VERS.                2.00:   CWLS log ASCII Standard -VERSION 2.00
 WRAP.                  NO:   One line per frame      
~Well Information Block
#MNEM.UNIT                     Data                     Description
#----.----   ----------------------------------------   -------------------------------
 STRT.M                                      940.0032 : Starting Depth
 STOP.M                                     2179.5486 : Ending Depth
 STEP.M                                        0.0762 : Level Spacing
 NULL.                                      -999.2500 : Absent Value
 COMP.       PANAMERICAN ENERGY LLC                   : Company
 WELL.       PAE.Ch.PCD-1295(d)                       : Well
 FLD .       CERRO DRAGON                             : Field
 LOC .                                                : Location
 PROV.                                                : Province
 CTRY.                                                : Country
 SRVC.       Baker Hughes                             : Service Company
 DATE.       15-Oct-2021                              : Log Date
 UWI .                                                : Unique Well ID
 LIC .                                                : License Number
 EKB .                                          549.4 : KB
 EGL .                                          546.0 : GL
 APD .                                            3.4 : MESA
 FL1 .                      X: 5.764,35               :X(N)
 FL2 .                      Y:2.450.000,04            :Y(N)
 FL3 .                      Y:546,0                   :Z  (N)
 RIG .                                        DLS-336 : EQUIPO
~Curve Information Block
#MNEM    .UNIT        API Codes     Curve Description
#--------.--------   LG--CV-CL--M   ---------------------------------------------------
 DEPT    .M          99 995 99  1 : Depth
 CBL     .MV         81 524 99  1 : Waveform, 12-bit data with 4-bit gain code
 GR      .GAPI       30 310  1  1 : Gamma ray
 LSN     .CPS        42 334 31  1 : Long space neutron
 SSN     .CPS        42 334 30  1 : Short space count rate
 TEN     .LBF        99 635 99  1 : Differential tension
 TTEN    .LBF        99 635 99  1 : Total tension
 WCCL    .V          99 150 99  1 : Wireline telemetry casing collar locator
~Parameter Information Block
#MNEM.UNIT                     Value                    Description
#----.----   ----------------------------------------   -------------------------------
 APIN.                                                : API Serial Number
 STAT.                                                : State Or Province
 LATI.DEG    0.0000                                   : Latitude
 LONG.DEG    0.0000                                   : Longitude
~Other information
#  Curve Data
~A   DEPT         CBL          GR           LSN          SSN          TEN          TTEN         WCCL      
# ...
    1515.0084       5.8707      51.3983     396.9312    1396.1167     -40.3057    3552.4700      26.2403
    1515.0846       5.9998      51.9581     413.8052    1419.3856     -37.9582    3555.1211     -18.8674
    1515.1608       6.1323      52.2741     428.3952    1443.2083     -26.9805    3566.3936      26.5731
    1515.2370       6.1745      51.9354     440.0317    1468.1373     -12.8450    3580.7817     -35.7113
    1515.3132       6.0974      50.5959     448.6114    1492.7280      -2.0512    3591.7759       6.4938
    1515.3894       5.9444      48.2932     453.7475    1513.2994      -0.7700    3593.2222      18.1891
    1515.4656       5.7911      45.5336     455.0002    1525.6713      -8.7198    3585.4414     -39.4500
    1515.5418       5.6754      43.1744     452.0159    1527.5933     -21.8676    3572.5054     426.2669
    1515.6180       5.5722      42.0594     445.6081    1520.4365     -32.3071    3562.3433     -95.8201
    1515.6942       5.4446      42.4940     437.8828    1509.4877     -34.9199    3560.0649     297.4655
    1515.7704       5.3354      44.2329     432.2766    1501.6036     -27.9978    3567.3450     -27.2387
    1515.8466       5.2923      46.7090     431.9586    1501.8624     -16.4124    3579.2710      11.9006
    1515.9228       5.2727      49.2328     438.2434    1511.4541      -7.0886    3588.8936      -6.8768
    1515.9990       5.1978      51.2965     448.8304    1527.3787      -6.8330    3589.4141     -10.4286
    1516.0752       5.0171      52.7132     459.3808    1544.1342     -16.8641    3579.6494       5.9888
    1516.1514       4.7410      53.4853     466.7935    1556.6736     -33.7102    3563.1191      -9.2845
    1516.2276       4.4603      53.7212     471.0913    1562.6016     -49.9371    3547.2900      -2.9824
    1516.3038       4.3155      53.5954     474.5864    1562.2046     -58.3431    3539.3643     -24.7824
    1516.3800       4.4486      53.2202     479.3620    1557.6741     -54.2718    3543.9629      -2.0876
    1516.4562       4.9378      52.6589     485.6930    1551.4839     -38.8529    3559.9004     -13.9305
    1516.5324       5.7481      52.0228     491.3121    1544.9297     -17.8271    3581.3853     -18.7792
    1516.6086       6.7894      51.3912     493.2162    1537.7302       1.2710    3600.8618       4.7673
    1516.6848       8.0244      50.8032     490.3824    1529.3632      13.3170    3613.2158     -22.6306
    1516.7610       9.4462      50.4054     484.6978    1519.6212      17.2816    3617.4531       0.9169
    1516.8372      10.9804      50.3168     478.8572    1508.7814      15.8689    3616.3069     -28.6562
    1516.9134      12.4721      50.5355     475.1008    1497.6040      13.5701    3614.2842      17.8434
    1516.9896      13.7260      51.0060     473.0609    1487.2988      13.3671    3614.3594     -34.0694
    1517.0658      14.5626      51.7319     471.3986    1478.6903      16.2798    3617.5337       6.3656
    1517.1420      14.8643      52.6445     468.7036    1472.1179      19.9369    3621.4170     -19.4462
    1517.2182      14.6064      53.6519     464.8915    1467.9375      21.5363    3623.2061       9.2517
    1517.2944      13.8611      54.5599     461.2120    1466.8999      18.6652    3620.4990     -22.1399
    1517.3706      12.7621      55.1245     460.0808    1469.5366      12.0044    3614.0029       7.9572
    1517.4468      11.4523      55.1860     463.1409    1475.8339       3.0331    3605.2180     -24.4489
    1517.5230      10.0476      54.7870     469.6837    1485.2549      -5.1874    3597.2197      39.1490
    1517.5992       8.6312      54.0806     476.6153    1496.7186     -11.2669    3591.4004     -32.0516
    1517.6754       7.2714      53.2737     481.9242    1508.8459     -13.6803    3589.2749       1.0102
    1517.7516       6.0357      52.5415     484.7173    1520.1501     -13.6720    3589.5808     -23.9107
    1517.8278       4.9792      51.9834     485.8010    1528.9380     -11.7567    3591.7869      28.8358
    1517.9040       4.1356      51.6002     486.9774    1533.6895      -9.8202    3593.9932     -36.4036
    1517.9802       3.5169      51.4108     490.1081    1533.8984      -7.6995    3596.3577       4.5441
    1518.0564       3.1158      51.4720     495.9953    1529.9888      -5.7675    3598.5081     -32.4018
    1518.1326       2.8989      51.7885     503.8716    1523.4075      -3.0288    3601.4458      15.0530
    1518.2088       2.8107      52.3181     511.2147    1516.6135      -0.1061    3604.5530     -50.2831
    1518.2850       2.8043      52.9632     515.4863    1512.0735       3.3972    3608.2334      16.7682
    1518.3612       2.8737      53.6301     516.0724    1510.7756       6.2395    3611.2493      13.0582
    1518.4374       3.0593      54.1528     513.6847    1512.6582       8.1777    3613.3608     -10.6695
    1518.5136       3.4333      54.3354     508.5964    1517.2029       8.0301    3613.3914     -40.1924
    1518.5898       4.0557      53.9796     501.5469    1523.7341       6.6607    3612.2119      -7.3417
    1518.6660       4.9500      52.9969     493.7994    1531.5859       4.3848    3610.1445       1.3821
    1518.7422       6.0982      51.4473     486.9882    1540.2446       2.8720    3608.8652      -9.1972
    1518.8184       7.4835      49.5347     482.7554    1548.4225       3.2837    3609.5327      -8.4500
    1518.8946       9.1209      47.5333     481.7572    1554.0537       7.0081    3613.5247     -10.8295
    1518.9708      11.0602      45.7749     483.4016    1554.7312      12.4867    3619.2639     -18.5858
    1519.0470      13.3318      44.5346     485.9374    1548.7825      16.6492    3623.6567     -28.3484
    1519.1232      15.9185      43.9112     487.3150    1536.1069      16.5521    3623.7427      11.5991
    1519.1994      18.7536      43.8224     486.1774    1518.6641      11.2068    3618.5269     -23.3219
    1519.2756      21.7623      44.1619     482.7189    1499.7498       2.0984    3609.4995       0.4007
    1519.3518      24.8874      44.8801     479.3972    1483.3311      -8.2914    3599.1562     -36.8657
    1519.4280      28.0607      45.8672     478.3800    1472.9167     -16.9248    3590.5544       8.7972
    1519.5042      31.1315      46.9134     480.3408    1470.5974     -22.9783    3584.5344     -18.9588
    1519.5804      33.8228      47.7882     484.1834    1476.2976     -26.5080    3581.0542       2.8894
    1519.6566      35.7841      48.2666     487.8748    1488.1490     -29.6988    3577.9355     -30.7343
    1519.7328      36.7374      48.2086     489.7238    1503.4556     -32.6115    3575.1204      13.7986
    1519.8090      36.6161      47.6890     488.2164    1519.6033     -34.7921    3573.0562     -19.6258
    1519.8852      35.6029      46.8335     483.0295    1534.4240     -33.8873    3574.0881       7.6194
    1519.9614      34.0654      45.7855     475.4631    1546.3926     -31.3201    3576.7842     -46.0244
    1520.0376      32.4838      44.6800     467.5689    1554.6548     -28.0502    3580.1836      18.5858
    1520.1138      31.3574      43.6446     461.6669    1558.4053     -26.7151    3581.6577     -10.3462
    1520.1900      31.0493      42.8276     458.7135    1556.9027     -26.8106    3581.7275      12.8001
    1520.2662      31.6721      42.4719     457.6454    1550.0830     -27.8255    3580.9126     -27.0913
    1520.3424      33.0518      42.7543     457.2772    1539.4891     -26.3722    3582.5984      17.4195
    1520.4186      34.7725      43.6406     457.3544    1527.8135     -21.2494    3587.9670     -20.7803
    1520.4948      36.3204      44.9564     459.2656    1518.0947     -11.9845    3597.4675      -5.6055
    1520.5710      37.2903      46.4220     464.3851    1512.3276      -2.9519    3606.7036     -41.4981
    1520.6472      37.6101      47.6738     472.7267    1511.0118       1.4308    3611.2573      43.3050
    1520.7234      37.5895      48.5077     481.6534    1513.0089      -2.2290    3607.7603     -30.2212
    1520.7996      37.7424      48.8438     486.7638    1516.4019     -11.5498    3598.6304      -2.8092
