~Version Information
 VERS.                2.00:   CWLS log ASCII Standard -VERSION 2.00
 WRAP.                  NO:   One line per frame      
~Well Information Block
#MNEM.UNIT                     Data                     Description
#----.----   ----------------------------------------   -------------------------------
 STRT.M                                      940.0032 : Starting Depth
 STOP.M                                     2179.5486 : Ending Depth
 STEP.M                                        0.0762 : Level Spacing
 NULL.                                      -999.2500 : Absent Value
 COMP.       PANAMERICAN ENERGY LLC                   : Company
 WELL.       PAE.Ch.PCD-1295(d)                       : Well
 FLD .       CERRO DRAGON                             : Field
 LOC .                                                : Location
 PROV.                                                : Province
 CTRY.                                                : Country
 SRVC.       Baker Hughes                             : Service Company
 DATE.       15-Oct-2021                              : Log Date
 UWI .                                                : Unique Well ID
 LIC .                                                : License Number
 EKB .                                          549.4 : KB
 EGL .                                          546.0 : GL
 APD .                                            3.4 : MESA
 FL1 .                      X: 5.764,35               :X(N)
 FL2 .                      Y:2.450.000,04            :Y(N)
 FL3 .                      Y:546,0                   :Z  (N)
 RIG .                                        DLS-336 : EQUIPO
~Curve Information Block
#MNEM    .UNIT        API Codes     Curve Description
#--------.--------   LG--CV-CL--M   ---------------------------------------------------
 DEPT    .M          99 995 99  1 : Depth
 CBL     .MV         81 524 99  1 : Waveform, 12-bit data with 4-bit gain code
 GR      .GAPI       30 310  1  1 : Gamma ray
 LSN     .CPS        42 334 31  1 : Long space neutron
 SSN     .CPS        42 334 30  1 : Short space count rate
 TEN     .LBF        99 635 99  1 : Differential tension
 TTEN    .LBF        99 635 99  1 : Total tension
 WCCL    .V          99 150 99  1 : Wireline telemetry casing collar locator
~Parameter Information Block
#MNEM.UNIT                     Value                    Description
#----.----   ----------------------------------------   -------------------------------
 APIN.                                                : API Serial Number
 STAT.                                                : State Or Province
 LATI.DEG    0.0000                                   : Latitude
 LONG.DEG    0.0000                                   : Longitude
~Other information
#  Curve Data
~A   DEPT         CBL          GR           LSN          SSN          TEN          TTEN         WCCL      
# ...
    1837.7154       3.4617      72.0764     432.3671    1471.8531      21.7884    4105.6689      -1.5649
    1837.7916       3.4601      72.7597     435.4532    1466.6666      17.2674    4101.3594     -29.7987
    1837.8678       3.4086      73.3542     437.6622    1461.5354       9.6638    4093.9482      34.6081
    1837.9440       3.3200      73.8555     438.1238    1456.6826      -1.4050    4083.0295     -14.1357
    1838.0202       3.2136      74.4016     437.6871    1452.8230     -14.7627    4069.7847     -28.8871
    1838.0964       3.1128      75.1695     437.8957    1451.5494     -26.1579    4058.4956      12.7247
    1838.1726       3.0428      76.2438     439.4326    1455.1007     -32.6053    4052.1807     -22.7813
    1838.2488       3.0172      77.4107     442.4261    1465.5841     -32.0065    4052.9595      17.5478
    1838.3250       3.0448      78.3270     446.5602    1484.1436     -24.4524    4060.7437     -47.3328
    1838.4012       3.1259      78.7054     451.2432    1509.8757     -12.2377    4073.2173      20.7618
    1838.4774       3.2498      78.4326     456.8611    1539.6326      -1.5014    4084.2061     -22.1656
    1838.5536       3.3958      77.6196     464.8640    1568.4761       1.5232    4087.4443      -0.4713
    1838.6298       3.5512      76.6158     475.8468    1590.9626      -7.1811    4078.9038     -31.9144
    1838.7060       3.7038      75.8199     487.8500    1602.7954     -26.6501    4059.5664      21.2738
    1838.7822       3.8353      75.4988     496.9039    1602.2427     -49.6897    4036.6658      -6.8448
    1838.8584       3.9197      75.6830     499.4294    1590.5463     -67.1529    4019.3875     -26.1164
    1838.9346       3.9340      76.1289     494.5080    1571.8273     -71.3190    4015.4731       8.7546
    1839.0108       3.8677      76.3905     485.3463    1552.4529     -60.1823    4026.9209     -22.8611
    1839.0870       3.7435      76.0633     477.5368    1539.4038     -38.6836    4048.7534       6.0272
    1839.1632       3.6098      74.9687     475.8209    1538.1104     -18.3337    4069.4119     -29.2099
    1839.2394       3.5180      73.3231     482.4854    1550.5012      -8.8399    4079.1570      16.3163
    1839.3156       3.5042      71.7148     496.4376    1574.1455     -13.7974    4074.3862     -29.9255
    1839.3918       3.5697      70.6549     513.9615    1602.7549     -29.6068    4058.7153      18.9442
    1839.4680       3.6726      70.2800     530.9835    1628.2759     -47.9093    4040.5327     -10.4094
    1839.5442       3.7483      70.2716     544.6748    1643.5974     -59.5209    4029.0488       9.6718
    1839.6204       3.7403      70.1103     552.4862    1644.9229     -57.9947    4030.7236       0.5707
    1839.6966       3.6284      69.3619     552.8600    1633.1018     -42.4359    4046.4470     -27.2452
    1839.7728       3.4324      68.0177     547.2355    1613.4199     -17.9257    4071.1196       8.0214
    1839.8490       3.1998      66.4025     539.3186    1593.3086       4.6852    4093.8706     -38.1700
    1839.9252       2.9821      64.9016     532.8926    1579.6682      16.3228    4105.6157      17.0498
    1840.0014       2.8169      63.6749     530.9090    1576.6934      12.2146    4101.5874     -27.7840
    1840.0776       2.7194      62.6235     532.9454    1584.7688      -5.8314    4083.6108      14.6488
    1840.1538       2.6737      61.4726     536.1265    1600.5232     -30.5215    4058.9990     -30.6179
    1840.2300       2.6556      60.1610     537.5426    1618.3448     -51.6537    4037.9707       1.8242
    1840.3062       2.6417      58.8118     535.3459    1632.5013     -60.8963    4028.8599      -3.2646
    1840.3824       2.6202      57.6474     529.9731    1639.2305     -55.3721    4034.5352     -12.4673
    1840.4586       2.5912      56.9987     524.0499    1637.5413     -38.6789    4051.3823       3.2188
    1840.5348       2.5604      57.1572     519.9245    1629.1580     -20.4320    4069.7710     -19.1127
    1840.6110       2.5315      58.1551     517.2706    1617.3848      -9.6237    4080.7012      14.3618
    1840.6872       2.5074      59.7761     513.5933    1605.6377     -11.7456    4078.6841     -43.3563
    1840.7634       2.4835      61.6492     507.5063    1596.3073     -25.8702    4064.6606      16.1111
    1840.8396       2.4559      63.3737     500.4017    1591.1733     -45.9302    4044.7114     -25.5747
    1840.9158       2.4303      64.6199     496.6131    1591.5078     -62.4579    4028.3118       6.2469
    1840.9920       2.4215      65.3198     500.5361    1598.3584     -68.0884    4022.8201     -25.9881
    1841.0682       2.4348      65.5555     513.9511    1612.2417     -60.7827    4030.2593      19.7541
    1841.1444       2.4625      65.4489     534.9705    1632.2903     -45.1027    4046.0464       1.4463
    1841.2206       2.4789      65.1457     558.2277    1655.0745     -30.7358    4060.4844     -45.4344
    1841.2968       2.4621      64.7335     576.7451    1675.3137     -25.1511    4066.1125      18.6509
    1841.3730       2.4262      64.3743     584.9969    1687.4358     -31.2053    4060.0952     -20.9410
    1841.4492       2.3915      64.1737     580.9833    1687.9045     -45.6080    4045.7488       8.6465
    1841.5254       2.3521      64.0969     567.2448    1677.2947     -61.0401    4030.4097     -26.4707
    1841.6016       2.3043      64.0569     548.4286    1660.4270     -68.6305    4022.9541      47.7689
    1841.6778       2.2576      63.9612     530.3993    1644.0302     -64.3838    4027.3689     -20.1902
    1841.7540       2.2383      63.6293     518.1726    1633.9294     -48.5419    4043.3984      27.3478
    1841.8302       2.2786      62.9200     514.8740    1632.4014     -26.2097    4065.9177     -19.8914
    1841.9064       2.4035      61.8260     520.0181    1636.7495      -4.7229    4087.5723     -15.8546
    1841.9826       2.6070      60.5406     529.5214    1640.8514      10.4121    4102.8364      36.9170
    1842.0588       2.8440      59.3543     538.3482    1638.5936      17.3394    4109.8389      32.6584
    1842.1350       3.0202      58.6284     541.9943    1627.0363      18.3761    4110.8877      11.0478
    1842.2112       3.0656      58.6130     538.3297    1607.9907      16.8632    4109.3296    -557.8403
    1842.2874       3.0080      59.4513     528.9322    1587.2975      16.7150    4109.1045    -197.3600
    1842.3636       2.9074      61.1332     517.3616    1571.5691      18.1789    4110.4922    -140.4219
    1842.4398       2.8011      63.3488     507.6230    1564.6465      20.4931    4112.7651      38.2767
    1842.5160       2.6921      65.5756     501.4719    1565.6301      21.7203    4114.0029     -34.6372
    1842.5922       2.5789      67.3740     498.2358    1569.5232      19.7992    4112.1445      24.9091
    1842.6684       2.4728      68.4635     496.0983    1570.2410      13.2497    4105.6938     -18.3042
    1842.7446       2.4154      68.7364     492.7205    1563.8541       2.6963    4095.2534      20.7106
    1842.8208       2.4416      68.3263     487.1807    1550.2704      -9.7039    4082.9653       7.1641
    1842.8970       2.5648      67.5212     479.7953    1532.7810     -20.9917    4071.7905     -18.0096
    1842.9732       2.7697      66.5957     471.4769    1515.8694     -26.6355    4066.2742       8.2169
    1843.0494       3.0073      65.7630     463.3774    1502.4519     -22.7780    4070.2827     -33.2484
    1843.1256       3.1934      65.1363     456.3376    1492.8547      -8.1410    4085.0879      16.8807
    1843.2018       3.3017      64.7683     450.8293    1485.5520      13.0342    4106.4229     -50.5140
    1843.2780       3.3477      64.6193     447.8405    1478.9370      32.9253    4126.4302      30.0159
    1843.3542       3.3425      64.7580     447.9311    1472.7450      43.1709    4136.7231     -29.0307
    1843.4304       3.3021      65.4179     450.8575    1468.5189      39.9469    4133.4766       4.8346
    1843.5066       3.2490      66.6162     455.3802    1468.6812      25.4884    4118.9492     -10.0572
