~Version Information
 VERS.                2.00:   CWLS log ASCII Standard -VERSION 2.00
 WRAP.                  NO:   One line per frame      
~Well Information Block
#MNEM.UNIT                     Data                     Description
#----.----   ----------------------------------------   -------------------------------
 STRT.M                                      940.0032 : Starting Depth
 STOP.M                                     2179.5486 : Ending Depth
 STEP.M                                        0.0762 : Level Spacing
 NULL.                                      -999.2500 : Absent Value
 COMP.       PANAMERICAN ENERGY LLC                   : Company
 WELL.       PAE.Ch.PCD-1295(d)                       : Well
 FLD .       CERRO DRAGON                             : Field
 LOC .                                                : Location
 PROV.                                                : Province
 CTRY.                                                : Country
 SRVC.       Baker Hughes                             : Service Company
 DATE.       15-Oct-2021                              : Log Date
 UWI .                                                : Unique Well ID
 LIC .                                                : License Number
 EKB .                                          549.4 : KB
 EGL .                                          546.0 : GL
 APD .                                            3.4 : MESA
 FL1 .                      X: 5.764,35               :X(N)
 FL2 .                      Y:2.450.000,04            :Y(N)
 FL3 .                      Y:546,0                   :Z  (N)
 RIG .                                        DLS-336 : EQUIPO
~Curve Information Block
#MNEM    .UNIT        API Codes     Curve Description
#--------.--------   LG--CV-CL--M   ---------------------------------------------------
 DEPT    .M          99 995 99  1 : Depth
 CBL     .MV         81 524 99  1 : Waveform, 12-bit data with 4-bit gain code
 GR      .GAPI       30 310  1  1 : Gamma ray
 LSN     .CPS        42 334 31  1 : Long space neutron
 SSN     .CPS        42 334 30  1 : Short space count rate
 TEN     .LBF        99 635 99  1 : Differential tension
 TTEN    .LBF        99 635 99  1 : Total tension
 WCCL    .V          99 150 99  1 : Wireline telemetry casing collar locator
~Parameter Information Block
#MNEM.UNIT                     Value                    Description
#----.----   ----------------------------------------   -------------------------------
 APIN.                                                : API Serial Number
 STAT.                                                : State Or Province
 LATI.DEG    0.0000                                   : Latitude
 LONG.DEG    0.0000                                   : Longitude
~Other information
#  Curve Data
~A   DEPT         CBL          GR           LSN          SSN          TEN          TTEN         WCCL      
# ...
    2002.0026      10.2450      44.3838     723.1029    1930.2039     -57.7986    4311.4165       9.2909
    2002.0788      12.0995      42.4239     737.0796    1951.7434     -33.8124    4335.6309     -40.0982
    2002.1550      14.0989      40.1158     753.3546    1979.8958     -12.6341    4357.0122      37.1972
    2002.2312      16.2749      37.5802     769.6485    2011.6072      -0.6484    4369.1831     -17.8556
    2002.3074      18.6241      35.1064     782.1120    2041.6537      -0.5845    4369.4365     -52.3611
    2002.3836      21.0733      32.9917     787.7433    2064.7266     -10.2324    4360.0088      37.9652
    2002.4598      23.4580      31.4282     786.6195    2077.3088     -26.2528    4344.2544     -26.9059
    2002.5360      25.5543      30.5087     781.5895    2079.1907     -43.5214    4327.2959     -26.0651
    2002.6122      27.1448      30.1751     775.5378    2073.3728     -59.5677    4311.5781      12.9537
    2002.6884      28.0995      30.2486     770.6360    2065.1394     -72.1699    4299.2930      -9.6500
    2002.7646      28.4130      30.5354     767.3240    2059.9773     -79.1796    4292.5664       3.2637
    2002.8408      28.1850      30.9533     765.5815    2061.8162     -81.2365    4290.7500     -32.5044
    2002.9170      27.5592      31.5529     768.3684    2071.7190     -80.6265    4291.5679     -24.4232
    2002.9932      26.6570      32.3601     780.5929    2088.1807     -80.1720    4292.2158      18.3944
    2003.0694      25.5436      33.2608     804.3688    2107.9536     -82.5040    4290.0879     -56.9350
    2003.1456      24.2799      34.0302     835.8196    2127.1614     -85.1554    4287.6787      28.5955
    2003.2218      22.9614      34.5025     866.2067    2142.7698     -84.3902    4288.7412      -5.6810
    2003.2980      21.7255      34.6747     886.0201    2154.0640     -76.7104    4296.7754     -36.2243
    2003.3742      20.7194      34.6839     889.7834    2162.1479     -62.0631    4311.8115      18.9698
    2003.4504      20.0366      34.7215     878.7208    2168.4165     -46.1079    4328.1494     -11.1215
    2003.5266      19.6708      34.8734     859.9524    2173.1619     -35.2320    4339.3638     -28.2714
    2003.6028      19.5367      35.1249     842.3793    2174.9495     -33.8575    4341.0107       8.0075
    2003.6790      19.5258      35.4583     832.4401    2171.4607     -42.6039    4332.4790     -12.2212
    2003.7552      19.5432      35.8783     830.4926    2161.5522     -57.5582    4317.7124      10.8808
    2003.8314      19.5084      36.3239     832.6447    2146.6006     -75.7992    4299.6685     -22.9891
    2003.9076      19.4551      36.6703     835.2000    2130.3835     -94.2353    4281.4692     -38.7128
    2003.9838      19.5236      36.7973     836.6281    2117.9651    -109.4774    4266.5137      33.9924
    2004.0600      19.6421      36.6588     836.8806    2113.3320    -118.8670    4257.4561     -26.3217
    2004.1362      19.5818      36.3106     836.9282    2117.4932    -118.2090    4258.4824      28.3997
    2004.2124      19.1552      35.8341     837.0952    2128.7761    -106.4544    4270.6255       5.1309
    2004.2886      18.3419      35.3130     837.0183    2143.8740     -86.7476    4290.7222      -7.8686
    2004.3648      17.2895      34.8135     835.5647    2158.2256     -64.1810    4313.6646       7.2218
    2004.4410      16.2689      34.3557     831.9835    2166.9629     -45.0194    4333.1768     -18.8818
    2004.5172      15.4968      33.8911     824.7527    2166.3398     -32.2817    4346.2412     423.9586
    2004.5934      15.0318      33.4086     812.3562    2154.3240     -26.0136    4352.8174      48.5899
    2004.6696      14.7163      32.9943     794.3899    2131.2634     -25.8177    4353.3125      16.5985
    2004.7458      14.3147      32.7083     772.2098    2100.6638     -30.0829    4349.3428    -299.2308
    2004.8220      13.6925      32.4743     748.9740    2068.1743     -39.4846    4340.2290    -182.7408
    2004.8982      12.9746      32.1930     729.7762    2038.8170     -53.1260    4326.8647      35.4034
    2004.9744      12.4227      31.8444     718.2114    2014.9304     -67.0448    4313.2080      33.4793
    2005.0506      12.1401      31.5605     715.1140    1995.7356     -77.4921    4303.0068     -26.1164
    2005.1268      12.1121      31.4342     717.9658    1978.3086     -80.9324    4299.7969      32.3761
    2005.2030      12.2671      31.4178     722.4799    1959.9192     -77.6189    4303.3159       7.1192
    2005.2792      12.5251      31.3723     724.9589    1940.4905     -71.6321    4309.4775     -15.5906
    2005.3554      12.7898      31.1247     724.6778    1922.6094     -65.5638    4315.7012      39.3286
    2005.4316      12.9954      30.6296     722.2163    1908.9470     -61.2851    4320.1377     -15.3158
    2005.5078      13.1108      30.0984     716.8425    1899.3188     -58.6673    4322.9536      -7.9701
    2005.5840      13.1147      29.9014     705.5049    1889.1011     -56.5459    4325.3379       1.1670
    2005.6602      12.9213      30.4736     684.6725    1870.1403     -55.4680    4326.7451     -21.9394
    2005.7364      12.5222      32.1319     652.7747    1834.3816     -55.1962    4327.3906       3.7670
    2005.8126      11.9601      34.8107     612.2527    1777.8125     -56.7320    4326.2334       3.6997
    2005.8888      11.2801      38.0773     568.3647    1702.6772     -59.9368    4323.3789     -27.7327
    2005.9650      10.5299      41.4026     526.0413    1617.1282     -63.6089    4320.0156      24.4489
    2006.0412       9.7348      44.2805     489.5287    1532.7959     -68.9799    4314.9160     -21.3190
    2006.1174       8.9125      46.4456     460.6426    1460.5292     -77.4222    4306.7290     -30.5803
    2006.1936       8.0800      47.9410     438.5783    1407.2341     -89.2498    4295.1616       6.8800
    2006.2698       7.2513      48.9720     422.8060    1375.3778    -102.8618    4281.8364     -10.5188
    2006.3460       6.4568      49.6649     414.0874    1364.0780    -111.7859    4273.2427      -9.3639
    2006.4222       5.7495      50.0801     412.8993    1369.7976    -110.7095    4274.6982     -23.5766
    2006.4984       5.1881      50.2265     419.1890    1387.6846     -97.6963    4288.1289       3.6045
    2006.5746       4.8047      50.1236     430.3585    1412.7528     -75.3006    4310.9575      -5.8460
    2006.6508       4.5825      50.0392     441.5681    1439.9374     -50.3185    4336.3535     -19.6258
    2006.7270       4.4717      50.3687     448.7014    1464.1224     -29.1712    4357.8691      26.0651
    2006.8032       4.4106      51.2966     450.3701    1481.2172     -16.6238    4370.7275       2.4757
    2006.8794       4.3464      52.8398     447.2255    1489.2073     -15.3730    4372.2407     -15.7698
    2006.9556       4.2471      54.7744     441.5577    1488.5891     -24.3380    4363.5161       2.8501
    2007.0318       4.1000      56.6365     437.0745    1482.3103     -42.4396    4345.6621     -32.4612
    2007.1080       3.9149      58.0066     436.3081    1474.6438     -66.3950    4321.9854     -33.5364
    2007.1842       3.7175      58.7643     439.5637    1469.7206     -90.8726    4297.8301      31.9400
    2007.2604       3.5358      59.0441     446.3563    1470.3273    -111.0272    4278.0391     -13.4202
    2007.3366       3.3935      59.1951     454.2919    1477.3738    -121.8597    4267.5986     -16.6242
    2007.4128       3.2968      59.5091     460.8543    1489.7886    -120.7537    4269.0977       4.6679
    2007.4890       3.2320      60.0392     464.8367    1505.4114    -109.3160    4280.9014     -13.2634
    2007.5652       3.1769      60.5552     466.3889    1521.6030     -90.3132    4300.2222      28.5443
    2007.6414       3.1131      60.7862     467.2408    1535.9178     -68.3764    4322.4219     -26.1677
    2007.7176       3.0388      60.5918     470.7164    1547.1912     -48.0649    4342.9551     -41.4725
    2007.7938       2.9666      60.1020     479.5709    1556.3870     -34.5071    4356.7202      16.2394
