~Version Information
 VERS.                2.00:   CWLS log ASCII Standard -VERSION 2.00
 WRAP.                  NO:   One line per frame      
~Well Information Block
#MNEM.UNIT                     Data                     Description
#----.----   ----------------------------------------   -------------------------------
 STRT.M                                      940.0032 : Starting Depth
 STOP.M                                     2179.5486 : Ending Depth
 STEP.M                                        0.0762 : Level Spacing
 NULL.                                      -999.2500 : Absent Value
 COMP.       PANAMERICAN ENERGY LLC                   : Company
 WELL.       PAE.Ch.PCD-1295(d)                       : Well
 FLD .       CERRO DRAGON                             : Field
 LOC .                                                : Location
 PROV.                                                : Province
 CTRY.                                                : Country
 SRVC.       Baker Hughes                             : Service Company
 DATE.       15-Oct-2021                              : Log Date
 UWI .                                                : Unique Well ID
 LIC .                                                : License Number
 EKB .                                          549.4 : KB
 EGL .                                          546.0 : GL
 APD .                                            3.4 : MESA
 FL1 .                      X: 5.764,35               :X(N)
 FL2 .                      Y:2.450.000,04            :Y(N)
 FL3 .                      Y:546,0                   :Z  (N)
 RIG .                                        DLS-336 : EQUIPO
~Curve Information Block
#MNEM    .UNIT        API Codes     Curve Description
#--------.--------   LG--CV-CL--M   ---------------------------------------------------
 DEPT    .M          99 995 99  1 : Depth
 CBL     .MV         81 524 99  1 : Waveform, 12-bit data with 4-bit gain code
 GR      .GAPI       30 310  1  1 : Gamma ray
 LSN     .CPS        42 334 31  1 : Long space neutron
 SSN     .CPS        42 334 30  1 : Short space count rate
 TEN     .LBF        99 635 99  1 : Differential tension
 TTEN    .LBF        99 635 99  1 : Total tension
 WCCL    .V          99 150 99  1 : Wireline telemetry casing collar locator
~Parameter Information Block
#MNEM.UNIT                     Value                    Description
#----.----   ----------------------------------------   -------------------------------
 APIN.                                                : API Serial Number
 STAT.                                                : State Or Province
 LATI.DEG    0.0000                                   : Latitude
 LONG.DEG    0.0000                                   : Longitude
~Other information
#  Curve Data
~A   DEPT         CBL          GR           LSN          SSN          TEN          TTEN         WCCL      
# ...
    2166.2898       3.1960      74.0129     611.3901    1787.8414    1146.6661    4724.5068    -999.2500
    2166.3660       3.0990      73.7260     612.7950    1791.5437    1196.8689    4769.4209    -999.2500
    2166.4422       3.0544      73.0088     615.9929    1793.6180    1233.2350    4800.2808    -999.2500
    2166.5184       3.0658      72.0626     620.8962    1792.3651    1245.6631    4807.0771    -999.2500
    2166.5946       3.1250      71.1988     627.2612    1788.2257    1231.4824    4787.2583    -999.2500
    2166.6708       3.2131      70.6599     634.2111    1782.6921    1197.4734    4747.7021    -999.2500
    2166.7470       3.3039      70.5881     641.0429    1777.3439    1158.8291    4703.6675    -999.2500
    2166.8232       3.3700      70.9341     647.0836    1773.3452    1133.1581    4672.7549    -999.2500
    2166.8994       3.3941      71.5401     650.5098    1771.1545    1133.6852    4668.1338    -999.2500
    2166.9756       3.3770      72.2630     649.3062    1770.7760    1163.2042    4692.4863    -999.2500
    2167.0518       3.3343      72.9996     643.2777    1772.2146    1210.5356    4734.5273    -999.2500
    2167.1280       3.2888      73.7263     633.8638    1775.4636    1256.6418    4775.1431    -999.2500
    2167.2042       3.2588      74.4021     623.1646    1780.5176    1282.1384    4794.9639    -999.2500
    2167.2804       3.2494      74.8544     613.3392    1787.0233    1272.4529    4779.4995    -999.2500
    2167.3566       3.2531      74.8304     606.7449    1793.9839    1225.4690    4726.7822    -999.2500
    2167.4328       3.2589    -999.2500     605.4274    1800.3113    1152.3624    4648.1318    -999.2500
    2167.5090       3.2571    -999.2500     609.1924    1805.5330    1073.7012    4564.2236    -999.2500
    2167.5852       3.2440    -999.2500     614.4729    1809.6567    1015.3213    4500.9072    -999.2500
    2167.6614       3.2187    -999.2500     617.5814    1813.0720     997.6617    4478.5459    -999.2500
    2167.7376       3.1808    -999.2500     617.3499    1816.2460    1028.4316    4504.6826    -999.2500
    2167.8138       3.1335    -999.2500     614.7958    1819.0225    1100.2043    4571.7017    -999.2500
    2167.8900       3.0840    -999.2500     611.7178    1820.1008    1191.8417    4658.2915    -999.2500
    2167.9662       3.0401    -999.2500     609.5935    1817.7690    1276.5571    4737.5845    -999.2500
    2168.0424       3.0073    -999.2500     608.2060    1811.0208    1332.1606    4787.4058    -999.2500
    2168.1186       2.9880    -999.2500     606.4695    1800.2664    1348.3752    4797.6016    -999.2500
    2168.1948       2.9808    -999.2500     603.7184    1787.3965    1328.7557    4771.8940    -999.2500
    2168.2710       2.9803    -999.2500     600.3032    1775.1289    1287.6179    4724.7686    -999.2500
    2168.3472       2.9815    -999.2500     597.9343    1765.6774    1243.8672    4675.2251    -999.2500
    2168.4234       2.9822    -999.2500     599.5304    1760.0267    1214.4968    4640.2705    -999.2500
    2168.4996       2.9751    -999.2500     605.6619    1758.0830    1212.1110    4632.4194    -999.2500
    2168.5758       2.9490    -999.2500     614.0651    1759.2208    1240.7178    4655.5483    -999.2500
    2168.6520       2.8939    -999.2500     622.1190    1762.7104    1294.1165    4703.2998    -999.2500
    2168.7282       2.8068    -999.2500     627.6146    1768.4796    1358.7576    4762.0264    -999.2500
    2168.8044       2.6963    -999.2500     629.3429    1777.0372    1416.7151    4813.7646    -999.2500
    2168.8806       2.5822    -999.2500     628.1736    1788.5686    1451.4651    4842.0513    -999.2500
    2168.9568       2.4874    -999.2500     625.9438    1802.1833    1452.8124    4836.8042    -999.2500
    2169.0330       2.4333    -999.2500     623.6579    1816.2827    1420.7469    4798.1670    -999.2500
    2169.1092       2.4348    -999.2500     621.6162    1828.7888    1366.8318    4737.8213    -999.2500
    2169.1854       2.4907    -999.2500     619.5018    1838.0055    1311.1212    4675.9009    -999.2500
    2169.2616       2.5719    -999.2500     616.2751    1843.4709    1276.4287    4635.2100    -999.2500
    2169.3378       2.6405    -999.2500     611.8884    1846.0424    1278.1814    4631.1011    -999.2500
    2169.4140       2.6671    -999.2500    -999.2500    -999.2500    1317.5306    4664.5869    -999.2500
    2169.4902       2.6429    -999.2500    -999.2500    -999.2500    1380.9166    4721.9780    -999.2500
    2169.5664       2.5809    -999.2500    -999.2500    -999.2500    1445.7327    4780.5625    -999.2500
    2169.6426       2.5082    -999.2500    -999.2500    -999.2500    1490.8816    4819.2285    -999.2500
    2169.7188       2.4477    -999.2500    -999.2500    -999.2500    1504.8945    4826.5586    -999.2500
    2169.7950       2.4090    -999.2500    -999.2500    -999.2500    1488.4934    4803.3989    -999.2500
    2169.8712       2.3880    -999.2500    -999.2500    -999.2500    1449.5352    4757.7368    -999.2500
    2169.9474       2.3708    -999.2500    -999.2500    -999.2500    1398.3378    4700.0117    -999.2500
    2170.0236       2.3461    -999.2500    -999.2500    -999.2500    1347.2404    4642.6211    -999.2500
    2170.0998       2.3152    -999.2500    -999.2500    -999.2500    1310.3464    4599.6655    -999.2500
    2170.1760       2.2817    -999.2500    -999.2500    -999.2500    1302.0923    4585.4912    -999.2500
    2170.2522       2.2421    -999.2500    -999.2500    -999.2500    1331.6486    4609.1348    -999.2500
    2170.3284       2.1907    -999.2500    -999.2500    -999.2500    1396.6166    4668.0225    -999.2500
    2170.4046       2.1227    -999.2500    -999.2500    -999.2500    1481.9927    4747.0176    -999.2500
    2170.4808       2.0403    -999.2500    -999.2500    -999.2500    1564.5005    4822.7666    -999.2500
    2170.5570       1.9536    -999.2500    -999.2500    -999.2500    1621.8899    4873.0503    -999.2500
    2170.6332       1.8804    -999.2500    -999.2500    -999.2500    1642.0603    4885.8721    -999.2500
    2170.7094       1.8382    -999.2500    -999.2500    -999.2500    1625.0957    4861.4854    -999.2500
    2170.7856       1.8383    -999.2500    -999.2500    -999.2500    1579.6870    4808.7432    -999.2500
    2170.8618       1.8802    -999.2500    -999.2500    -999.2500    1519.6597    4741.6104    -999.2500
    2170.9380       1.9442    -999.2500    -999.2500    -999.2500    1461.3469    4676.4771    -999.2500
    2171.0142       1.9950    -999.2500    -999.2500    -999.2500    1421.5457    4630.1270    -999.2500
    2171.0904       1.9993    -999.2500    -999.2500    -999.2500    1415.5352    4617.7256    -999.2500
    2171.1666       1.9471    -999.2500    -999.2500    -999.2500    1449.3921    4645.1860    -999.2500
    2171.2428       1.8593    -999.2500    -999.2500    -999.2500    1515.4930    4704.6938    -999.2500
    2171.3190       1.7730    -999.2500    -999.2500    -999.2500    1594.9033    4777.1934    -999.2500
    2171.3952       1.7225    -999.2500    -999.2500    -999.2500    1663.5244    4838.5459    -999.2500
    2171.4714       1.7192    -999.2500    -999.2500    -999.2500    1701.8118    4869.2891    -999.2500
    2171.5476       1.7478    -999.2500    -999.2500    -999.2500    1701.6934    4861.4941    -999.2500
    2171.6238       1.7789    -999.2500    -999.2500    -999.2500    1666.7351    4818.9053    -999.2500
    2171.7000       1.7875    -999.2500    -999.2500    -999.2500    1609.9163    4754.6436    -999.2500
    2171.7762       1.7640    -999.2500    -999.2500    -999.2500    1549.4182    4686.9785    -999.2500
    2171.8524       1.7185    -999.2500    -999.2500    -999.2500    1502.4436    4633.1064    -999.2500
    2171.9286       1.6676    -999.2500    -999.2500    -999.2500    1481.6895    4605.6553    -999.2500
    2172.0048       1.6208    -999.2500    -999.2500    -999.2500    1493.1501    4610.4678    -999.2500
    2172.0810       1.5735    -999.2500    -999.2500    -999.2500    1533.7737    4644.3379    -999.2500
