~VERSION INFORMATION 
VERS  .    2.0                                     :CWLS Log ASCII Standard - VERSION 2.0
WRAP  .    NO                                      :One Line per Depth step
PROD  .    Schlumberger Technology Corp.           :LAS Producer
PROG  .    Horizon LASWriter 13.0.221437.3100      :LAS Program name and version
SOURCE.    2. CBL-VDL-Log[3]/Up                    :Run&Pass Information
CREA  .    12/05/2023                              :LAS Creation date {MM/DD/YYYY}
#--------------------------------------------------
~WELL INFORMATION 
#MNEM           .UNIT                      DATA            :DESCRIPTION
#----            ------          --------------            -----------------------------
STRT            .m                      3.65760            :START DEPTH
STOP            .m                   2738.01840            :STOP DEPTH
STEP            .m                       0.1524            :STEP
NULL            .                       -999.25            :NULL VALUE
COMP            .                PAN AMERICAN ENERGY LLC   :COMPANY
WELL            .                PAE.CH.LMS-1034(d)        :WELL NAME
FLD             .                LA MADRE SELVA            :FIELD NAME
RIGN            .                                          :Rig Name
RIGTYP          .                       Rigless            :Rig Type
SON             .                A.1011303.91.01           :Service Order Number
SRVC            .                  Schlumberger            :SERVICE COMPANY
DATE            .                    12/05/2023            :LOG DATE(Composite Date for Composite LAP) (MM/DD/YYYY)
CLAB            .                    Provincia:            :County Label
CNTY            .                        CHUBUT            :COUNTY
SLAB            .                            X:            :State/Province Label
STAT            .                             X            :STATE or PROVINCE
PROV            .                             X            :STATE or PROVINCE
CTRY            .                     ARGENTINA            :COUNTRY
CONT_REGION     .                    S. America            :Continent Region
SECT            .                       Rigless            :Section
TOWN            .                    4915900.85            :Township
RANG            .                    2544268.09            :Range
API             .                EARAD0040501021           :API NUMBER
UWI             .                                          :UNIQUE WELL ID
LUL             .                          ARCS            :Logging Unit Location
LUN             .                          7704            :Logging Unit Number
LOC             .                          ARCS            :FIELD LOCATION
FL1             .                                          :Field Location Line 1
FL2             .                                          :Field Location Line 2
LATI            .deg                 -45.908570            :LATITUDE
LONG            .deg                 -68.431750            :LONGITUDE
PDAT            .                            GL            :Local Permanent Datum
LMF             .                            DF            :Logging Measured From
APD             .m                      6.20000            :Elevation of Depth Reference (LMF) Above Permanent Datum
EPD             .m                    698.54000            :Elevation of Permanent Datum (PDAT) above Mean Sea Level
EKB             .m                      -999.25            :Elevation of Kelly Bushing Above Permanent Datum
EDF             .m                      6.20000            :Elevation of Drill Floor Above Permanent Datum
EGL             .m                      0.00000            :Elevation of Ground Level Above Permanent Datum
ECF             .m                      -999.25            :Elevation of Casing Flange above Permanent Datum
#--------------------------------------------------
~CURVE INFORMATION
#MNEM           .UNIT                  API CODE            :DESCRIPTION
#----            ------          --------------            -----------------------------
DEPT            .m                                         :                                                        Depth Index
CBL             .mV                                        :        (SCMT-HC)               (2in)                   CBL Amplitude
TT              .us                                        :        (SCMT-HC)               (2in)                   Transit Time for CBL
TENS            .lbf                                       :        (WLWorkflow)            (1in)                   Cable Tension
GR              .gAPI                                      :        (PSTP-E)                (6in)                   Gamma Ray
CCLC            .V                                         :        (PSTP-E)                (1in)                   CCL Computed Amplitude
#-------------------------------------------------------------
#            DEPT          CBL           TT         TENS           GR         CCLC 
#                    (SCMT-HC)    (SCMT-HC)  (WLWorkflo)     (PSTP-E)     (PSTP-E) 
#                                                                                  
#                        (2in)        (2in)        (1in)        (6in)        (1in) 
~ASCII
# ...
       1821.94200     73.84973    269.13170   2370.33379     44.84645      0.08285
       1822.09440     73.13807    269.17990   2295.00031     46.74500     -0.01484
       1822.24680     73.19232    269.25180   2386.00073     50.17740      0.34833
       1822.39920     74.24949    269.23700   2358.49985     48.24667     -0.05013
       1822.55160     74.36298    269.19420   2287.66705     52.53718     -0.07074
       1822.70400     68.76056    268.79420   2362.33284     55.11147      0.14172
       1822.85640     67.25524    270.84500   2269.99931     56.88131     -0.01274
       1823.00880     60.26558    272.45390   2342.00112     55.33672      0.19946
       1823.16120     58.84978    272.78080   2393.66671     54.29628      0.42088
       1823.31360     59.47536    272.81620   2352.00062     53.56689      0.76213
       1823.46600     58.88973    272.81010   2359.00117     52.36555     -2.74477
       1823.61840     47.46183    273.53790   2314.99932     52.64443     -0.01903
       1823.77080     73.01614    272.66690   2312.00037     51.40019      0.00437
       1823.92320     55.58917    268.73670   2329.00042     52.25829      0.32769
       1824.07560     72.25235    268.77440   2280.99921     49.04041     -0.10904
       1824.22800     72.09268    268.80420   2304.99981     46.27304     -0.62105
       1824.38040     72.12102    268.90190   2360.50065     42.84064      0.39030
       1824.53280     72.85031    268.91520   2306.49929     41.71439     -0.05332
       1824.68520     72.95679    268.91420   2357.66581     42.22924      0.43979
       1824.83760     73.60246    268.91020   2328.33274     43.60221      0.09544
       1824.99000     73.26440    268.85810   2355.99997     45.85472      0.00368
       1825.14240     73.98340    268.88950   2414.33340     45.68310      0.16741
       1825.29480     73.88474    268.93370   2342.66655     48.74008     -0.00578
       1825.44720     73.81322    268.93670   2334.49924     48.56846     -0.46682
       1825.59960     74.13626    269.01150   2347.99902     51.48600     -0.15283
       1825.75200     73.55151    268.96070   2292.99951     53.25583     -0.04791
       1825.90440     73.59068    268.96430   2349.33439     56.85985      0.15451
       1826.05680     74.21170    268.95930   2344.50099     57.18164      0.19577
       1826.20920     74.51485    268.91260   2285.49989     61.12889     -0.05917
       1826.36160     74.57492    268.90730   2341.49979     62.84510      0.14576
       1826.51400     73.99047    268.96120   2306.33293     63.32778     -0.00528
       1826.66640     73.83727    268.92210   2329.49949     61.95482     -0.17951
       1826.81880     74.11755    268.95990   2409.00093     61.28979      0.12501
       1826.97120     74.66782    268.98130   2360.66701     57.82521      0.01029
       1827.12360     74.43159    268.96710   2374.49950     53.70634     -0.19459
       1827.27600     74.37897    268.96220   2365.33404     50.97114     -0.07083
       1827.42840     74.50040    268.93010   2292.66680     50.79952     -0.07958
       1827.58080     74.39328    268.90580   2365.99947     52.00086     -0.06052
       1827.73320     74.38976    268.96980   2307.49969     52.80532      0.18408
       1827.88560     74.11751    268.96390   2275.99946     51.94722     -0.08899
       1828.03800     74.07327    268.98980   2426.33370     51.74343      0.27642
       1828.19040     73.92937    268.98730   2288.66745     51.88287     -0.20367
       1828.34280     74.20878    268.94740   2357.00037     51.53963      0.11308
       1828.49520     73.98628    268.97290   2386.49980     49.22276     -0.22451
       1828.64760     73.96904    268.97370   2284.33313     48.99751      0.10231
       1828.80000     74.00933    268.95390   2419.33315     48.82589     -0.25888
       1828.95240     74.04520    268.91910   2338.99992     47.05606      0.04373
       1829.10480     74.18242    268.88310   2270.50063     45.33986     -0.13472
       1829.25720     74.39381    268.91340   2397.00063     45.72600      0.28641
       1829.40960     73.96838    269.00180   2320.66675     47.83907     -0.00512
       1829.56200     73.98940    269.01750   2293.99991     47.89270      0.13506
       1829.71440     73.96563    269.02080   2386.00073     50.20957     -0.09551
       1829.86680     74.20605    268.93370   2287.66705     50.72443      0.00168
       1830.01920     74.39236    268.92390   2378.50110     51.36801     -0.16157
       1830.17160     74.19563    268.93020   2401.33270     49.65181      0.05377
       1830.32400     74.04881    268.96370   2287.66705     52.34410      0.00404
       1830.47640     74.00778    268.94360   2448.00078     50.67080      0.08700
       1830.62880     74.20763    269.00960   2362.00012     50.15594     -0.01010
       1830.78120     74.01594    269.01000   2366.66716     48.09650     -0.06683
       1830.93360     74.13477    269.02430   2425.00058     49.63036     -0.03134
       1831.08600     74.42510    269.01670   2238.49998     47.57092      0.00470
       1831.23840     74.32191    268.98580   2319.99907     48.38611      0.03171
       1831.39080     74.57245    269.01050   2363.49960     50.39192     -0.08724
       1831.54320     74.28298    268.98550   2222.99985     50.90678      0.01983
       1831.69560     74.55432    269.00230   2404.33389     51.43237     -0.10668
       1831.84800     74.56591    269.01880   2424.33290     51.28220     -0.01954
       1832.00040     74.22850    269.06160   2253.99966     50.25248      0.06794
       1832.15280     74.44920    269.05580   2471.33370     48.96533      0.06490
       1832.30520     74.10166    269.07260   2327.50094     51.02477      0.18949
       1832.45760     74.32577    269.05530   2376.99938     50.98186     -0.11485
       1832.61000     74.37790    269.03790   2464.00044     51.99013      0.17379
       1832.76240     74.50816    269.02340   2320.50039     53.19147     -0.17299
       1832.91480     74.34241    269.03530   2370.00107     55.28309      0.07729
       1833.06720     74.18459    269.07790   2386.00073     53.05202     -0.40657
       1833.21960     74.17384    269.07620   2282.33233     51.55035      0.17426
       1833.37200     73.92516    269.09320   2362.00012     48.61137     -0.24110
       1833.52440     74.15478    269.13270   2320.50039     49.12622      0.31060
       1833.67680     74.13603    269.13460   2328.49909     48.71862     -0.10797
       1833.82920     74.27802    269.14710   2458.66572     50.77807      0.13485
       1833.98160     74.02461    269.07980   2338.99992     51.46455      0.17482
       1834.13400     73.74661    269.07450   2388.50060     55.48689      0.04735
       1834.28640     73.66731    269.14330   2445.99998     56.68822     -0.16531
       1834.43880     70.13503    268.81480   2297.66655     53.77069     -0.06629
       1834.59120     59.84487    270.24790   2408.49960     53.26656      0.01028
       1834.74360     58.42909    272.62990   2405.50065     52.92332     -0.27537
       1834.89600     58.57110    273.22790   2257.66629     48.57919      0.56149
       1835.04840     60.26160    273.24920   2394.99983     47.54947      1.34108
       1835.20080     59.98906    273.21540   2296.49979     46.86298     -2.07537
       1835.35320     55.51239    272.28410   2289.00016     46.54120     -0.08856
       1835.50560     56.06683    272.73900   2441.00023     46.71282      0.03813
       1835.65800     56.58144    268.96010   2351.00022     45.85471      0.00442
       1835.81040     73.77650    269.23730   2389.50100     47.23840      0.06521
       1835.96280     73.64828    269.20290   2461.33420     49.98433     -0.89164
       1836.11520     74.05812    269.22910   2301.33318     49.95214      0.41456
       1836.26760     74.14050    269.19920   2374.00042     48.92242     -0.07725
       1836.42000     74.14874    269.16610   2397.49970     51.38946      0.18327
       1836.57240     74.05957    269.10720   2323.33298     48.63282      0.04390
