~VERSION INFORMATION 
VERS  .    2.0                                     :CWLS Log ASCII Standard - VERSION 2.0
WRAP  .    NO                                      :One Line per Depth step
PROD  .    Schlumberger Technology Corp.           :LAS Producer
PROG  .    Horizon LASWriter 13.0.221437.3100      :LAS Program name and version
SOURCE.    2. CBL-VDL-Log[3]/Up                    :Run&Pass Information
CREA  .    12/05/2023                              :LAS Creation date {MM/DD/YYYY}
#--------------------------------------------------
~WELL INFORMATION 
#MNEM           .UNIT                      DATA            :DESCRIPTION
#----            ------          --------------            -----------------------------
STRT            .m                      3.65760            :START DEPTH
STOP            .m                   2738.01840            :STOP DEPTH
STEP            .m                       0.1524            :STEP
NULL            .                       -999.25            :NULL VALUE
COMP            .                PAN AMERICAN ENERGY LLC   :COMPANY
WELL            .                PAE.CH.LMS-1034(d)        :WELL NAME
FLD             .                LA MADRE SELVA            :FIELD NAME
RIGN            .                                          :Rig Name
RIGTYP          .                       Rigless            :Rig Type
SON             .                A.1011303.91.01           :Service Order Number
SRVC            .                  Schlumberger            :SERVICE COMPANY
DATE            .                    12/05/2023            :LOG DATE(Composite Date for Composite LAP) (MM/DD/YYYY)
CLAB            .                    Provincia:            :County Label
CNTY            .                        CHUBUT            :COUNTY
SLAB            .                            X:            :State/Province Label
STAT            .                             X            :STATE or PROVINCE
PROV            .                             X            :STATE or PROVINCE
CTRY            .                     ARGENTINA            :COUNTRY
CONT_REGION     .                    S. America            :Continent Region
SECT            .                       Rigless            :Section
TOWN            .                    4915900.85            :Township
RANG            .                    2544268.09            :Range
API             .                EARAD0040501021           :API NUMBER
UWI             .                                          :UNIQUE WELL ID
LUL             .                          ARCS            :Logging Unit Location
LUN             .                          7704            :Logging Unit Number
LOC             .                          ARCS            :FIELD LOCATION
FL1             .                                          :Field Location Line 1
FL2             .                                          :Field Location Line 2
LATI            .deg                 -45.908570            :LATITUDE
LONG            .deg                 -68.431750            :LONGITUDE
PDAT            .                            GL            :Local Permanent Datum
LMF             .                            DF            :Logging Measured From
APD             .m                      6.20000            :Elevation of Depth Reference (LMF) Above Permanent Datum
EPD             .m                    698.54000            :Elevation of Permanent Datum (PDAT) above Mean Sea Level
EKB             .m                      -999.25            :Elevation of Kelly Bushing Above Permanent Datum
EDF             .m                      6.20000            :Elevation of Drill Floor Above Permanent Datum
EGL             .m                      0.00000            :Elevation of Ground Level Above Permanent Datum
ECF             .m                      -999.25            :Elevation of Casing Flange above Permanent Datum
#--------------------------------------------------
~CURVE INFORMATION
#MNEM           .UNIT                  API CODE            :DESCRIPTION
#----            ------          --------------            -----------------------------
DEPT            .m                                         :                                                        Depth Index
CBL             .mV                                        :        (SCMT-HC)               (2in)                   CBL Amplitude
TT              .us                                        :        (SCMT-HC)               (2in)                   Transit Time for CBL
TENS            .lbf                                       :        (WLWorkflow)            (1in)                   Cable Tension
GR              .gAPI                                      :        (PSTP-E)                (6in)                   Gamma Ray
CCLC            .V                                         :        (PSTP-E)                (1in)                   CCL Computed Amplitude
#-------------------------------------------------------------
#            DEPT          CBL           TT         TENS           GR         CCLC 
#                    (SCMT-HC)    (SCMT-HC)  (WLWorkflo)     (PSTP-E)     (PSTP-E) 
#                                                                                  
#                        (2in)        (2in)        (1in)        (6in)        (1in) 
~ASCII
# ...
        728.01480     56.35876    267.57200   1018.00009     12.18502     -0.10934
        728.16720     55.79344    267.57390   1000.00009     12.35664      0.11179
        728.31960     55.54984    267.52610   1036.66665     12.03485     -0.02834
        728.47200     52.74513    267.43470   1023.00006     11.86323      0.03329
        728.62440     53.47353    267.57950   1046.99999     12.02413     -0.02714
        728.77680     54.11855    267.65040   1055.50002     12.69988      0.07203
        728.92920     53.83861    267.72180   1042.33341     13.17183     -0.00473
        729.08160     54.34076    267.61100   1065.33339     14.13720      0.00657
        729.23400     53.74555    267.62610   1065.99995     15.33854     -0.00052
        729.38640     53.33651    267.66330   1054.33326     15.35999     -0.13132
        729.53880     54.58987    267.67330   1024.99997     14.84513      0.08212
        729.69120     50.92298    267.18500   1031.99984     16.60424     -0.05825
        729.84360     44.55264    268.86640   1045.00009     15.47798      0.18066
        729.99600     35.17901    272.57160   1036.00009     15.13474     -0.09302
        730.14840     41.86016    270.93920   1032.00007     15.27418      1.15537
        730.30080     42.15491    270.88460   1052.66675     16.47552      0.33047
        730.45320     43.27655    270.97870   1048.33333     15.35999     -3.25492
        730.60560     35.09948    271.16090   1056.33339     17.45161      0.50200
        730.75800     48.34288    271.33890   1062.99987     17.96647      0.47914
        730.91040     41.09163    269.50780   1041.50004     18.77094      0.08753
        731.06280     53.27991    267.70300   1043.49994     18.94256     -0.15280
        731.21520     53.47304    267.69570   1054.33349     17.97719      0.02629
        731.36760     53.95917    267.65670   1059.33324     17.97720      0.37105
        731.52000     53.51934    267.68460   1057.00017     19.00692      0.06107
        731.67240     54.00646    267.69730   1042.99997     19.26435     -0.02010
        731.82480     53.21798    267.57870   1046.99999     19.33943      0.05737
        731.97720     52.86971    267.59120   1059.50004     19.33943     -0.18594
        732.12960     52.47644    267.47170   1059.00007     19.27507      0.05544
        732.28200     51.49494    267.44000   1033.00002     18.37407      0.03550
        732.43440     52.32090    267.36510   1058.00012     18.54569     -0.00685
        732.58680     53.38506    267.36370   1065.66678     16.93675     -0.10214
        732.73920     53.71915    267.26210   1094.50010     17.30144     -0.03427
        732.89160     55.50732    267.50580   1092.49997     15.91776      0.10376
        733.04400     57.60897    267.54750   1069.99997     15.27418     -0.00334
        733.19640     57.04148    267.54940   1062.66670     14.52334      0.12618
        733.34880     57.06301    267.42950   1055.33321     14.51262     -0.10890
        733.50120     55.00351    267.22760   1042.00002     13.02167      0.12220
        733.65360     53.32505    267.16090   1039.33333     12.05630     -0.02807
        733.80600     51.87630    267.21090   1027.50007     11.19821      0.20679
        733.95840     52.06399    267.20820   1051.49999     10.55463     -0.45243
        734.11080     51.35040    267.19980   1070.99992     10.38301      0.11267
        734.26320     50.87980    267.15160   1058.33329     12.15284     -0.17329
        734.41560     50.01057    267.16640   1065.00000     12.95731      0.21225
        734.56800     49.10389    267.13890   1078.99997     14.78077     -0.10422
        734.72040     48.01254    267.11400   1080.00015     13.94413     -0.03514
        734.87280     45.73869    266.90110   1074.66656     16.37898      0.01473
        735.02520     44.36267    266.88210   1076.66668     16.27172      0.06032
        735.17760     43.46770    266.94230   1097.33337     17.71976      0.00697
        735.33000     44.38676    266.91970   1080.33331     17.44088      0.01603
        735.48240     43.70887    267.05800   1032.00007     19.72557      0.04261
        735.63480     42.09960    267.04530   1070.99992     18.66368     -0.08059
        735.78720     41.15242    266.99600   1063.50007     17.96647      0.03123
        735.93960     36.92534    267.00650   1064.66683     17.48379     -0.14465
        736.09200     34.48295    266.68320   1077.33346     17.65541      0.07204
        736.24440     32.84974    266.71120   1079.66676     17.65541     -0.08641
        736.39680     31.44577    266.85560   1081.33326     18.87820      0.11111
        736.54920     32.20748    266.92700   1077.33324     23.52267     -0.10880
        736.70160     33.30882    266.88850   1062.66670     23.68356      0.07251
        736.85400     31.67469    266.93550   1081.50007     23.68356     -0.10778
        737.00640     34.03997    266.74800   1071.50012     22.71820      0.10371
        737.15880     36.63398    267.08550   1043.33336     21.32379     -0.05344
        737.31120     36.94479    267.10600   1056.33339     16.51842     -0.00527
        737.46360     36.49395    267.06810   1060.99997     16.42189      0.00382
        737.61600     36.58054    267.08030   1078.99997     15.88558     -0.00111
        737.76840     35.97299    267.20610   1079.99992     15.93921     -0.06695
        737.92080     36.41838    267.20360   1101.49998     14.59843      0.00171
        738.07320     37.24417    267.32140   1076.50010     15.62815      0.03658
        738.22560     38.58368    267.24620   1079.33336     15.40290      0.01734
        738.37800     39.31925    267.23900   1070.99992     16.79731      0.00346
        738.53040     38.94687    267.24830   1096.99997     17.22636     -0.07748
        738.68280     38.87358    267.15390   1083.99995     18.35261      0.07023
        738.83520     39.49596    267.27820   1045.00009     19.72557     -0.08537
        738.98760     40.21480    267.43650   1058.00012     18.92110      0.16268
        739.14000     41.24664    267.32570   1060.33341     18.33116     -0.11540
        739.29240     41.45409    267.38270   1057.66673     18.41697      0.07220
        739.44480     42.12622    267.39990   1074.00000     17.77340     -0.12344
        739.59720     44.62105    267.39310   1062.99987     16.17518      0.18812
        739.74960     44.51125    267.48120   1068.00007     16.86166     -0.15117
        739.90200     44.42363    267.38460   1060.66680     16.53988      0.04415
        740.05440     43.87457    267.41390   1076.66668     15.85340     -0.09521
        740.20680     43.49418    267.38690   1099.50008     18.91038      0.07096
        740.35920     40.00333    267.15720   1063.00010     18.96401     -0.06479
        740.51160     41.39259    267.40700   1045.50007     19.56468      0.01562
        740.66400     40.66177    267.33170   1064.33344     19.27507      0.08978
        740.81640     41.37994    267.47970   1104.50005     19.07127     -0.06427
        740.96880     42.44669    267.48440   1110.33339     16.70077     -0.01670
        741.12120     42.99116    267.45090   1074.99995     17.61250     -0.08449
        741.27360     46.89775    267.57640   1070.99992     17.35507      0.11758
        741.42600     51.93765    267.68990   1060.66680     18.61004     -0.10734
        741.57840     53.15944    267.78880   1081.50007     18.47060      0.12063
        741.73080     53.60047    267.82990   1085.66668     19.71485     -0.08420
        741.88320     53.29093    267.84340   1069.66658     18.45988      0.18230
        742.03560     52.22496    267.80730   1057.00017     17.59105     -0.15120
        742.18800     51.88032    267.71310   1043.33336     15.49943     -0.01356
        742.34040     41.27050    268.82500   1055.99999     16.18591      0.06233
        742.49280     40.99057    270.58260   1047.66655     14.57697     -0.00944
        742.64520     36.68793    270.93740   1088.49995     14.57697      0.56909
