~VERSION INFORMATION 
VERS  .    2.0                                     :CWLS Log ASCII Standard - VERSION 2.0
WRAP  .    NO                                      :One Line per Depth step
PROD  .    Schlumberger Technology Corp.           :LAS Producer
PROG  .    Horizon LASWriter 13.0.221437.3100      :LAS Program name and version
SOURCE.    2. CBL-VDL-Log[3]/Up                    :Run&Pass Information
CREA  .    12/05/2023                              :LAS Creation date {MM/DD/YYYY}
#--------------------------------------------------
~WELL INFORMATION 
#MNEM           .UNIT                      DATA            :DESCRIPTION
#----            ------          --------------            -----------------------------
STRT            .m                      3.65760            :START DEPTH
STOP            .m                   2738.01840            :STOP DEPTH
STEP            .m                       0.1524            :STEP
NULL            .                       -999.25            :NULL VALUE
COMP            .                PAN AMERICAN ENERGY LLC   :COMPANY
WELL            .                PAE.CH.LMS-1034(d)        :WELL NAME
FLD             .                LA MADRE SELVA            :FIELD NAME
RIGN            .                                          :Rig Name
RIGTYP          .                       Rigless            :Rig Type
SON             .                A.1011303.91.01           :Service Order Number
SRVC            .                  Schlumberger            :SERVICE COMPANY
DATE            .                    12/05/2023            :LOG DATE(Composite Date for Composite LAP) (MM/DD/YYYY)
CLAB            .                    Provincia:            :County Label
CNTY            .                        CHUBUT            :COUNTY
SLAB            .                            X:            :State/Province Label
STAT            .                             X            :STATE or PROVINCE
PROV            .                             X            :STATE or PROVINCE
CTRY            .                     ARGENTINA            :COUNTRY
CONT_REGION     .                    S. America            :Continent Region
SECT            .                       Rigless            :Section
TOWN            .                    4915900.85            :Township
RANG            .                    2544268.09            :Range
API             .                EARAD0040501021           :API NUMBER
UWI             .                                          :UNIQUE WELL ID
LUL             .                          ARCS            :Logging Unit Location
LUN             .                          7704            :Logging Unit Number
LOC             .                          ARCS            :FIELD LOCATION
FL1             .                                          :Field Location Line 1
FL2             .                                          :Field Location Line 2
LATI            .deg                 -45.908570            :LATITUDE
LONG            .deg                 -68.431750            :LONGITUDE
PDAT            .                            GL            :Local Permanent Datum
LMF             .                            DF            :Logging Measured From
APD             .m                      6.20000            :Elevation of Depth Reference (LMF) Above Permanent Datum
EPD             .m                    698.54000            :Elevation of Permanent Datum (PDAT) above Mean Sea Level
EKB             .m                      -999.25            :Elevation of Kelly Bushing Above Permanent Datum
EDF             .m                      6.20000            :Elevation of Drill Floor Above Permanent Datum
EGL             .m                      0.00000            :Elevation of Ground Level Above Permanent Datum
ECF             .m                      -999.25            :Elevation of Casing Flange above Permanent Datum
#--------------------------------------------------
~CURVE INFORMATION
#MNEM           .UNIT                  API CODE            :DESCRIPTION
#----            ------          --------------            -----------------------------
DEPT            .m                                         :                                                        Depth Index
CBL             .mV                                        :        (SCMT-HC)               (2in)                   CBL Amplitude
TT              .us                                        :        (SCMT-HC)               (2in)                   Transit Time for CBL
TENS            .lbf                                       :        (WLWorkflow)            (1in)                   Cable Tension
GR              .gAPI                                      :        (PSTP-E)                (6in)                   Gamma Ray
CCLC            .V                                         :        (PSTP-E)                (1in)                   CCL Computed Amplitude
#-------------------------------------------------------------
#            DEPT          CBL           TT         TENS           GR         CCLC 
#                    (SCMT-HC)    (SCMT-HC)  (WLWorkflo)     (PSTP-E)     (PSTP-E) 
#                                                                                  
#                        (2in)        (2in)        (1in)        (6in)        (1in) 
~ASCII
# ...
        905.40840     41.13457    267.09660   1236.99997     34.08802     -0.08790
        905.56080     34.11471    266.94200   1237.99992     34.21674      0.08103
        905.71320     27.13382    267.11330   1226.66663     35.30009     -0.04977
        905.86560     23.47808    266.82460   1233.99989     32.46836      0.11770
        906.01800     22.78064    266.74990   1253.50005     32.69361     -0.14359
        906.17040     21.07216    266.61550   1240.99999     31.85696      0.11196
        906.32280     19.14590    265.33940   1241.99994     31.72825     -0.03670
        906.47520     22.41471    268.76990   1218.33341     29.95842     -0.06048
        906.62760     20.45302    272.42060   1253.00007     30.85942      0.14021
        906.78000     29.22550    270.82920   1247.00015     31.14903      0.63640
        906.93240     32.26801    271.10440   1235.00007     31.02031      0.59682
        907.08480     35.45951    271.17610   1227.99997     30.29093     -2.84259
        907.23720     30.46684    272.65110   1250.00000     30.63417     -0.13260
        907.38960     49.44347    271.56030   1196.49996     28.86434      0.15134
        907.54200     46.65945    269.28260   1206.00016     29.20758      0.12750
        907.69440     61.68463    267.80800   1228.00019     29.52937     -0.07405
        907.84680     62.09744    267.73160   1248.00010     26.95507     -0.02439
        907.99920     61.90392    267.65510   1244.66663     25.64646      0.02477
        908.15160     61.87406    267.69490   1226.66663     24.11261      0.16131
        908.30400     63.02995    267.70750   1225.50009     19.94010     -0.10278
        908.45640     62.36965    267.68230   1247.33331     20.60513      0.09867
        908.60880     62.50801    267.69490   1227.00002     23.10434     -0.25106
        908.76120     62.57400    267.66180   1241.99994     24.06971      0.12136
        908.91360     62.28166    267.61960   1219.33336     25.60356     -0.09615
        909.06600     63.13084    267.77510   1230.66665     26.34367      0.09522
        909.21840     63.37271    267.74390   1214.66655     25.19596     -0.11079
        909.37080     63.92509    267.74030   1221.66665     23.89808      0.01485
        909.52320     64.25620    267.75540   1217.00007     22.93272      0.05147
        909.67560     63.66724    267.74430   1223.66678     22.28915     -0.06973
        909.82800     63.69279    267.72250   1208.00006     24.86345      0.10331
        909.98040     63.69608    267.79190   1232.66678     25.49630     -0.15487
        910.13280     63.55363    267.80510   1239.00009     26.95507      0.15807
        910.28520     63.65810    267.78640   1245.00002     30.83797     -0.17947
        910.43760     63.63979    267.81240   1263.00002     33.57316      0.13456
        910.59000     63.86639    267.72300   1272.99997     32.71506     -0.16027
        910.74240     64.05452    267.74640   1228.33336     32.72579      0.05518
        910.89480     64.72322    267.76730   1227.00002     33.15484     -0.11751
        911.04720     64.85758    267.76810   1241.99994     29.75462      0.11118
        911.19960     64.88863    267.81970   1227.49999     31.27774      0.03979
        911.35200     64.96505    267.76070   1214.99994     32.03931      0.21527
        911.50440     64.84533    267.76410   1241.33339     34.45272     -0.01372
        911.65680     65.17616    267.72510   1228.33336     37.02702     -0.05184
        911.80920     64.90589    267.69350   1237.49994     39.44042      0.03185
        911.96160     65.38159    267.70240   1263.66658     40.47014     -0.12769
        912.11400     63.78332    267.69180   1268.49997     39.98746      0.11690
        912.26640     61.61397    267.73940   1253.00007     38.24981     -0.13058
        912.41880     58.84034    267.66260   1261.00012     33.47663      0.08680
        912.57120     55.87886    267.64170   1263.00002     31.88914     -0.14270
        912.72360     53.25187    267.63410   1239.66665     27.94188     -0.02822
        912.87600     50.76416    267.49880   1246.49995     27.13741     -0.17566
        913.02840     48.35542    267.40420   1230.66665     25.81808      0.09160
        913.18080     46.88390    267.32170   1228.99992     27.15886     -0.01443
        913.33320     47.47380    267.32520   1230.00009     28.26367     -0.00521
        913.48560     49.18503    267.32530   1233.66673     28.09205     -0.01182
        913.63800     51.22049    267.34880   1257.50007     29.64735     -0.01315
        913.79040     53.40279    267.56710   1257.50007     32.06076      0.00924
        913.94280     54.62931    267.70900   1239.33349     33.43372     -0.00915
        914.09520     55.02337    267.76790   1250.00000     33.27282     -0.00552
        914.24760     52.74633    267.74680   1243.00012     31.78188     -0.08613
        914.40000     50.41713    267.75350   1207.66667     29.55082      0.10850
        914.55240     47.67619    267.67060   1274.33332     28.10277     -0.05280
        914.70480     44.64852    267.66090   1221.50007     27.64155      0.11020
        914.85720     41.74004    267.62720   1258.00005     26.18278     -0.07464
        915.00960     38.61539    267.49980   1240.66660     25.53920      0.00971
        915.16200     37.73377    267.54430   1240.00004     25.02434     -0.02737
        915.31440     37.04552    267.71650   1227.99997     24.54166      0.04210
        915.46680     36.60950    267.64910   1236.33341     23.45831     -0.00287
        915.61920     36.83933    267.63870   1244.66663     23.79082     -0.01837
        915.77160     36.84150    267.60580   1272.00002     25.92535     -0.00404
        915.92400     36.91766    267.49440   1268.33339     27.43775     -0.04819
        916.07640     36.59317    267.50930   1254.50000     28.40311      0.10771
        916.22880     36.01138    267.36760   1230.00009     27.07306     -0.10971
        916.38120     36.02978    267.37980   1245.99997     26.42948      0.16233
        916.53360     35.79932    267.34580   1229.33331     24.61674     -0.12986
        916.68600     34.96847    267.31020   1206.49991     22.24624     -0.01105
        916.83840     34.65004    266.99180   1269.33334     20.63730      0.00436
        916.99080     33.96442    266.88710   1254.00002     19.02837      0.03520
        917.14320     33.36116    266.79140   1261.00012     17.90211     -0.00046
        917.29560     32.73832    266.76610   1260.33334     18.54569     -0.01504
        917.44800     33.30360    266.81150   1276.50002     19.62904      0.10248
        917.60040     37.06657    266.86840   1228.50017     19.95082     -0.02649
        917.75280     41.05750    267.16580   1278.99990     24.77764      0.16981
        917.90520     45.34167    267.11930   1231.00004     33.46590     -0.07153
        918.05760     49.75892    267.30210   1233.99989     37.97092      0.09128
        918.21000     56.01265    267.55010   1244.00007     43.58075     -0.14000
        918.36240     63.02354    267.61210   1236.00002     49.69471      0.06542
        918.51480     64.35048    267.76320   1250.49997     53.23438     -0.10816
        918.66720     63.92458    267.89830   1223.33338     51.62544      0.19698
        918.81960     63.70041    267.91540   1209.49999     54.12466     -0.28442
        918.97200     63.09855    267.97450   1226.00007     56.39862      0.16638
        919.12440     50.25883    267.98480   1254.66680     56.07684     -0.11836
        919.27680     48.64688    272.09010   1229.33331     56.88131      0.09482
        919.42920     43.70503    271.93810   1262.50005     56.07683      0.06199
        919.58160     45.30392    272.24840   1240.33344     55.66924      2.05254
        919.73400     45.56587    272.31980   1230.33326     53.56689     -1.62614
        919.88640     37.04244    271.52170   1253.50005     55.01493     -0.18520
        920.03880     52.85997    273.08670   1221.00009     53.88868      0.17523
