~VERSION INFORMATION 
VERS  .    2.0                                     :CWLS Log ASCII Standard - VERSION 2.0
WRAP  .    NO                                      :One Line per Depth step
PROD  .    Schlumberger Technology Corp.           :LAS Producer
PROG  .    Horizon LASWriter 13.0.221437.3100      :LAS Program name and version
SOURCE.    2. CBL-VDL-Log[3]/Up                    :Run&Pass Information
CREA  .    12/05/2023                              :LAS Creation date {MM/DD/YYYY}
#--------------------------------------------------
~WELL INFORMATION 
#MNEM           .UNIT                      DATA            :DESCRIPTION
#----            ------          --------------            -----------------------------
STRT            .m                      3.65760            :START DEPTH
STOP            .m                   2738.01840            :STOP DEPTH
STEP            .m                       0.1524            :STEP
NULL            .                       -999.25            :NULL VALUE
COMP            .                PAN AMERICAN ENERGY LLC   :COMPANY
WELL            .                PAE.CH.LMS-1034(d)        :WELL NAME
FLD             .                LA MADRE SELVA            :FIELD NAME
RIGN            .                                          :Rig Name
RIGTYP          .                       Rigless            :Rig Type
SON             .                A.1011303.91.01           :Service Order Number
SRVC            .                  Schlumberger            :SERVICE COMPANY
DATE            .                    12/05/2023            :LOG DATE(Composite Date for Composite LAP) (MM/DD/YYYY)
CLAB            .                    Provincia:            :County Label
CNTY            .                        CHUBUT            :COUNTY
SLAB            .                            X:            :State/Province Label
STAT            .                             X            :STATE or PROVINCE
PROV            .                             X            :STATE or PROVINCE
CTRY            .                     ARGENTINA            :COUNTRY
CONT_REGION     .                    S. America            :Continent Region
SECT            .                       Rigless            :Section
TOWN            .                    4915900.85            :Township
RANG            .                    2544268.09            :Range
API             .                EARAD0040501021           :API NUMBER
UWI             .                                          :UNIQUE WELL ID
LUL             .                          ARCS            :Logging Unit Location
LUN             .                          7704            :Logging Unit Number
LOC             .                          ARCS            :FIELD LOCATION
FL1             .                                          :Field Location Line 1
FL2             .                                          :Field Location Line 2
LATI            .deg                 -45.908570            :LATITUDE
LONG            .deg                 -68.431750            :LONGITUDE
PDAT            .                            GL            :Local Permanent Datum
LMF             .                            DF            :Logging Measured From
APD             .m                      6.20000            :Elevation of Depth Reference (LMF) Above Permanent Datum
EPD             .m                    698.54000            :Elevation of Permanent Datum (PDAT) above Mean Sea Level
EKB             .m                      -999.25            :Elevation of Kelly Bushing Above Permanent Datum
EDF             .m                      6.20000            :Elevation of Drill Floor Above Permanent Datum
EGL             .m                      0.00000            :Elevation of Ground Level Above Permanent Datum
ECF             .m                      -999.25            :Elevation of Casing Flange above Permanent Datum
#--------------------------------------------------
~CURVE INFORMATION
#MNEM           .UNIT                  API CODE            :DESCRIPTION
#----            ------          --------------            -----------------------------
DEPT            .m                                         :                                                        Depth Index
CBL             .mV                                        :        (SCMT-HC)               (2in)                   CBL Amplitude
TT              .us                                        :        (SCMT-HC)               (2in)                   Transit Time for CBL
TENS            .lbf                                       :        (WLWorkflow)            (1in)                   Cable Tension
GR              .gAPI                                      :        (PSTP-E)                (6in)                   Gamma Ray
CCLC            .V                                         :        (PSTP-E)                (1in)                   CCL Computed Amplitude
#-------------------------------------------------------------
#            DEPT          CBL           TT         TENS           GR         CCLC 
#                    (SCMT-HC)    (SCMT-HC)  (WLWorkflo)     (PSTP-E)     (PSTP-E) 
#                                                                                  
#                        (2in)        (2in)        (1in)        (6in)        (1in) 
~ASCII
# ...
       2546.29920      3.79560    269.53160   3099.00027     57.42834      0.39702
       2546.45160      3.76630    269.64400   3090.99932     56.24845      0.08580
       2546.60400      3.91139    269.54360   3079.50035     54.13538     -0.03634
       2546.75640      3.81652    268.95430   3058.66730     54.65025     -0.14019
       2546.90880      3.76203    268.96580   3069.66720     56.90275     -0.10427
       2547.06120      3.60878    268.97930   3009.00026     54.15684     -0.00541
       2547.21360      3.95336    268.90270   3058.66730     51.09985      0.16573
       2547.36600      4.47206    268.43550   3080.50075     49.67327      0.35921
       2547.51840      4.15376    268.46510   3051.66675     47.78544     -0.03038
       2547.67080      4.46519    268.48190   3084.66645     46.50902     -0.02764
       2547.82320      4.22524    268.81550   3069.99992     47.32421      0.09674
       2547.97560      4.02478    269.71870   3077.66590     53.92086     -0.09180
       2548.12800      3.51321    270.11930   3079.99942     57.75013      0.02831
       2548.28040      3.08751    270.28450   3106.00082     58.70477     -0.11890
       2548.43280      2.68694    270.78570   3091.66701     59.73449     -0.07471
       2548.58520      2.38684    271.53430   3076.49915     61.98700     -0.02316
       2548.73760      2.27900    272.05000   3068.99952     61.51505     -0.00618
       2548.89000      2.07577    275.43430   3082.00022     60.90365     -0.16527
       2549.04240      2.01361    274.21110   3067.99912     60.97873      0.34146
       2549.19480      1.85405    276.00820   3050.99907     60.12063     -0.09335
       2549.34720      1.81428    353.00000   3064.50109     56.90276     -0.08860
       2549.49960      1.87876    318.69780   3029.50059     53.12712      0.68508
       2549.65200      2.09119    274.32520   3046.66700     50.39192      0.40747
       2549.80440      2.04633    274.45000   3093.00012     49.67326      0.00935
       2549.95680      2.02140    274.05700   3098.49895     54.13538      0.06750
       2550.10920      2.26737    273.30430   3119.66696     60.41024      0.17392
       2550.26160      2.57534    271.96950   3083.49970     66.93180     -0.29222
       2550.41400      2.69359    271.81550   3085.99957     69.02342     -0.07789
       2550.56640      2.69341    272.59740   3156.66601     70.47146     -0.00288
       2550.71880      2.63989    271.67930   3074.50059     70.98632     -0.21007
       2550.87120      2.62879    271.66570   3072.00072     69.21648     -0.07798
       2551.02360      2.81526    272.93990   3078.33359     66.29894     -0.26624
       2551.17600      2.32603    278.95500   3060.49949     66.45985     -0.73071
       2551.32840      2.76026    275.32230   3050.66635     65.73045      0.74585
       2551.48080      2.81764    275.48390   3024.99991     60.41024      0.04758
       2551.63320      2.73084    275.28450   3080.50075     59.48778     -0.85284
       2551.78560      2.21620    275.58860   3101.99922     58.68331      1.78811
       2551.93800      2.28619    276.68630   3098.49895     57.71795     -0.05898
       2552.09040      2.83885    273.37380   3121.66776     60.53895     -0.09647
       2552.24280      1.91661    353.00000   3162.00073     61.74030     -0.13487
       2552.39520      1.81111    353.00000   3098.49895     59.92756     -0.93188
       2552.54760      1.77130    353.00000   3076.66775     59.60577     -0.03939
       2552.70000      1.86786    353.00000   3046.99972     59.09091      0.25670
       2552.85240      1.86480    353.00000   3053.49894     55.71215      0.18418
       2553.00480      2.03327    274.80990   3022.99911     55.71215      0.37011
       2553.15720      2.10757    274.42020   3038.00061     58.44733      0.01619
       2553.30960      1.88349    353.00000   3113.99953     60.08845     -0.27500
       2553.46200      1.95989    274.91100   3048.33283     62.05135     -0.46898
       2553.61440      1.89072    353.00000   3076.33279     63.81046      0.13197
       2553.76680      1.97013    275.15520   3128.33334     63.73537     -0.08561
       2553.91920      2.06881    274.31450   3157.99913     61.43996      0.26041
       2554.07160      2.16090    274.52860   3096.33404     58.51170      0.28531
       2554.22400      2.09410    274.76660   3090.50025     55.34745      0.00534
       2554.37640      2.16534    274.13370   3113.33409     51.33583     -0.25632
       2554.52880      2.13195    274.53160   3071.66575     48.83662      0.00168
       2554.68120      2.08730    274.85940   3017.50029     46.14433      0.10580
       2554.83360      2.01221    275.87160   3062.33393     44.26723     -0.00616
       2554.98600      2.11693    273.79170   3115.33264     45.01807     -0.12049
       2555.13840      2.11601    274.59340   3028.99926     47.65673      0.00951
       2555.29080      2.07653    274.79140   3062.99937     54.17828      0.07248
       2555.44320      2.15910    274.32640   3175.33415     54.98276     -0.11427
       2555.59560      2.27360    273.64340   3107.99937     58.30789     -0.20904
       2555.74800      2.31111    273.86120   3030.66735     62.36242      0.17220
       2555.90040      2.34305    273.76430   3086.50090     65.83772      0.02239
       2556.05280      2.28507    273.72350   3115.33264     64.12151      0.00447
       2556.20520      2.22814    273.69890   3072.49979     64.60420      0.14630
       2556.35760      2.20200    273.51070   3031.33278     58.70477     -0.01727
       2556.51000      2.11527    273.90570   3101.00107     52.71952     -0.12127
       2556.66240      2.08018    274.14780   3119.99968     46.84153     -0.03862
       2556.81480      1.81683    328.03370   3005.66634     39.86947      0.27006
       2556.96720      1.79541    328.22870   3067.99912     34.23819     -0.07755
       2557.11960      2.05127    275.88750   3157.50006     34.50635      0.04844
       2557.27200      2.18762    274.78630   3120.33239     31.93205     -0.14622
       2557.42440      2.29152    274.10030   3025.49899     32.61853      0.11359
       2557.57680      2.24075    274.31390   3107.99937     38.41070     -0.18622
       2557.72920      2.03935    273.95730   3148.33235     46.99170      0.34083
       2557.88160      2.08439    275.06660   3060.49949     59.38052      0.14789
       2558.03400      2.13914    273.82560   3039.99917     71.02922     -0.27020
       2558.18640      2.24641    273.32500   3162.99888     74.77269     -0.10209
       2558.33880      2.44561    272.79330   3082.00022     75.26610     -0.16018
       2558.49120      2.43894    272.32850   3010.49974     73.60353      0.35617
       2558.64360      2.44309    272.63110   3080.33439     69.25939     -0.19079
       2558.79600      2.35648    272.98500   3142.99988     71.14722      0.28921
       2558.94840      2.38237    273.38290   3071.00032     72.72398     -0.14806
       2559.10080      2.51669    272.64570   3036.66750     73.19592     -0.00415
       2559.25320      2.31458    272.89510   3138.00013     72.62744     -0.00499
       2559.40560      2.17646    273.63970   3133.33309     70.53581     -0.25682
       2559.55800      2.07616    274.13140   3065.66560     61.50431      0.27743
       2559.71040      2.02201    274.51020   3039.50009     52.75170     -0.20980
       2559.86280      2.20472    273.55500   3142.99988     44.86790      0.28520
       2560.01520      2.51960    271.62190   3113.99953     40.23416     -0.08549
       2560.16760      2.56832    271.80020   3002.33243     37.17718      0.01384
       2560.32000      2.55682    271.37570   3118.00112     39.17226      0.00498
       2560.47240      2.26184    272.46640   3128.00063     43.13025     -0.35199
       2560.62480      1.93548    275.00360   3031.33278     51.49672      0.19914
       2560.77720      1.92504    275.90190   3000.66659     55.27236     -0.05987
       2560.92960      1.97945    276.77120   3130.99958     54.95058      0.07627
