~VERSION INFORMATION 
VERS  .    2.0                                     :CWLS Log ASCII Standard - VERSION 2.0
WRAP  .    NO                                      :One Line per Depth step
PROD  .    Schlumberger Technology Corp.           :LAS Producer
PROG  .    Horizon LASWriter 13.0.221437.3100      :LAS Program name and version
SOURCE.    2. CBL-VDL-Log[3]/Up                    :Run&Pass Information
CREA  .    12/05/2023                              :LAS Creation date {MM/DD/YYYY}
#--------------------------------------------------
~WELL INFORMATION 
#MNEM           .UNIT                      DATA            :DESCRIPTION
#----            ------          --------------            -----------------------------
STRT            .m                      3.65760            :START DEPTH
STOP            .m                   2738.01840            :STOP DEPTH
STEP            .m                       0.1524            :STEP
NULL            .                       -999.25            :NULL VALUE
COMP            .                PAN AMERICAN ENERGY LLC   :COMPANY
WELL            .                PAE.CH.LMS-1034(d)        :WELL NAME
FLD             .                LA MADRE SELVA            :FIELD NAME
RIGN            .                                          :Rig Name
RIGTYP          .                       Rigless            :Rig Type
SON             .                A.1011303.91.01           :Service Order Number
SRVC            .                  Schlumberger            :SERVICE COMPANY
DATE            .                    12/05/2023            :LOG DATE(Composite Date for Composite LAP) (MM/DD/YYYY)
CLAB            .                    Provincia:            :County Label
CNTY            .                        CHUBUT            :COUNTY
SLAB            .                            X:            :State/Province Label
STAT            .                             X            :STATE or PROVINCE
PROV            .                             X            :STATE or PROVINCE
CTRY            .                     ARGENTINA            :COUNTRY
CONT_REGION     .                    S. America            :Continent Region
SECT            .                       Rigless            :Section
TOWN            .                    4915900.85            :Township
RANG            .                    2544268.09            :Range
API             .                EARAD0040501021           :API NUMBER
UWI             .                                          :UNIQUE WELL ID
LUL             .                          ARCS            :Logging Unit Location
LUN             .                          7704            :Logging Unit Number
LOC             .                          ARCS            :FIELD LOCATION
FL1             .                                          :Field Location Line 1
FL2             .                                          :Field Location Line 2
LATI            .deg                 -45.908570            :LATITUDE
LONG            .deg                 -68.431750            :LONGITUDE
PDAT            .                            GL            :Local Permanent Datum
LMF             .                            DF            :Logging Measured From
APD             .m                      6.20000            :Elevation of Depth Reference (LMF) Above Permanent Datum
EPD             .m                    698.54000            :Elevation of Permanent Datum (PDAT) above Mean Sea Level
EKB             .m                      -999.25            :Elevation of Kelly Bushing Above Permanent Datum
EDF             .m                      6.20000            :Elevation of Drill Floor Above Permanent Datum
EGL             .m                      0.00000            :Elevation of Ground Level Above Permanent Datum
ECF             .m                      -999.25            :Elevation of Casing Flange above Permanent Datum
#--------------------------------------------------
~CURVE INFORMATION
#MNEM           .UNIT                  API CODE            :DESCRIPTION
#----            ------          --------------            -----------------------------
DEPT            .m                                         :                                                        Depth Index
CBL             .mV                                        :        (SCMT-HC)               (2in)                   CBL Amplitude
TT              .us                                        :        (SCMT-HC)               (2in)                   Transit Time for CBL
TENS            .lbf                                       :        (WLWorkflow)            (1in)                   Cable Tension
GR              .gAPI                                      :        (PSTP-E)                (6in)                   Gamma Ray
CCLC            .V                                         :        (PSTP-E)                (1in)                   CCL Computed Amplitude
#-------------------------------------------------------------
#            DEPT          CBL           TT         TENS           GR         CCLC 
#                    (SCMT-HC)    (SCMT-HC)  (WLWorkflo)     (PSTP-E)     (PSTP-E) 
#                                                                                  
#                        (2in)        (2in)        (1in)        (6in)        (1in) 
~ASCII
# ...
       1999.33560      3.89427    270.44300   2516.99914     35.43953     -0.19538
       1999.48800      3.79670    270.70070   2460.33380     34.64579      0.16950
       1999.64040      3.65332    271.24490   2467.33435     35.06411      0.03131
       1999.79280      3.78791    270.58270   2463.00004     37.38098      0.09867
       1999.94520      3.96531    270.27420   2437.99903     35.16065      0.37463
       2000.09760      3.86401    270.31140   2446.33270     35.52534      0.12839
       2000.25000      3.85719    270.36060   2436.33320     36.49070     -0.33776
       2000.40240      4.03716    270.18990   2415.99923     36.07238      0.07381
       2000.55480      3.95784    270.42720   2460.99924     32.89741     -0.13306
       2000.70720      4.07064    270.90390   2449.33390     35.47171      0.01992
       2000.85960      4.12568    270.55080   2461.50056     34.98903     -0.06498
       2001.01200      4.10767    270.52750   2490.99999     35.84713     -0.04040
       2001.16440      3.98998    270.50000   2483.33401     38.83975     -0.15936
       2001.31680      4.10680    270.93520   2517.33411     43.78455      0.05608
       2001.46920      3.95682    271.39390   2502.49897     43.61293     -0.04202
       2001.62160      4.23979    270.68070   2464.66587     46.34813      0.32366
       2001.77400      4.29449    270.70970   2442.33335     47.72109     -0.03526
       2001.92640      4.25539    270.48900   2452.00013     44.40668      0.04203
       2002.07880      4.39386    270.12080   2410.99948     41.34969     -0.16274
       2002.23120      4.34367    270.23900   2422.66706     44.78209      0.00599
       2002.38360      4.29924    270.28420   2483.66672     43.81673     -0.07851
       2002.53600      4.27395    270.25600   2421.50031     42.95863      0.05259
       2002.68840      4.20465    270.16780   2437.33360     41.99327      0.23598
       2002.84080      4.00558    270.81370   2517.66683     45.59729      0.03785
       2002.99320      4.01807    270.75600   2483.99944     40.05182      0.18525
       2003.14560      3.94465    270.99330   2494.99934     37.71349     -0.20608
       2003.29800      3.85749    271.14120   2543.49962     36.17964     -0.00549
       2003.45040      3.91672    270.57680   2482.00089     39.77293     -0.13393
       2003.60280      3.86932    270.75400   2510.99899     38.09964      0.20499
       2003.75520      3.84034    271.19010   2517.99954     41.07081     -0.04852
       2003.90760      3.83949    270.71330   2409.99908     43.24824      0.12843
       2004.06000      3.89452    270.77490   2443.99918     43.58075     -0.01286
       2004.21240      3.84017    270.71220   2484.99984     43.04444      0.03878
       2004.36480      3.79092    271.25530   2415.50015     41.80019     -0.24037
       2004.51720      3.80938    271.17560   2473.99994     41.56422      0.09281
       2004.66960      3.79485    270.97210   2509.33316     42.81919     -0.12245
       2004.82200      3.88657    270.47780   2449.66662     45.38276     -0.03001
       2004.97440      3.70090    270.88950   2521.00074     46.26232      0.06973
       2005.12680      3.65378    270.70050   2509.33316     46.86298      0.04016
       2005.27920      3.57593    271.40110   2457.49896     45.72601     -0.07407
       2005.43160      3.63897    271.36940   2532.33336     44.63192      0.03122
       2005.58400      3.68734    270.61730   2498.33326     42.54031     -0.13885
       2005.73640      3.73899    270.62920   2452.00013     43.22678     -0.07694
       2005.88880      3.78910    270.88690   2517.99954     43.82746      0.04518
       2006.04120      3.92226    270.26030   2463.00004     47.37785     -0.03330
       2006.19360      3.90083    270.63510   2445.50091     46.75573      0.14132
       2006.34600      3.96213    270.29140   2508.00004     46.91662     -0.01294
       2006.49840      3.92738    269.96910   2460.99924     46.23014     -0.09382
       2006.65080      3.94503    269.93320   2482.00089     43.37696      0.03811
       2006.80320      3.97520    270.02670   2503.00029     38.96847     -0.01306
       2006.95560      4.07469    269.75320   2469.00019     38.46433     -0.06766
       2007.10800      3.97115    269.85680   2465.33355     36.28690     -0.14764
       2007.26040      3.98582    270.24700   2487.33336     36.11528     -0.05225
       2007.41280      4.11690    269.84230   2427.50046     34.82813      0.11492
       2007.56520      3.87011    270.19280   2449.66662     33.92713      0.18170
       2007.71760      3.82787    270.56040   2475.00034     33.74478     -0.03717
       2007.87000      3.63985    270.49170   2443.00103     35.63260     -0.05752
       2008.02240      3.68954    270.28790   2471.99914     33.47662     -0.04169
       2008.17480      3.47606    271.15250   2505.99924     35.21428     -0.05608
       2008.32720      3.61604    270.13410   2470.33330     36.98411     -0.19517
       2008.47960      3.66376    270.14920   2491.49907     36.68377      0.00504
       2008.63200      3.64193    270.53940   2506.66693     35.13920     -0.07150
       2008.78440      3.62970    270.38370   2482.00089     33.20847      0.31351
       2008.93680      3.62914    270.61320   2478.99969     31.47082      0.22226
       2009.08920      3.63883    270.62190   2476.66617     29.40065     -0.04261
       2009.24160      3.65577    270.70680   2432.00113     28.59618     -0.03748
       2009.39400      3.62080    270.67730   2443.33375     27.56646     -0.05438
       2009.54640      3.45325    271.89350   2437.99903     30.62344     -0.15479
       2009.69880      3.30851    271.17680   2426.99913     31.42791     -0.28938
       2009.85120      2.82306    271.70720   2477.50021     31.56735      0.17385
       2010.00360      2.38266    271.99900   2461.99964     34.38836     -0.07409
       2010.15600      2.28003    272.40100   2477.00114     38.53942      0.12549
       2010.30840      2.31428    273.37110   2535.33231     42.65829      0.16897
       2010.46080      2.48257    270.00800   2501.99989     43.14098     -0.00667
       2010.61320      2.62652    271.00030   2482.99904     44.03125      0.13022
       2010.76560      3.51919    273.01920   2517.99954     40.56668      0.05356
       2010.91800      4.61275    272.44830   2460.99924     37.61696      0.15806
       2011.07040      5.06572    272.83810   2469.49926     33.33718      0.84872
       2011.22280      6.10324    272.83910   2479.66737     32.58635      0.01838
       2011.37520      5.56096    275.38840   2438.99943     32.01786     -0.35942
       2011.52760      6.50639    271.82500   2460.33380     32.39328     -0.25622
       2011.68000      5.23668    270.32270   2456.33445     33.09048     -0.00222
       2011.83240      5.94665    268.44940   2433.50061     33.42300     -0.02305
       2011.98480      5.92252    268.44640   2482.66632     33.69115      0.19636
       2012.13720      5.76982    268.17550   2506.99964     34.60288     -0.04593
       2012.28960      6.15664    267.78830   2489.66687     35.35372     -0.24430
       2012.44200      6.36293    267.78560   2526.66593     33.62679      0.03130
       2012.59440      6.43962    266.97290   2533.00105     32.16802     -0.02999
       2012.74680      6.50572    266.78960   2466.33395     31.89987      0.11055
       2012.89920      6.57860    267.02610   2442.49971     31.63171      0.11280
       2013.05160      7.93262    266.70090   2461.50056     30.88087     -0.08523
       2013.20400      7.80027    266.85820   2435.66777     31.80333     -0.03814
       2013.35640      8.01148    266.97250   2464.66587     30.85942      0.10231
       2013.50880      8.92255    267.01300   2466.50031     32.09294     -0.08066
       2013.66120      9.59108    267.07800   2458.00029     33.21920     -0.03574
       2013.81360      9.88865    267.90020   2508.66773     34.77450      0.04220
       2013.96600      9.92156    267.76020   2499.50002     35.57897     -0.07757
