~VERSION INFORMATION 
VERS  .    2.0                                     :CWLS Log ASCII Standard - VERSION 2.0
WRAP  .    NO                                      :One Line per Depth step
PROD  .    Schlumberger Technology Corp.           :LAS Producer
PROG  .    Horizon LASWriter 13.0.221437.3100      :LAS Program name and version
SOURCE.    2. CBL-VDL-Log[3]/Up                    :Run&Pass Information
CREA  .    12/05/2023                              :LAS Creation date {MM/DD/YYYY}
#--------------------------------------------------
~WELL INFORMATION 
#MNEM           .UNIT                      DATA            :DESCRIPTION
#----            ------          --------------            -----------------------------
STRT            .m                      3.65760            :START DEPTH
STOP            .m                   2738.01840            :STOP DEPTH
STEP            .m                       0.1524            :STEP
NULL            .                       -999.25            :NULL VALUE
COMP            .                PAN AMERICAN ENERGY LLC   :COMPANY
WELL            .                PAE.CH.LMS-1034(d)        :WELL NAME
FLD             .                LA MADRE SELVA            :FIELD NAME
RIGN            .                                          :Rig Name
RIGTYP          .                       Rigless            :Rig Type
SON             .                A.1011303.91.01           :Service Order Number
SRVC            .                  Schlumberger            :SERVICE COMPANY
DATE            .                    12/05/2023            :LOG DATE(Composite Date for Composite LAP) (MM/DD/YYYY)
CLAB            .                    Provincia:            :County Label
CNTY            .                        CHUBUT            :COUNTY
SLAB            .                            X:            :State/Province Label
STAT            .                             X            :STATE or PROVINCE
PROV            .                             X            :STATE or PROVINCE
CTRY            .                     ARGENTINA            :COUNTRY
CONT_REGION     .                    S. America            :Continent Region
SECT            .                       Rigless            :Section
TOWN            .                    4915900.85            :Township
RANG            .                    2544268.09            :Range
API             .                EARAD0040501021           :API NUMBER
UWI             .                                          :UNIQUE WELL ID
LUL             .                          ARCS            :Logging Unit Location
LUN             .                          7704            :Logging Unit Number
LOC             .                          ARCS            :FIELD LOCATION
FL1             .                                          :Field Location Line 1
FL2             .                                          :Field Location Line 2
LATI            .deg                 -45.908570            :LATITUDE
LONG            .deg                 -68.431750            :LONGITUDE
PDAT            .                            GL            :Local Permanent Datum
LMF             .                            DF            :Logging Measured From
APD             .m                      6.20000            :Elevation of Depth Reference (LMF) Above Permanent Datum
EPD             .m                    698.54000            :Elevation of Permanent Datum (PDAT) above Mean Sea Level
EKB             .m                      -999.25            :Elevation of Kelly Bushing Above Permanent Datum
EDF             .m                      6.20000            :Elevation of Drill Floor Above Permanent Datum
EGL             .m                      0.00000            :Elevation of Ground Level Above Permanent Datum
ECF             .m                      -999.25            :Elevation of Casing Flange above Permanent Datum
#--------------------------------------------------
~CURVE INFORMATION
#MNEM           .UNIT                  API CODE            :DESCRIPTION
#----            ------          --------------            -----------------------------
DEPT            .m                                         :                                                        Depth Index
CBL             .mV                                        :        (SCMT-HC)               (2in)                   CBL Amplitude
TT              .us                                        :        (SCMT-HC)               (2in)                   Transit Time for CBL
TENS            .lbf                                       :        (WLWorkflow)            (1in)                   Cable Tension
GR              .gAPI                                      :        (PSTP-E)                (6in)                   Gamma Ray
CCLC            .V                                         :        (PSTP-E)                (1in)                   CCL Computed Amplitude
#-------------------------------------------------------------
#            DEPT          CBL           TT         TENS           GR         CCLC 
#                    (SCMT-HC)    (SCMT-HC)  (WLWorkflo)     (PSTP-E)     (PSTP-E) 
#                                                                                  
#                        (2in)        (2in)        (1in)        (6in)        (1in) 
~ASCII
# ...
       1629.76560     63.76168    268.22450   2095.66672     46.99170     -0.04122
       1629.91800     65.47522    268.35190   2142.49982     45.96198      0.06693
       1630.07040     64.92136    268.34660   2115.33346     48.87952     -0.04621
       1630.22280     65.33811    268.39480   2111.00004     48.94387      0.18682
       1630.37520     66.32892    268.39430   2129.99999     48.92242     -0.12942
       1630.52760     53.45443    269.03500   2111.00004     49.24421      0.07915
       1630.68000     44.64819    274.07610   2163.99987     49.41583      0.04380
       1630.83240     52.76525    272.48640   2120.99999     43.01226      0.51850
       1630.98480     53.93491    272.73260   2164.00010     41.40333      1.46219
       1631.13720     54.32138    272.67790   2108.33335     39.33316     -1.09933
       1631.28960     48.05650    272.73500   2084.99998     38.55014     -0.34420
       1631.44200     70.39756    271.94890   2149.00017     36.22255      0.01366
       1631.59440     56.48570    268.39400   2077.66672     37.47752      0.27508
       1631.74680     73.68309    268.62490   2136.49989     38.67886     -0.01694
       1631.89920     73.37225    268.63440   2110.33325     37.23081      0.13244
       1632.05160     71.78316    268.66690   2121.66677     35.43953      0.27269
       1632.20400     71.29334    268.63200   2158.00017     35.60042      0.06769
       1632.35640     71.70905    268.57860   2152.49999     34.91394      0.04126
       1632.50880     73.00156    268.63380   2182.00010     32.58635     -0.02354
       1632.66120     73.35212    268.58880   2101.00009     33.71260     -0.02256
       1632.81360     72.68843    268.55510   2111.50001     35.64333     -0.00857
       1632.96600     70.33901    268.54160   2114.00011     36.09383     -0.12672
       1633.11840     69.37939    268.53390   2090.66674     37.61696     -0.22920
       1633.27080     70.11703    268.35750   2096.50009     38.58232     -0.04400
       1633.42320     71.08374    268.33530   2110.00009     37.93875     -0.03959
       1633.57560     73.37584    268.42680   2120.66660     38.42142      0.15456
       1633.72800     73.51015    268.51820   2143.33318     39.25808     -0.08504
       1633.88040     73.62959    268.51120   2167.99990     38.24981      0.32200
       1634.03280     71.36806    268.44030   2165.33344     40.01964     -0.13742
       1634.18520     71.06016    268.42700   2146.66688     43.07662      0.35390
       1634.33760     71.97530    268.42430   2155.00009     42.59394      0.06109
       1634.49000     73.85763    268.45670   2107.33340     42.61539      0.09569
       1634.64240     74.36980    268.51570   2126.66675     43.78455      0.10847
       1634.79480     75.58989    268.51030   2136.33331     43.14098      0.01554
       1634.94720     75.67603    268.54260   2104.66672     40.40578      0.06303
       1635.09960     74.91515    268.55770   2156.99999     43.46276     -0.05283
       1635.25200     73.27943    268.58200   2090.33335     45.52221     -0.20967
       1635.40440     73.34430    268.63060   2205.66663     47.29204      0.08867
       1635.55680     74.73205    268.58320   2129.00004     48.25740     -0.11123
       1635.70920     74.64692    268.60000   2131.66672     50.34902     -0.12496
       1635.86160     74.16996    268.53520   2179.99997     48.01069     -0.06772
       1636.01400     75.04803    268.49990   2079.00006     46.73427     -0.09882
       1636.16640     74.54433    268.50970   2183.49980     47.05606     -0.03519
       1636.31880     74.68935    268.58580   2107.00001     46.25159     -0.02336
       1636.47120     74.03545    268.55540   2118.00014     44.64265      0.02748
       1636.62360     74.04336    268.58570   2130.50019     43.44131     -0.18140
       1636.77600     73.53047    268.52080   2098.99996     43.85963      0.27208
       1636.92840     74.19178    268.49000   2206.00003     43.85964     -0.10255
       1637.08080     72.06359    268.45870   2090.66674     44.18142      0.13779
       1637.23320     70.04971    268.38350   2141.00012     43.69874      0.03495
       1637.38560     69.47643    268.42320   2193.00000     46.75573     -0.01085
       1637.53800     70.50420    268.42020   2061.66661     46.17651      0.07165
       1637.69040     70.94110    268.42230   2238.99996     43.94545      0.00261
       1637.84280     70.43487    268.43990   2105.66667     42.81919      0.04162
       1637.99520     66.69526    268.42420   2150.00012     44.26723      0.00711
       1638.14760     65.42939    268.42470   2122.50014     42.81919      0.04922
       1638.30000     66.54031    268.46820   2120.66660     42.65829     -0.01190
       1638.45240     69.67355    268.35500   2179.66681     43.60221      0.06136
       1638.60480     70.23135    268.36680   2063.50016     43.10880     -0.09879
       1638.75720     69.86636    268.43980   2137.50007     42.30433      0.06056
       1638.90960     69.71632    268.48980   2117.00019     41.49986     -0.09768
       1639.06200     69.61967    268.48110   2147.99999     40.85629     -0.01211
       1639.21440     71.16183    268.47850   2174.00005     38.92556     -0.07528
       1639.36680     72.42042    268.49950   2133.66662     37.81004     -0.01230
       1639.51920     72.55968    268.49690   2209.00010     38.13182     -0.09877
       1639.67160     72.57808    268.47070   2160.00007     37.81003     -0.08591
       1639.82400     73.82309    268.52260   2150.33329     37.16645      0.03169
       1639.97640     73.92706    268.54030   2146.33326     38.61450     -0.08436
       1640.12880     73.76530    268.55630   2088.50004     39.38679      0.20238
       1640.28120     72.92772    268.58970   2144.33336     40.19126     -0.16309
       1640.43360     73.12373    268.58660   2105.49986     37.29517      0.21418
       1640.58600     74.06643    268.60410   2119.00009     36.49070     -0.14740
       1640.73840     74.20984    268.57180   2147.66683     37.05919      0.18955
       1640.89080     74.59702    268.60470   2133.00007     37.73495     -0.14588
       1641.04320     74.52596    268.60190   2153.33336     38.21763      0.13925
       1641.19560     74.28654    268.57670   2125.49999     40.95282     -0.10828
       1641.34800     76.21675    268.63400   2159.00012     44.65338      0.07893
       1641.50040     76.16109    268.65910   2118.66670     43.92399     -0.19529
       1641.65280     75.40895    268.66180   2164.33349     46.33740      0.00106
       1641.80520     75.07314    268.63730   2142.49982     45.85472     -0.00186
       1641.95760     74.23588    268.67280   2121.99994     45.21114      0.00551
       1642.11000     73.66161    268.67790   2145.00014     43.60220      0.01878
       1642.26240     74.05840    268.69090   2111.50001     42.47595     -0.18088
       1642.41480     73.63420    268.65790   2147.99999     42.15416      0.07398
       1642.56720     72.22488    268.61060   2109.66670     41.18880     -0.09613
       1642.71960     68.34164    268.52900   2142.49982     40.54522      0.01879
       1642.87200     69.13197    268.53490   2150.33329     39.74076     -0.12005
       1643.02440     68.08889    268.44820   2139.66678     41.67148     -0.14437
       1643.17680     56.75017    269.40330   2192.33322     38.93629      0.00426
       1643.32920     57.75288    272.19220   2114.00011     37.16645      0.10017
       1643.48160     47.58969    271.98060   2153.66675     36.84467      0.27652
       1643.63400     47.73410    272.29870   2116.49999     36.36199      1.32796
       1643.78640     49.82591    272.35760   2098.50021     34.27037     -0.13088
       1643.93880     51.68803    272.49460   2171.99992     36.46925     -0.34896
       1644.09120     53.53173    271.45420   2083.00008     39.43159      0.20487
       1644.24360     51.06861    269.02190   2207.33337     46.99359      0.05037
       1644.39600     64.95042    268.54800   2105.00011     49.24610      0.01804
