~VERSION INFORMATION 
VERS  .    2.0                                     :CWLS Log ASCII Standard - VERSION 2.0
WRAP  .    NO                                      :One Line per Depth step
PROD  .    Schlumberger Technology Corp.           :LAS Producer
PROG  .    Horizon LASWriter 13.0.221437.3100      :LAS Program name and version
SOURCE.    2. CBL-VDL-Log[3]/Up                    :Run&Pass Information
CREA  .    12/05/2023                              :LAS Creation date {MM/DD/YYYY}
#--------------------------------------------------
~WELL INFORMATION 
#MNEM           .UNIT                      DATA            :DESCRIPTION
#----            ------          --------------            -----------------------------
STRT            .m                      3.65760            :START DEPTH
STOP            .m                   2738.01840            :STOP DEPTH
STEP            .m                       0.1524            :STEP
NULL            .                       -999.25            :NULL VALUE
COMP            .                PAN AMERICAN ENERGY LLC   :COMPANY
WELL            .                PAE.CH.LMS-1034(d)        :WELL NAME
FLD             .                LA MADRE SELVA            :FIELD NAME
RIGN            .                                          :Rig Name
RIGTYP          .                       Rigless            :Rig Type
SON             .                A.1011303.91.01           :Service Order Number
SRVC            .                  Schlumberger            :SERVICE COMPANY
DATE            .                    12/05/2023            :LOG DATE(Composite Date for Composite LAP) (MM/DD/YYYY)
CLAB            .                    Provincia:            :County Label
CNTY            .                        CHUBUT            :COUNTY
SLAB            .                            X:            :State/Province Label
STAT            .                             X            :STATE or PROVINCE
PROV            .                             X            :STATE or PROVINCE
CTRY            .                     ARGENTINA            :COUNTRY
CONT_REGION     .                    S. America            :Continent Region
SECT            .                       Rigless            :Section
TOWN            .                    4915900.85            :Township
RANG            .                    2544268.09            :Range
API             .                EARAD0040501021           :API NUMBER
UWI             .                                          :UNIQUE WELL ID
LUL             .                          ARCS            :Logging Unit Location
LUN             .                          7704            :Logging Unit Number
LOC             .                          ARCS            :FIELD LOCATION
FL1             .                                          :Field Location Line 1
FL2             .                                          :Field Location Line 2
LATI            .deg                 -45.908570            :LATITUDE
LONG            .deg                 -68.431750            :LONGITUDE
PDAT            .                            GL            :Local Permanent Datum
LMF             .                            DF            :Logging Measured From
APD             .m                      6.20000            :Elevation of Depth Reference (LMF) Above Permanent Datum
EPD             .m                    698.54000            :Elevation of Permanent Datum (PDAT) above Mean Sea Level
EKB             .m                      -999.25            :Elevation of Kelly Bushing Above Permanent Datum
EDF             .m                      6.20000            :Elevation of Drill Floor Above Permanent Datum
EGL             .m                      0.00000            :Elevation of Ground Level Above Permanent Datum
ECF             .m                      -999.25            :Elevation of Casing Flange above Permanent Datum
#--------------------------------------------------
~CURVE INFORMATION
#MNEM           .UNIT                  API CODE            :DESCRIPTION
#----            ------          --------------            -----------------------------
DEPT            .m                                         :                                                        Depth Index
CBL             .mV                                        :        (SCMT-HC)               (2in)                   CBL Amplitude
TT              .us                                        :        (SCMT-HC)               (2in)                   Transit Time for CBL
TENS            .lbf                                       :        (WLWorkflow)            (1in)                   Cable Tension
GR              .gAPI                                      :        (PSTP-E)                (6in)                   Gamma Ray
CCLC            .V                                         :        (PSTP-E)                (1in)                   CCL Computed Amplitude
#-------------------------------------------------------------
#            DEPT          CBL           TT         TENS           GR         CCLC 
#                    (SCMT-HC)    (SCMT-HC)  (WLWorkflo)     (PSTP-E)     (PSTP-E) 
#                                                                                  
#                        (2in)        (2in)        (1in)        (6in)        (1in) 
~ASCII
# ...
       1097.58480     68.96532    268.01670   1423.49989     22.68602      0.22616
       1097.73720     69.03932    268.04030   1428.33329     23.81227     -0.10868
       1097.88960     69.63467    268.05540   1436.66673     25.58211      0.06206
       1098.04200     69.26823    268.01550   1399.49997     26.86926     -0.02982
       1098.19440     69.66100    267.99890   1420.50004     28.22076     -0.03055
       1098.34680     70.01321    268.05980   1412.33341     29.02523     -0.03809
       1098.49920     70.29239    268.01730   1388.33326     29.50792     -0.12568
       1098.65160     70.17946    268.06280   1401.33328     29.82970      0.09695
       1098.80400     70.67850    267.97910   1424.00009     31.27774     -0.07841
       1098.95640     70.71546    267.97450   1396.49989     31.96422      0.07190
       1099.10880     71.38611    267.93770   1410.33351     32.28601     -0.16263
       1099.26120     71.28135    267.90870   1426.66655     33.25138      0.03975
       1099.41360     71.26725    267.86900   1411.66663     35.50388     -0.10206
       1099.56600     69.43013    267.83300   1428.50010     36.46925     -0.01477
       1099.71840     65.03565    267.75870   1415.66665     36.84467     -0.09077
       1099.87080     65.86753    267.83470   1435.99995     36.68377      0.03828
       1100.02320     64.93877    267.77950   1433.00010     35.87930      0.02158
       1100.17560     63.65208    267.83160   1412.00002     34.75305     -0.00582
       1100.32800     61.16786    267.76560   1419.00012     32.88668      0.11007
       1100.48040     60.05778    267.64410   1408.33338     30.31238     -0.01965
       1100.63280     57.63239    267.80980   1414.33331     29.02523      0.06213
       1100.78520     56.67393    267.93460   1402.00007     25.96825     -0.13154
       1100.93760     52.87606    267.83840   1422.50017     23.71574      0.05260
       1101.09000     49.91653    267.94970   1439.50000     24.45585     -0.16936
       1101.24240     47.58342    267.93780   1418.50014     25.58211      0.12488
       1101.39480     45.18906    267.82800   1463.66673     27.83462     -0.13418
       1101.54720     43.40130    267.78930   1432.33331     29.58552      0.18498
       1101.69960     43.46016    267.96280   1426.99994     29.74642     -0.07288
       1101.85200     46.21488    267.94380   1412.66658     28.45926      0.09811
       1102.00440     49.58486    268.01220   1398.00004     29.10284     -0.03897
       1102.15680     54.15154    267.98250   1415.00009     27.17212      0.01416
       1102.30920     57.56613    267.96910   1391.00016     27.99551      0.13083
       1102.46160     60.33300    267.98020   1418.66650     27.51283     -0.03645
       1102.61400     58.37019    267.69540   1426.33339     28.54445      0.23560
       1102.76640     54.13249    267.28380   1403.49999     25.16568     -0.08488
       1102.91880     51.38894    267.12000   1455.00012     24.84389      0.21705
       1103.07120     48.97157    266.84840   1435.66678     25.68621     -0.18434
       1103.22360     47.39404    266.94400   1434.66660     28.09962      0.20632
       1103.37600     43.95615    266.71610   1466.99998     26.74622     -0.22211
       1103.52840     45.05100    267.13520   1432.00015     30.80642      0.23817
       1103.68080     48.17200    267.40690   1442.66666     31.44999     -0.19673
       1103.83320     52.17550    267.50420   1427.66673     29.96410      0.12082
       1103.98560     56.63394    267.65610   1415.33326     29.32052     -0.18728
       1104.13800     59.12267    267.66490   1426.99994     30.12499      0.12320
       1104.29040     62.41055    267.91300   1423.50012     29.44355     -0.01800
       1104.44280     67.27077    267.87630   1417.66678     29.92624      0.00788
       1104.59520     69.01836    268.03500   1398.66682     27.32354      0.02109
       1104.74760     68.53784    268.06810   1399.49997     25.71461     -0.02057
       1104.90000     69.59595    268.11180   1445.49992     23.30120     -0.01844
       1105.05240     69.33664    268.06750   1395.33336     20.24422     -0.12109
       1105.20480     69.49738    268.19520   1429.00007     18.15260      0.08529
       1105.35720     69.40300    268.18770   1439.00002     17.69831     -0.28014
       1105.50960     68.13289    268.13520   1416.50002     16.22187      0.29870
       1105.66200     65.52342    267.99810   1437.33329     18.15260     -0.17159
       1105.81440     64.70660    267.97300   1433.33349     20.08332      0.15946
       1105.96680     65.03342    268.06510   1412.99997     20.63226     -0.15623
       1106.11920     66.07123    268.01100   1441.66671     24.49371      0.17359
       1106.27160     65.96894    267.97260   1429.33346     28.06176     -0.20244
       1106.42400     65.68057    267.89390   1461.33322     25.64836      0.13687
       1106.57640     65.26765    268.10620   1441.49990     25.03318     -0.16614
       1106.72880     66.63017    268.16360   1442.00010     25.44960      0.11752
       1106.88120     68.12280    268.36170   1438.50005     25.28871     -0.04932
       1107.03360     68.18476    268.31220   1425.66683     24.32335      0.08802
       1107.18600     68.39846    268.32520   1461.33344     28.18480     -0.10105
       1107.33840     67.34933    268.28920   1391.00016     28.79998     -0.02697
       1107.49080     66.84668    268.22720   1412.66658     27.77783      0.05984
       1107.64320     68.07704    268.28070   1399.99994     26.49068     -0.17763
       1107.79560     52.18768    268.56500   1424.00009     25.52532      0.01161
       1107.94800     54.38827    271.41510   1421.00002     23.43370     -0.05864
       1108.10040     46.86857    272.19310   1425.00004     23.72709      0.32398
       1108.25280     51.44191    272.08070   1445.99990     24.91014      2.21506
       1108.40520     50.87348    272.01380   1454.33334     24.91014     -0.38106
       1108.55760     52.16438    272.06320   1467.66676     24.42746     -0.47265
       1108.71000     54.93409    270.95520   1429.00007     25.64836     -0.09426
       1108.86240     54.31397    268.03490   1459.66671     24.22870      0.29508
       1109.01480     61.60833    268.11540   1441.66671     24.71139      0.01247
       1109.16720     62.10576    268.12260   1426.99994     25.93229      0.01987
       1109.31960     60.09883    268.11760   1435.66678     27.86301     -0.29720
       1109.47200     59.80396    268.16820   1418.99989     27.92926      0.24643
       1109.62440     58.02884    268.10420   1431.49995     28.73373      0.10046
       1109.77680     58.23343    268.14930   1435.00000     30.55088      0.05835
       1109.92920     56.58353    268.04900   1469.66666     32.38696      0.07565
       1110.08160     54.36476    267.93410   1424.33326     31.58249     -0.12472
       1110.23400     53.41652    267.94170   1441.00015     31.58249      0.10354
       1110.38640     52.31087    267.96500   1406.66665     32.86965     -0.07298
       1110.53880     52.34996    267.91300   1447.00007     30.73071      0.13397
       1110.69120     51.72522    267.91520   1424.00009     28.44033     -0.05526
       1110.84360     48.60017    267.85420   1428.66668     29.88838      0.07592
       1110.99600     47.17901    267.84070   1451.00010     28.60123      0.00603
       1111.14840     45.60221    267.80560   1450.66671     30.20070      0.01381
       1111.30080     42.98679    267.74110   1452.50002     29.55713     -0.04244
       1111.45320     40.47405    267.78390   1435.66678     31.84750     -0.06469
       1111.60560     36.90594    267.64370   1457.00002     30.56034     -0.08590
       1111.75800     34.75231    267.64330   1449.49995     30.41838      0.01906
       1111.91040     33.42155    267.59360   1462.49997     28.49712     -0.00987
       1112.06280     33.83351    267.66240   1445.49992     29.62338     -0.01073
       1112.21520     33.73277    267.74460   1441.00015     28.65801     -0.19574
