~VERSION INFORMATION 
VERS  .    2.0                                     :CWLS Log ASCII Standard - VERSION 2.0
WRAP  .    NO                                      :One Line per Depth step
PROD  .    Schlumberger Technology Corp.           :LAS Producer
PROG  .    Horizon LASWriter 13.0.221437.3100      :LAS Program name and version
SOURCE.    2. CBL-VDL-Log[3]/Up                    :Run&Pass Information
CREA  .    12/05/2023                              :LAS Creation date {MM/DD/YYYY}
#--------------------------------------------------
~WELL INFORMATION 
#MNEM           .UNIT                      DATA            :DESCRIPTION
#----            ------          --------------            -----------------------------
STRT            .m                      3.65760            :START DEPTH
STOP            .m                   2738.01840            :STOP DEPTH
STEP            .m                       0.1524            :STEP
NULL            .                       -999.25            :NULL VALUE
COMP            .                PAN AMERICAN ENERGY LLC   :COMPANY
WELL            .                PAE.CH.LMS-1034(d)        :WELL NAME
FLD             .                LA MADRE SELVA            :FIELD NAME
RIGN            .                                          :Rig Name
RIGTYP          .                       Rigless            :Rig Type
SON             .                A.1011303.91.01           :Service Order Number
SRVC            .                  Schlumberger            :SERVICE COMPANY
DATE            .                    12/05/2023            :LOG DATE(Composite Date for Composite LAP) (MM/DD/YYYY)
CLAB            .                    Provincia:            :County Label
CNTY            .                        CHUBUT            :COUNTY
SLAB            .                            X:            :State/Province Label
STAT            .                             X            :STATE or PROVINCE
PROV            .                             X            :STATE or PROVINCE
CTRY            .                     ARGENTINA            :COUNTRY
CONT_REGION     .                    S. America            :Continent Region
SECT            .                       Rigless            :Section
TOWN            .                    4915900.85            :Township
RANG            .                    2544268.09            :Range
API             .                EARAD0040501021           :API NUMBER
UWI             .                                          :UNIQUE WELL ID
LUL             .                          ARCS            :Logging Unit Location
LUN             .                          7704            :Logging Unit Number
LOC             .                          ARCS            :FIELD LOCATION
FL1             .                                          :Field Location Line 1
FL2             .                                          :Field Location Line 2
LATI            .deg                 -45.908570            :LATITUDE
LONG            .deg                 -68.431750            :LONGITUDE
PDAT            .                            GL            :Local Permanent Datum
LMF             .                            DF            :Logging Measured From
APD             .m                      6.20000            :Elevation of Depth Reference (LMF) Above Permanent Datum
EPD             .m                    698.54000            :Elevation of Permanent Datum (PDAT) above Mean Sea Level
EKB             .m                      -999.25            :Elevation of Kelly Bushing Above Permanent Datum
EDF             .m                      6.20000            :Elevation of Drill Floor Above Permanent Datum
EGL             .m                      0.00000            :Elevation of Ground Level Above Permanent Datum
ECF             .m                      -999.25            :Elevation of Casing Flange above Permanent Datum
#--------------------------------------------------
~CURVE INFORMATION
#MNEM           .UNIT                  API CODE            :DESCRIPTION
#----            ------          --------------            -----------------------------
DEPT            .m                                         :                                                        Depth Index
CBL             .mV                                        :        (SCMT-HC)               (2in)                   CBL Amplitude
TT              .us                                        :        (SCMT-HC)               (2in)                   Transit Time for CBL
TENS            .lbf                                       :        (WLWorkflow)            (1in)                   Cable Tension
GR              .gAPI                                      :        (PSTP-E)                (6in)                   Gamma Ray
CCLC            .V                                         :        (PSTP-E)                (1in)                   CCL Computed Amplitude
#-------------------------------------------------------------
#            DEPT          CBL           TT         TENS           GR         CCLC 
#                    (SCMT-HC)    (SCMT-HC)  (WLWorkflo)     (PSTP-E)     (PSTP-E) 
#                                                                                  
#                        (2in)        (2in)        (1in)        (6in)        (1in) 
~ASCII
          3.65760      -999.25      -999.25      -999.25      -999.25      -999.25
          3.81000      -999.25      -999.25      -999.25      -999.25      -999.25
          3.96240      -999.25      -999.25      -999.25     54.50402      -999.25
          4.11480      -999.25      -999.25      -999.25     57.92175      -999.25
          4.26720      -999.25      -999.25      -999.25     54.42805      -999.25
          4.41960      -999.25      -999.25      -999.25     51.37567      -999.25
          4.57200      -999.25      -999.25      -999.25     53.76609      -999.25
          4.72440      -999.25      -999.25      -999.25     53.21445      -999.25
          4.87680      -999.25      -999.25      -999.25     47.14647      -999.25
          5.02920      -999.25      -999.25      -999.25     46.57031      0.24050
          5.18160      -999.25      -999.25      -999.25     48.88718      0.37050
          5.33400      -999.25      -999.25      -999.25     43.68955      0.80995
          5.48640      -999.25      -999.25      -999.25     37.43768      1.83463
          5.63880      -999.25      -999.25      -999.25     31.00193      3.06989
          5.79120      -999.25      -999.25      -999.25     24.13713     -4.53444
          5.94360      -999.25      -999.25      -999.25     12.55278     -1.77820
          6.09600      -999.25      -999.25      -999.25      7.26933      2.31934
          6.24840      -999.25      -999.25      -999.25      5.98218      5.09515
          6.40080      -999.25      -999.25      -999.25      8.55648     -2.72908
          6.55320      -999.25      -999.25      -999.25     11.76823     -0.54991
          6.70560      -999.25      -999.25      -999.25     18.02010      0.87140
          6.85800      -999.25      -999.25      -999.25     22.06543      1.26340
          7.01040      -999.25      -999.25      -999.25     21.14604     -0.20126
          7.16280      -999.25      -999.25      -999.25     22.80094      0.01317
          7.31520      -999.25      -999.25      -999.25     23.19322      0.18932
          7.46760      -999.25      -999.25      -999.25     21.17055     -0.55138
          7.62000      -999.25      -999.25      -999.25     22.27383      0.53366
          7.77240      -999.25      -999.25      -999.25     25.58364      0.14937
          7.92480      -999.25      -999.25      -999.25     26.13527      0.26543
          8.07720      -999.25      -999.25      -999.25     27.16500      0.07664
          8.22960      -999.25      -999.25      -999.25     29.92317      0.14816
          8.38200      -999.25      -999.25      -999.25     29.37154      0.20757
          8.53440      -999.25      -999.25      -999.25     29.37154     -0.04041
          8.68680      -999.25      -999.25      -999.25     30.19286      0.20849
          8.83920      -999.25      -999.25      -999.25     31.52905     -0.13668
          8.99160      -999.25      -999.25      -999.25     27.85147      0.13108
          9.14400      -999.25      -999.25      -999.25     27.33661     -0.16486
          9.29640      -999.25      -999.25      -999.25     28.43989      0.10659
          9.44880      -999.25      -999.25      -999.25     26.69917     -0.09424
          9.60120      -999.25      -999.25      -999.25     23.94099      0.02387
          9.75360      -999.25      -999.25      -999.25     24.49262     -0.13336
          9.90600      -999.25      -999.25      -999.25     25.74300      0.10307
         10.05840      -999.25      -999.25      -999.25     24.27197     -0.06234
         10.21080      -999.25      -999.25      -999.25     24.46811      0.05236
         10.36320      -999.25      -999.25      -999.25     26.85853     -0.01833
         10.51560      -999.25      -999.25      -999.25     26.49077      0.04645
         10.66800      -999.25      -999.25      -999.25     25.75526      0.00360
         10.82040      -999.25      -999.25      -999.25     26.12302      0.03868
         10.97280      0.06904      -999.25      -999.25     25.95140     -0.01076
         11.12520      0.09801      -999.25      -999.25     24.66425      0.57347
         11.27760      0.10041      -999.25      -999.25     24.29649      0.45756
         11.43000      0.12926      -999.25      -999.25     23.74485     -3.33546
         11.58240      0.13633      -999.25      -999.25     23.70808     -0.07132
         11.73480      0.06884      -999.25      -999.25     23.86744      0.45014
         11.88720      0.08167      -999.25      -999.25     22.39641      0.05843
         12.03960      0.14261      -999.25      -999.25     22.39641      0.17729
         12.19200      0.07489      -999.25      -999.25     21.06022     -0.00664
         12.34440      0.09019      -999.25      -999.25     18.52270     -0.00739
         12.49680      0.10410      -999.25      -999.25     16.81876     -0.04464
         12.64920      0.08083      -999.25      -999.25     18.47367      0.04385
         12.80160      0.10552      -999.25      -999.25     19.39306     -0.02166
         12.95400      0.10488      -999.25      -999.25     19.80985      0.00602
         13.10640      0.08970      -999.25      -999.25     20.91312     -0.14222
         13.25880      0.07328      -999.25      -999.25     20.96215      0.08880
         13.41120      0.10015      -999.25      -999.25     18.93949     -0.07889
         13.56360      0.11470      -999.25      -999.25     18.15494     -0.00164
         13.71600      0.07778      -999.25      -999.25     17.60331      0.02319
         13.86840      0.09807      -999.25      -999.25     16.13228      0.00742
         14.02080      0.12216      -999.25      -999.25     17.41943     -0.00793
         14.17320      0.12599      -999.25      -999.25     17.41943      0.01721
         14.32560      0.12010      -999.25      -999.25     17.83622      0.01884
         14.47800      0.07623      -999.25      -999.25     17.79944      0.00191
         14.63040      0.09498      -999.25      -999.25     17.98333      0.03389
         14.78280      0.07079      -999.25      -999.25     17.06393     -0.03864
         14.93520      0.10271      -999.25      -999.25     17.43169      0.11087
         15.08760      0.10037      -999.25      -999.25     17.35814     -0.06345
         15.24000      0.09523      -999.25      -999.25     19.60146      0.04526
         15.39240      0.10638      -999.25      -999.25     20.33697     -0.10010
         15.54480      0.13320      -999.25      -999.25     18.49818      0.00641
         15.69720      0.09780      -999.25    397.00000     17.57879     -0.03167
         15.84960      0.06475      -999.25    421.49991     17.65234      0.01703
         16.00200      0.07649      -999.25    400.00008     14.52641     -0.00947
         16.15440      0.10721      -999.25    398.49993     13.59476      0.02565
         16.30680      0.08115      -999.25    398.99990     15.06578     -0.04243
         16.45920      0.10392      -999.25    389.99990     15.06578      0.09254
         16.61160      0.11702      -999.25    397.33340     15.43354     -0.00017
         16.76400      0.07402      -999.25    392.33342     17.08845      0.00358
         16.91640      0.06946      -999.25    411.66676     18.75561      0.06696
         17.06880      0.08406      -999.25    392.50000     20.04276      0.03926
         17.22120      0.08066      -999.25    404.50008     20.17761      0.12315
         17.37360      0.09528      -999.25    407.66674     19.44209      0.03604
         17.52600      0.09499      -999.25    390.66669     18.70658      0.07808
         17.67840      0.10350      -999.25    404.50008     18.75562     -0.11292
         17.83080      0.07667      -999.25    403.49991     18.75562      0.08107
         17.98320      0.08368      -999.25    404.33327     20.09180     -0.10115
         18.13560      0.07435      -999.25    401.00003     19.69952      0.07606
         18.28800      0.07778      -999.25    406.33340     18.59625     -0.05560
