~VERSION INFORMATION 
VERS  .    2.0                                     :CWLS Log ASCII Standard - VERSION 2.0
WRAP  .    NO                                      :One Line per Depth step
PROD  .    Schlumberger Technology Corp.           :LAS Producer
PROG  .    Horizon LASWriter 13.0.221437.3100      :LAS Program name and version
SOURCE.    2. CBL-VDL-Log[3]/Up                    :Run&Pass Information
CREA  .    12/05/2023                              :LAS Creation date {MM/DD/YYYY}
#--------------------------------------------------
~WELL INFORMATION 
#MNEM           .UNIT                      DATA            :DESCRIPTION
#----            ------          --------------            -----------------------------
STRT            .m                      3.65760            :START DEPTH
STOP            .m                   2738.01840            :STOP DEPTH
STEP            .m                       0.1524            :STEP
NULL            .                       -999.25            :NULL VALUE
COMP            .                PAN AMERICAN ENERGY LLC   :COMPANY
WELL            .                PAE.CH.LMS-1034(d)        :WELL NAME
FLD             .                LA MADRE SELVA            :FIELD NAME
RIGN            .                                          :Rig Name
RIGTYP          .                       Rigless            :Rig Type
SON             .                A.1011303.91.01           :Service Order Number
SRVC            .                  Schlumberger            :SERVICE COMPANY
DATE            .                    12/05/2023            :LOG DATE(Composite Date for Composite LAP) (MM/DD/YYYY)
CLAB            .                    Provincia:            :County Label
CNTY            .                        CHUBUT            :COUNTY
SLAB            .                            X:            :State/Province Label
STAT            .                             X            :STATE or PROVINCE
PROV            .                             X            :STATE or PROVINCE
CTRY            .                     ARGENTINA            :COUNTRY
CONT_REGION     .                    S. America            :Continent Region
SECT            .                       Rigless            :Section
TOWN            .                    4915900.85            :Township
RANG            .                    2544268.09            :Range
API             .                EARAD0040501021           :API NUMBER
UWI             .                                          :UNIQUE WELL ID
LUL             .                          ARCS            :Logging Unit Location
LUN             .                          7704            :Logging Unit Number
LOC             .                          ARCS            :FIELD LOCATION
FL1             .                                          :Field Location Line 1
FL2             .                                          :Field Location Line 2
LATI            .deg                 -45.908570            :LATITUDE
LONG            .deg                 -68.431750            :LONGITUDE
PDAT            .                            GL            :Local Permanent Datum
LMF             .                            DF            :Logging Measured From
APD             .m                      6.20000            :Elevation of Depth Reference (LMF) Above Permanent Datum
EPD             .m                    698.54000            :Elevation of Permanent Datum (PDAT) above Mean Sea Level
EKB             .m                      -999.25            :Elevation of Kelly Bushing Above Permanent Datum
EDF             .m                      6.20000            :Elevation of Drill Floor Above Permanent Datum
EGL             .m                      0.00000            :Elevation of Ground Level Above Permanent Datum
ECF             .m                      -999.25            :Elevation of Casing Flange above Permanent Datum
#--------------------------------------------------
~CURVE INFORMATION
#MNEM           .UNIT                  API CODE            :DESCRIPTION
#----            ------          --------------            -----------------------------
DEPT            .m                                         :                                                        Depth Index
CBL             .mV                                        :        (SCMT-HC)               (2in)                   CBL Amplitude
TT              .us                                        :        (SCMT-HC)               (2in)                   Transit Time for CBL
TENS            .lbf                                       :        (WLWorkflow)            (1in)                   Cable Tension
GR              .gAPI                                      :        (PSTP-E)                (6in)                   Gamma Ray
CCLC            .V                                         :        (PSTP-E)                (1in)                   CCL Computed Amplitude
#-------------------------------------------------------------
#            DEPT          CBL           TT         TENS           GR         CCLC 
#                    (SCMT-HC)    (SCMT-HC)  (WLWorkflo)     (PSTP-E)     (PSTP-E) 
#                                                                                  
#                        (2in)        (2in)        (1in)        (6in)        (1in) 
~ASCII
# ...
        550.62120     45.57344      -999.25    838.50004     22.40714      0.14058
        550.77360     46.16784      -999.25    800.66672     23.60848     -0.07691
        550.92600     45.90555      -999.25    766.50003     23.10434      0.11557
        551.07840     46.01093      -999.25    829.66662     21.35596     -0.04051
        551.23080     47.01935      -999.25    826.99994     22.32133      0.12234
        551.38320     48.46038      -999.25    839.99996     20.90546     -0.11101
        551.53560     48.53251      -999.25    846.66667     18.67440      0.03175
        551.68800     48.61021      -999.25    841.00014     16.28245      0.07620
        551.84040     49.20023      -999.25    837.66667     15.62815      0.05483
        551.99280     49.33663      -999.25    842.50007     13.37563     -0.21823
        552.14520     49.94365      -999.25    842.66665     13.03239     -0.09272
        552.29760     50.16556      -999.25    856.33323     12.87150      0.09127
        552.45000     46.97234      -999.25    842.00009     15.43507      0.07022
        552.60240     41.28719      -999.25    852.00004     14.48044     -0.28743
        552.75480     36.66002      -999.25    831.33336     13.47217      0.12893
        552.90720     37.17485      -999.25    821.00001     14.26591      1.16991
        553.05960     38.28928      -999.25    847.66662     14.42681      0.59151
        553.21200     36.77487      -999.25    819.66667     12.66770     -2.87543
        553.36440     29.38630      -999.25    822.49994     13.96558      0.32118
        553.51680     44.35093      -999.25    845.33333     14.65206      0.27650
        553.66920     39.02790      -999.25    834.00004     13.34346      0.00737
        553.82160     50.16404      -999.25    800.33333     14.46971     -0.09562
        553.97400     50.78071      -999.25    838.50004     12.45318     -0.15143
        554.12640     51.55112      -999.25    838.00006     12.44245      0.26493
        554.27880     51.82243      -999.25    834.66660     13.08602      0.01775
        554.43120     52.26120      -999.25    836.50014     14.45898      0.00383
        554.58360     52.66049      -999.25    824.33325     12.52826      0.04869
        554.73600     52.78716      -999.25    821.00001     13.74033     -0.19375
        554.88840     53.20303      -999.25    825.33343     13.23619      0.07642
        555.04080     52.82816      -999.25    859.50012     13.23619     -0.06207
        555.19320     52.68122      -999.25    869.66665     12.20647      0.09922
        555.34560     52.92046      -999.25    856.33346     13.81541     -0.15455
        555.49800     51.63919      -999.25    883.00007     14.14792      0.06309
        555.65040     51.69381      -999.25    848.00002     14.97384     -0.04907
        555.80280     50.66645      -999.25    842.66665     15.35999      0.09106
        555.95520     50.55669      -999.25    837.50009     15.35999     -0.00916
        556.10760     50.90535      -999.25    815.00009     14.55552     -0.00604
        556.26000     50.61443      -999.25    798.66659     13.18256      0.19096
        556.41240     49.95627      -999.25    827.49991     12.37809     -0.15554
        556.56480     49.16705      -999.25    833.66665     11.34837      0.03989
        556.71720     49.11071      -999.25    831.49994     12.31373     -0.10334
        556.86960     48.76434      -999.25    827.99989     11.97050      0.08135
        557.02200     47.94654      -999.25    873.33329     14.61988     -0.16174
        557.17440     49.13174      -999.25    857.00002     14.78077      0.28870
        557.32680     48.62759      -999.25    870.66660     15.12401     -0.16905
        557.47920     48.35443      -999.25    852.50002     13.99776      0.08399
        557.63160     48.96385      -999.25    839.66657     13.53653     -0.15962
        557.78400     49.06760      -999.25    843.99999     13.05385      0.11307
        557.93640     49.86047      -999.25    837.00011     13.04312     -0.12587
        558.08880     50.43114      -999.25    830.99996     11.89541      0.14379
        558.24120     50.28707      -999.25    839.99996     13.42927     -0.01531
        558.39360     49.51593      -999.25    855.33328     15.03820      0.01428
        558.54600     48.99820      -999.25    868.66670     15.68178     -0.06640
        558.69840     49.25173      -999.25    846.00012     17.94502      0.05444
        558.85080     49.24814      -999.25    862.49997     19.26435      0.06421
        559.00320     49.26048      -999.25    847.33323     18.53496     -0.05823
        559.15560     50.38882      -999.25    826.66677     18.93183      0.09729
        559.30800     51.21878      -999.25    841.50011     17.32290     -0.05341
        559.46040     51.66739      -999.25    850.66670     15.05965      0.11168
        559.61280     51.22266      -999.25    861.00004     14.20156     -0.08030
        559.76520     51.17136      -999.25    834.00004     14.04066      0.08889
        559.91760     51.77439      -999.25    843.99999     14.04066     -0.19562
        560.07000     52.03374      -999.25    856.00007     14.84513      0.17574
        560.22240     51.52298      -999.25    867.99992     15.17764     -0.11366
        560.37480     51.25966      -999.25    875.33341     15.52088      0.10025
        560.52720     51.59945      -999.25    843.99999     15.68178     -0.12266
        560.67960     51.42760      -999.25    827.33333     14.15865      0.00690
        560.83200     51.85740      -999.25    818.33333     14.04066     -0.04533
        560.98440     52.52426      -999.25    830.00001     14.52334      0.11842
        561.13680     52.90620      -999.25    832.66670     16.13228      0.00503
        561.28920     53.00964      -999.25    843.50002     15.66033     -0.00368
        561.44160     53.08773      -999.25    854.66673     16.94748     -0.02476
        561.59400     52.04272      -999.25    851.66665     16.43261     -0.08054
        561.74640     52.90279      -999.25    876.49994     17.33362      0.04601
        561.89880     53.47509      -999.25    852.99999     15.72468     -0.06673
        562.05120     53.09431      -999.25    880.66678     15.72468      0.19392
        562.20360     52.51130      -999.25    889.00000     15.24200     -0.09837
        562.35600     52.63498      -999.25    847.00007     15.55306      0.13655
        562.50840     53.28565      -999.25    853.99994     14.52334     -0.22723
        562.66080     53.50488      -999.25    824.33325     14.52334      0.05468
        562.81320     53.45859      -999.25    816.00004     15.15619     -0.08727
        562.96560     52.49151      -999.25    844.99994     14.19083      0.22047
        563.11800     52.00057      -999.25    843.33321     13.70815     -0.15547
        563.27040     52.25852      -999.25    862.49997     13.35418      0.07125
        563.42280     51.54084      -999.25    870.99999     13.35418     -0.13106
        563.57520     51.11689      -999.25    875.49999     12.72133      0.04328
        563.72760     52.82087      -999.25    852.33343     13.68670     -0.07616
        563.88000     52.25397      -999.25    830.99996     13.34346      0.15900
        564.03240     52.92800      -999.25    854.99989     13.66524      0.06966
        564.18480     54.06658      -999.25    854.99989     14.18010      0.01050
        564.33720     53.82112      -999.25    843.50002     15.61742     -0.22611
        564.48960     54.52931      -999.25    846.66667     17.22636     -0.07289
        564.64200     54.61503      -999.25    869.33349     17.91284      0.07256
        564.79440     52.52824      -999.25    881.49992     17.94502     -0.09277
        564.94680     52.53283      -999.25    857.33341     17.43015      0.15979
        565.09920     52.74972      -999.25    851.50007     16.78658     -0.07095
        565.25160     38.97993      -999.25    846.33328     16.06792      0.00989
