~VERSION INFORMATION 
VERS  .    2.0                                     :CWLS Log ASCII Standard - VERSION 2.0
WRAP  .    NO                                      :One Line per Depth step
PROD  .    Schlumberger Technology Corp.           :LAS Producer
PROG  .    Horizon LASWriter 13.0.221437.3100      :LAS Program name and version
SOURCE.    2. CBL-VDL-Log[3]/Up                    :Run&Pass Information
CREA  .    12/05/2023                              :LAS Creation date {MM/DD/YYYY}
#--------------------------------------------------
~WELL INFORMATION 
#MNEM           .UNIT                      DATA            :DESCRIPTION
#----            ------          --------------            -----------------------------
STRT            .m                      3.65760            :START DEPTH
STOP            .m                   2738.01840            :STOP DEPTH
STEP            .m                       0.1524            :STEP
NULL            .                       -999.25            :NULL VALUE
COMP            .                PAN AMERICAN ENERGY LLC   :COMPANY
WELL            .                PAE.CH.LMS-1034(d)        :WELL NAME
FLD             .                LA MADRE SELVA            :FIELD NAME
RIGN            .                                          :Rig Name
RIGTYP          .                       Rigless            :Rig Type
SON             .                A.1011303.91.01           :Service Order Number
SRVC            .                  Schlumberger            :SERVICE COMPANY
DATE            .                    12/05/2023            :LOG DATE(Composite Date for Composite LAP) (MM/DD/YYYY)
CLAB            .                    Provincia:            :County Label
CNTY            .                        CHUBUT            :COUNTY
SLAB            .                            X:            :State/Province Label
STAT            .                             X            :STATE or PROVINCE
PROV            .                             X            :STATE or PROVINCE
CTRY            .                     ARGENTINA            :COUNTRY
CONT_REGION     .                    S. America            :Continent Region
SECT            .                       Rigless            :Section
TOWN            .                    4915900.85            :Township
RANG            .                    2544268.09            :Range
API             .                EARAD0040501021           :API NUMBER
UWI             .                                          :UNIQUE WELL ID
LUL             .                          ARCS            :Logging Unit Location
LUN             .                          7704            :Logging Unit Number
LOC             .                          ARCS            :FIELD LOCATION
FL1             .                                          :Field Location Line 1
FL2             .                                          :Field Location Line 2
LATI            .deg                 -45.908570            :LATITUDE
LONG            .deg                 -68.431750            :LONGITUDE
PDAT            .                            GL            :Local Permanent Datum
LMF             .                            DF            :Logging Measured From
APD             .m                      6.20000            :Elevation of Depth Reference (LMF) Above Permanent Datum
EPD             .m                    698.54000            :Elevation of Permanent Datum (PDAT) above Mean Sea Level
EKB             .m                      -999.25            :Elevation of Kelly Bushing Above Permanent Datum
EDF             .m                      6.20000            :Elevation of Drill Floor Above Permanent Datum
EGL             .m                      0.00000            :Elevation of Ground Level Above Permanent Datum
ECF             .m                      -999.25            :Elevation of Casing Flange above Permanent Datum
#--------------------------------------------------
~CURVE INFORMATION
#MNEM           .UNIT                  API CODE            :DESCRIPTION
#----            ------          --------------            -----------------------------
DEPT            .m                                         :                                                        Depth Index
CBL             .mV                                        :        (SCMT-HC)               (2in)                   CBL Amplitude
TT              .us                                        :        (SCMT-HC)               (2in)                   Transit Time for CBL
TENS            .lbf                                       :        (WLWorkflow)            (1in)                   Cable Tension
GR              .gAPI                                      :        (PSTP-E)                (6in)                   Gamma Ray
CCLC            .V                                         :        (PSTP-E)                (1in)                   CCL Computed Amplitude
#-------------------------------------------------------------
#            DEPT          CBL           TT         TENS           GR         CCLC 
#                    (SCMT-HC)    (SCMT-HC)  (WLWorkflo)     (PSTP-E)     (PSTP-E) 
#                                                                                  
#                        (2in)        (2in)        (1in)        (6in)        (1in) 
~ASCII
# ...
       1274.97840     71.02207    268.19630   1662.33332     32.15730     -0.05750
       1275.13080     71.00236    268.18210   1615.50000     34.21674      0.04251
       1275.28320     70.79967    268.20010   1656.00000     32.43618     -0.13260
       1275.43560     70.81731    268.21390   1614.33346     30.37674      0.07597
       1275.58800     70.47910    268.26350   1611.99995     30.03350     -0.05336
       1275.74040     70.32712    268.19160   1634.33336     30.03350      0.03654
       1275.89280     70.34018    268.19710   1621.50015     27.28758     -0.08944
       1276.04520     71.11943    268.21020   1648.33334     27.45920      0.09392
       1276.19760     71.08293    268.17430   1641.00007     26.42948     -0.11209
       1276.35000     71.14129    268.20430   1666.66674     28.31730      0.19751
       1276.50240     71.01929    268.22110   1694.33330     27.11596     -0.14973
       1276.65480     71.11489    268.21880   1669.00003     25.91462      0.16987
       1276.80720     71.01666    268.22130   1666.66674     26.77272     -0.05576
       1276.95960     71.37679    268.22270   1642.66658     26.77272      0.06519
       1277.11200     71.29327    268.20080   1629.66678     26.84780     -0.03256
       1277.26440     71.03098    268.21940   1621.33334     28.73562      0.06549
       1277.41680     71.51091    268.17070   1616.66675     31.48154     -0.02465
       1277.56920     71.45038    268.18260   1619.66660     32.16802     -0.11545
       1277.72160     70.51913    268.14410   1624.33341     33.88422      0.11624
       1277.87400     71.25507    268.24060   1646.50002     35.52534     -0.05379
       1278.02640     71.47012    268.25780   1633.33341     35.69696      0.12483
       1278.17880     71.20972    268.23480   1669.33342     34.32400     -0.07389
       1278.33120     71.05229    268.17470   1644.33332     35.51461     -0.00686
       1278.48360     70.16868    268.10870   1660.99998     37.74567     -0.07907
       1278.63600     69.82014    268.02870   1684.66674     36.54433      0.23145
       1278.78840     70.70831    268.10680   1673.33322     38.60377     -0.05934
       1278.94080     71.35407    268.11380   1673.00005     39.98746      0.15598
       1279.09320     70.94978    268.11510   1651.66658     38.11036     -0.11068
       1279.24560     70.47078    268.11070   1633.66681     38.11037      0.14500
       1279.39800     69.31310    268.03440   1638.33339     40.51305     -0.02850
       1279.55040     69.32788    267.92060   1620.00000     39.99818      0.13929
       1279.70280     68.98075    267.95540   1643.33337     40.15908     -0.07517
       1279.85520     68.64030    267.95070   1638.33339     44.62120      0.07397
       1280.00760     67.86349    267.92970   1656.33339     45.53293     -0.12691
       1280.16000     67.73853    267.92280   1651.50000     46.56265      0.06290
       1280.31240     68.92409    267.95600   1651.66658     50.33829     -0.20666
       1280.46480     66.85089    267.91090   1632.00007     53.77069      0.12704
       1280.61720     66.86047    267.92560   1640.66668     53.94231     -0.12101
       1280.76960     67.71294    267.92650   1619.66660     54.57516      0.07324
       1280.92200     66.94469    267.91670   1633.00002     52.79461     -0.09442
       1281.07440     68.06894    268.11670   1632.33324     50.04868      0.08670
       1281.22680     69.19302    268.14860   1650.00008     46.95952     -0.02569
       1281.37920     68.41753    268.19560   1644.33332     46.10142      0.03620
       1281.53160     69.58782    268.17810   1664.00005     45.79036     -0.05570
       1281.68400     69.79198    268.17400   1633.99997     46.88444      0.15719
       1281.83640     69.71409    268.17950   1630.49992     47.91416     -0.17829
       1281.98880     71.72923    268.35840   1638.00000     48.94387      0.12669
       1282.14120     71.61857    268.39090   1634.49995     48.25740     -0.23976
       1282.29360     71.34556    268.38270   1616.49995     46.64846      0.15185
       1282.44600     55.56546    268.63710   1624.99997     44.93226     -0.21300
       1282.59840     56.38030    271.51580   1614.00007     42.18634      0.37638
       1282.75080     50.92437    271.94060   1630.66673     39.44042     -0.12056
       1282.90320     55.90836    272.03270   1610.00004     37.58478      2.31121
       1283.05560     56.20055    272.04320   1637.66661     36.75886     -0.57051
       1283.20800     55.73669    271.89100   1624.00002     34.80668     -0.45163
       1283.36040     55.60277    270.64180   1638.99995     34.80668      0.10601
       1283.51280     64.06060    267.97500   1656.99995     35.69696      0.16239
       1283.66520     70.02155    268.01230   1649.00013     36.01875      0.07482
       1283.81760     71.50292    268.05470   1645.00010     36.70523     -0.06332
       1283.97000     71.24117    268.05540   1623.50005     37.34880      0.03544
       1284.12240     71.76118    268.05340   1624.99997     37.17718     -0.05644
       1284.27480     71.41658    268.07420   1619.50002     35.72914      0.00351
       1284.42720     71.55893    268.06790   1620.33339     37.09137      0.06941
       1284.57960     71.48447    268.04210   1609.00009     36.58724      0.15284
       1284.73200     71.39664    267.99960   1633.00002     37.89584     -0.07647
       1284.88440     71.18432    267.97380   1615.00002     37.26299      0.05361
       1285.03680     71.00105    267.91800   1632.00007     38.33562     -0.04490
       1285.18920     70.93892    267.88810   1633.00002     36.81249     -0.04198
       1285.34160     70.98959    267.91520   1634.99992     37.61696     -0.13579
       1285.49400     71.12682    267.93230   1646.66661     36.41562      0.19865
       1285.64640     70.23679    267.98120   1649.66668     38.59305     -0.25912
       1285.79880     70.08578    267.89890   1641.00007     42.82991      0.14980
       1285.95120     70.52167    267.85800   1638.33339     45.55438     -0.18242
       1286.10360     70.34558    267.93260   1614.00007     47.96778      0.11581
       1286.25600     70.42210    267.90950   1618.00010     51.07840     -0.13334
       1286.40840     69.94654    267.89620   1624.00002     50.39192      0.13333
       1286.56080     68.95085    267.93170   1630.66673     48.62209     -0.08817
       1286.71320     69.32764    267.96320   1643.33337     45.01807      0.00505
       1286.86560     68.32155    267.98930   1651.00003     41.80019     -0.01033
       1287.01800     68.18669    267.97140   1638.00000     38.17472     -0.09352
       1287.17040     67.82291    267.96280   1643.49995     36.36199      0.06366
       1287.32280     67.97641    267.92260   1623.50005     34.75305     -0.03829
       1287.47520     67.93367    267.91260   1622.33351     34.06657      0.05952
       1287.62760     68.06787    267.93080   1620.99995     34.06657     -0.15094
       1287.78000     67.81969    267.93880   1638.00000     33.66970      0.15053
       1287.93240     68.00124    267.96370   1630.66673     33.18702     -0.12063
       1288.08480     68.23653    267.94010   1645.50007     33.53026      0.15682
       1288.23720     68.73155    267.91840   1642.99997     34.29182     -0.06172
       1288.38960     68.76170    267.95890   1650.50005     35.13920      0.02830
       1288.54200     68.98050    267.94800   1646.66661     34.81741     -0.10758
       1288.69440     68.73746    267.95320   1633.00002     37.45607      0.16975
       1288.84680     69.19539    267.90440   1638.49997     36.95193     -0.10129
       1288.99920     69.39165    267.94450   1627.00010     39.45115      0.10516
       1289.15160     69.27299    267.99680   1626.33331     40.85629     -0.10659
       1289.30400     68.72758    267.98790   1629.33339     43.75237      0.06273
       1289.45640     68.31968    267.99390   1622.33329     41.86455     -0.10942
       1289.60880     68.17353    267.98560   1637.33344     40.09472      0.04607
