~VERSION INFORMATION 
VERS  .    2.0                                     :CWLS Log ASCII Standard - VERSION 2.0
WRAP  .    NO                                      :One Line per Depth step
PROD  .    Schlumberger Technology Corp.           :LAS Producer
PROG  .    Horizon LASWriter 13.0.221437.3100      :LAS Program name and version
SOURCE.    2. CBL-VDL-Log[3]/Up                    :Run&Pass Information
CREA  .    12/05/2023                              :LAS Creation date {MM/DD/YYYY}
#--------------------------------------------------
~WELL INFORMATION 
#MNEM           .UNIT                      DATA            :DESCRIPTION
#----            ------          --------------            -----------------------------
STRT            .m                      3.65760            :START DEPTH
STOP            .m                   2738.01840            :STOP DEPTH
STEP            .m                       0.1524            :STEP
NULL            .                       -999.25            :NULL VALUE
COMP            .                PAN AMERICAN ENERGY LLC   :COMPANY
WELL            .                PAE.CH.LMS-1034(d)        :WELL NAME
FLD             .                LA MADRE SELVA            :FIELD NAME
RIGN            .                                          :Rig Name
RIGTYP          .                       Rigless            :Rig Type
SON             .                A.1011303.91.01           :Service Order Number
SRVC            .                  Schlumberger            :SERVICE COMPANY
DATE            .                    12/05/2023            :LOG DATE(Composite Date for Composite LAP) (MM/DD/YYYY)
CLAB            .                    Provincia:            :County Label
CNTY            .                        CHUBUT            :COUNTY
SLAB            .                            X:            :State/Province Label
STAT            .                             X            :STATE or PROVINCE
PROV            .                             X            :STATE or PROVINCE
CTRY            .                     ARGENTINA            :COUNTRY
CONT_REGION     .                    S. America            :Continent Region
SECT            .                       Rigless            :Section
TOWN            .                    4915900.85            :Township
RANG            .                    2544268.09            :Range
API             .                EARAD0040501021           :API NUMBER
UWI             .                                          :UNIQUE WELL ID
LUL             .                          ARCS            :Logging Unit Location
LUN             .                          7704            :Logging Unit Number
LOC             .                          ARCS            :FIELD LOCATION
FL1             .                                          :Field Location Line 1
FL2             .                                          :Field Location Line 2
LATI            .deg                 -45.908570            :LATITUDE
LONG            .deg                 -68.431750            :LONGITUDE
PDAT            .                            GL            :Local Permanent Datum
LMF             .                            DF            :Logging Measured From
APD             .m                      6.20000            :Elevation of Depth Reference (LMF) Above Permanent Datum
EPD             .m                    698.54000            :Elevation of Permanent Datum (PDAT) above Mean Sea Level
EKB             .m                      -999.25            :Elevation of Kelly Bushing Above Permanent Datum
EDF             .m                      6.20000            :Elevation of Drill Floor Above Permanent Datum
EGL             .m                      0.00000            :Elevation of Ground Level Above Permanent Datum
ECF             .m                      -999.25            :Elevation of Casing Flange above Permanent Datum
#--------------------------------------------------
~CURVE INFORMATION
#MNEM           .UNIT                  API CODE            :DESCRIPTION
#----            ------          --------------            -----------------------------
DEPT            .m                                         :                                                        Depth Index
CBL             .mV                                        :        (SCMT-HC)               (2in)                   CBL Amplitude
TT              .us                                        :        (SCMT-HC)               (2in)                   Transit Time for CBL
TENS            .lbf                                       :        (WLWorkflow)            (1in)                   Cable Tension
GR              .gAPI                                      :        (PSTP-E)                (6in)                   Gamma Ray
CCLC            .V                                         :        (PSTP-E)                (1in)                   CCL Computed Amplitude
#-------------------------------------------------------------
#            DEPT          CBL           TT         TENS           GR         CCLC 
#                    (SCMT-HC)    (SCMT-HC)  (WLWorkflo)     (PSTP-E)     (PSTP-E) 
#                                                                                  
#                        (2in)        (2in)        (1in)        (6in)        (1in) 
~ASCII
# ...
        373.22760     55.76970      -999.25    644.00006     28.08439     -0.08919
        373.38000     54.08495      -999.25    667.99999     28.63602      0.14900
        373.53240     53.35256      -999.25    680.00007     30.35222     -0.14190
        373.68480     52.55448      -999.25    678.66673     30.62191      0.10985
        373.83720     50.79552      -999.25    683.99987     29.93543     -0.05516
        373.98960     49.15236      -999.25    700.66675     29.93543      0.05366
        374.14200     47.94198      -999.25    696.50014     29.56768     -0.09379
        374.29440     47.55348      -999.25    685.00004     26.47852      0.02239
        374.44680     47.79953      -999.25    687.99989     26.30689      0.09822
        374.59920     48.43145      -999.25    697.00012     24.28423      0.01570
        374.75160     49.09308      -999.25    676.50002     23.42613     -0.05136
        374.90400     50.13589      -999.25    679.00012     21.83252     -0.06253
        375.05640     49.99245      -999.25    672.33341     22.17575      0.03364
        375.20880     49.92352      -999.25    648.00009     18.40011     -0.11889
        375.36120     49.47479      -999.25    660.99989     18.53496      0.11096
        375.51360     49.15267      -999.25    667.99999     19.22144     -0.07279
        375.66600     48.50235      -999.25    679.50009     20.99893      0.19633
        375.81840     47.33006      -999.25    673.66675     21.10926     -0.16535
        375.97080     45.43949      -999.25    684.50007     23.85518      0.11765
        376.12320     44.60269      -999.25    683.99987     26.25786     -0.14247
        376.27560     35.05125      -999.25    666.00009     25.32621      0.01250
        376.42800     36.91159      -999.25    676.33343     23.03386     -0.17798
        376.58040     32.90805      -999.25    684.50007     22.23705      0.65916
        376.73280     35.15085      -999.25    704.99995     22.24931      1.48478
        376.88520     35.29211      -999.25    708.50000     21.39121     -1.03566
        377.03760     37.15491      -999.25    691.99992     21.39121     -0.94162
        377.19000     29.79314      -999.25    683.99987     22.07769      0.38975
        377.34240     41.56124      -999.25    676.00004     23.42613      0.17113
        377.49480     43.25949      -999.25    683.49989     22.21253      0.08145
        377.64720     44.67968      -999.25    678.33333     23.07063     -0.03694
        377.79960     44.43022      -999.25    672.49999     23.25451      0.14545
        377.95200     43.96287      -999.25    682.66675     22.39641     -0.09754
        378.10440     44.22523      -999.25    680.50004     23.62226      0.11796
        378.25680     44.37593      -999.25    676.33343     22.76417     -0.04860
        378.40920     44.85754      -999.25    658.99999     19.67501      0.11640
        378.56160     45.57435      -999.25    664.49994     18.57174     -0.14431
        378.71400     45.68970      -999.25    684.66665     20.45956      0.07990
        378.86640     46.47372      -999.25    690.99997     19.23370     -0.05755
        379.01880     47.14328      -999.25    689.33324     19.92018     -0.00077
        379.17120     48.51112      -999.25    681.49999     20.94990      0.01744
        379.32360     48.84399      -999.25    659.49997     21.59960      0.06789
        379.47600     48.77649      -999.25    688.33329     20.70473     -0.00242
        379.62840     50.28784      -999.25    691.49994     20.55762     -0.08440
        379.78080     51.80380      -999.25    709.99992     20.38601      0.11062
        379.93320     52.52279      -999.25    686.49997     19.72404     -0.17238
        380.08560     54.03084      -999.25    661.00012     20.23890      0.10097
        380.23800     53.58281      -999.25    672.49999     20.05502     -0.13441
        380.39040     54.58743      -999.25    677.33338     18.33883      0.17393
        380.54280     56.35616      -999.25    681.00002     18.79239     -0.09329
        380.69520     57.20777      -999.25    683.99987     20.14083      0.10105
        380.84760     58.31748      -999.25    697.50010     21.34217     -0.06207
        381.00000     58.74802      -999.25    696.50014     21.04797      0.06234
        381.15240     60.97453      -999.25    711.66666     22.54351     -0.04672
        381.30480     63.27974      -999.25    707.50005     23.46290     -0.06764
        381.45720     64.81476      -999.25    672.99997     22.77642      0.10124
        381.60960     64.54211      -999.25    672.33341     20.37374     -0.14749
        381.76200     64.49268      -999.25    658.00004     19.56468      0.04396
        381.91440     65.44397      -999.25    652.66667     19.44209     -0.01603
        382.06680     66.06213      -999.25    651.50014     18.52270      0.22165
        382.21920     66.29799      -999.25    644.33323     18.35108     -0.18599
        382.37160     66.57755      -999.25    662.50004     19.89566      0.04294
        382.52400     66.84254      -999.25    691.33336     23.02160     -0.12237
        382.67640     67.57548      -999.25    685.50002     23.02160      0.05084
        382.82880     67.92577      -999.25    700.99992     23.59775     -0.01439
        382.98120     67.53371      -999.25    695.49997     24.39456     -0.00615
        383.13360     67.29449      -999.25    674.66670     25.42428      0.04026
        383.28600     67.42274      -999.25    662.00007     22.66610     -0.02124
        383.43840     67.43819      -999.25    657.66665     23.52420      0.06954
        383.59080     67.42722      -999.25    671.00007     22.32286     -0.13130
        383.74320     66.48984      -999.25    679.33328     21.21959      0.08857
        383.89560     65.92441      -999.25    697.00012     19.50339     -0.11549
        384.04800     65.75468      -999.25    695.33339     19.60146      0.03016
        384.20040     65.69987      -999.25    694.99999     18.74336     -0.06226
        384.35280     66.53486      -999.25    682.49994     19.73630      0.06776
        384.50520     66.92311      -999.25    675.00009     20.21438     -0.01976
        384.65760     66.59389      -999.25    658.00004     20.90086     -0.03047
        384.81000     66.19163      -999.25    666.66665     20.98667     -0.02166
        384.96240     66.28547      -999.25    656.50011     20.37374     -0.06093
        385.11480     66.47063      -999.25    640.00004     19.03756      0.12976
        385.26720     67.19096      -999.25    632.99994     20.23890     -0.06536
        385.41960     66.85211      -999.25    642.33333     18.35108      0.07899
        385.57200     66.54843      -999.25    667.99999     18.35108     -0.20278
        385.72440     66.53545      -999.25    706.50010     18.62077      0.16758
        385.87680     66.51099      -999.25    717.99997     20.69247     -0.13577
        386.02920     66.05167      -999.25    714.49992     18.46141      0.07875
        386.18160     66.16180      -999.25    700.99992     20.69247     -0.06583
        386.33400     66.06644      -999.25    672.99997     20.14083     -0.00116
        386.48640     66.04861      -999.25    668.66677     21.34217      0.07065
        386.63880     65.66553      -999.25    657.50006     20.47181     -0.04055
        386.79120     65.15223      -999.25    650.66677     20.10406      0.10099
        386.94360     65.25745      -999.25    677.49997     19.93244     -0.12251
        387.09600     64.80664      -999.25    671.00007     20.39826      0.09472
        387.24840     64.79903      -999.25    664.99992     20.56988     -0.18858
        387.40080     64.60291      -999.25    686.49997     20.91312      0.09060
        387.55320     64.95559      -999.25    672.33341     22.20027     -0.09726
        387.70560     65.28639      -999.25    680.00007     23.22999      0.08400
        387.85800     65.29994      -999.25    672.99997     24.23520     -0.07994
