~VERSION INFORMATION 
VERS  .    2.0                                     :CWLS Log ASCII Standard - VERSION 2.0
WRAP  .    NO                                      :One Line per Depth step
PROD  .    Schlumberger Technology Corp.           :LAS Producer
PROG  .    Horizon LASWriter 13.0.221437.3100      :LAS Program name and version
SOURCE.    2. CBL-VDL-Log[3]/Up                    :Run&Pass Information
CREA  .    12/05/2023                              :LAS Creation date {MM/DD/YYYY}
#--------------------------------------------------
~WELL INFORMATION 
#MNEM           .UNIT                      DATA            :DESCRIPTION
#----            ------          --------------            -----------------------------
STRT            .m                      3.65760            :START DEPTH
STOP            .m                   2738.01840            :STOP DEPTH
STEP            .m                       0.1524            :STEP
NULL            .                       -999.25            :NULL VALUE
COMP            .                PAN AMERICAN ENERGY LLC   :COMPANY
WELL            .                PAE.CH.LMS-1034(d)        :WELL NAME
FLD             .                LA MADRE SELVA            :FIELD NAME
RIGN            .                                          :Rig Name
RIGTYP          .                       Rigless            :Rig Type
SON             .                A.1011303.91.01           :Service Order Number
SRVC            .                  Schlumberger            :SERVICE COMPANY
DATE            .                    12/05/2023            :LOG DATE(Composite Date for Composite LAP) (MM/DD/YYYY)
CLAB            .                    Provincia:            :County Label
CNTY            .                        CHUBUT            :COUNTY
SLAB            .                            X:            :State/Province Label
STAT            .                             X            :STATE or PROVINCE
PROV            .                             X            :STATE or PROVINCE
CTRY            .                     ARGENTINA            :COUNTRY
CONT_REGION     .                    S. America            :Continent Region
SECT            .                       Rigless            :Section
TOWN            .                    4915900.85            :Township
RANG            .                    2544268.09            :Range
API             .                EARAD0040501021           :API NUMBER
UWI             .                                          :UNIQUE WELL ID
LUL             .                          ARCS            :Logging Unit Location
LUN             .                          7704            :Logging Unit Number
LOC             .                          ARCS            :FIELD LOCATION
FL1             .                                          :Field Location Line 1
FL2             .                                          :Field Location Line 2
LATI            .deg                 -45.908570            :LATITUDE
LONG            .deg                 -68.431750            :LONGITUDE
PDAT            .                            GL            :Local Permanent Datum
LMF             .                            DF            :Logging Measured From
APD             .m                      6.20000            :Elevation of Depth Reference (LMF) Above Permanent Datum
EPD             .m                    698.54000            :Elevation of Permanent Datum (PDAT) above Mean Sea Level
EKB             .m                      -999.25            :Elevation of Kelly Bushing Above Permanent Datum
EDF             .m                      6.20000            :Elevation of Drill Floor Above Permanent Datum
EGL             .m                      0.00000            :Elevation of Ground Level Above Permanent Datum
ECF             .m                      -999.25            :Elevation of Casing Flange above Permanent Datum
#--------------------------------------------------
~CURVE INFORMATION
#MNEM           .UNIT                  API CODE            :DESCRIPTION
#----            ------          --------------            -----------------------------
DEPT            .m                                         :                                                        Depth Index
CBL             .mV                                        :        (SCMT-HC)               (2in)                   CBL Amplitude
TT              .us                                        :        (SCMT-HC)               (2in)                   Transit Time for CBL
TENS            .lbf                                       :        (WLWorkflow)            (1in)                   Cable Tension
GR              .gAPI                                      :        (PSTP-E)                (6in)                   Gamma Ray
CCLC            .V                                         :        (PSTP-E)                (1in)                   CCL Computed Amplitude
#-------------------------------------------------------------
#            DEPT          CBL           TT         TENS           GR         CCLC 
#                    (SCMT-HC)    (SCMT-HC)  (WLWorkflo)     (PSTP-E)     (PSTP-E) 
#                                                                                  
#                        (2in)        (2in)        (1in)        (6in)        (1in) 
~ASCII
# ...
       1452.37200     64.04678    267.73670   1915.00014     37.89584     -0.06159
       1452.52440     62.46716    267.57220   1887.99991     37.25227      0.06883
       1452.67680     60.88109    267.51100   1884.66667     36.60869     -0.09861
       1452.82920     58.03705    267.34770   1887.33335     34.51707      0.04343
       1452.98160     52.23836    267.01860   1874.49991     34.43126     -0.07843
       1453.13400     53.43544    267.15970   1866.49986     31.37428      0.12867
       1453.28640     57.70538    267.42180   1871.50028     30.73071     -0.14995
       1453.43880     59.44297    267.48790   1871.00008     31.53518      0.21718
       1453.59120     62.18313    267.65710   1878.66674     34.95685     -0.05968
       1453.74360     63.93996    267.87230   1910.00016     38.33562      0.08286
       1453.89600     66.62775    267.98860   1900.33338     41.07081     -0.10914
       1454.04840     72.47912    268.10790   1899.99998     45.25405      0.14906
       1454.20080     73.90450    268.13130   1897.66669     46.38030     -0.10291
       1454.35320     73.99919    268.17340   1874.49991     44.40668      0.11755
       1454.50560     72.91413    268.20690   1920.00011     42.31506     -0.09169
       1454.65800     72.70602    268.27190   1864.49995     38.93629      0.08138
       1454.81040     73.12032    268.28090   1869.00018     36.36199     -0.04280
       1454.96280     72.78440    268.28000   1874.33332     35.23573      0.02627
       1455.11520     72.75443    268.26340   1862.00008     37.32735      0.04289
       1455.26760     72.62892    268.25130   1869.00018     38.23592     -0.03797
       1455.42000     72.43185    268.27810   1904.66679     38.55772     -0.02564
       1455.57240     73.33755    268.35850   1898.00008     39.36218     -0.00839
       1455.72480     73.25270    268.37020   1893.33328     39.52308      0.03183
       1455.87720     73.50701    268.27520   1922.00001     35.97269     -0.03833
       1456.02960     73.21931    268.28700   1887.33335     35.66983      0.11380
       1456.18200     72.70837    268.34370   1910.00016     36.09888     -0.08409
       1456.33440     73.43070    268.29150   1886.66679     35.13351      0.11580
       1456.48680     73.62306    268.23210   1903.00006     35.45530     -0.02933
       1456.63920     73.36514    268.26020   1898.00008     36.27050      0.01350
       1456.79160     68.42466    267.55130   1896.66674     32.60780     -0.00107
       1456.94400     60.30361    269.79340   1890.00003     32.66143      0.20930
       1457.09640     44.81626    272.21840   1886.00001     32.66143     -0.11316
       1457.24880     56.20919    271.77030   1877.49998     31.21339      0.34362
       1457.40120     56.95102    271.82520   1885.50003     33.30500      1.75234
       1457.55360     57.43263    271.80940   1880.00008     34.81741     -1.61814
       1457.70600     43.76183    272.26010   1879.00013     36.26545     -0.27787
       1457.85840     62.42596    272.39670   1912.50026     36.10456      0.01803
       1458.01080     59.12232    270.32090   1904.99996     37.23081      0.13274
       1458.16320     74.11667    268.02460   1911.66689     36.58724     -0.03488
       1458.31560     74.44351    268.06120   1905.66674     38.13182      0.09274
       1458.46800     73.92358    268.17430   1915.00014     38.29271     -0.00837
       1458.62040     73.63058    268.11900   1897.49988     38.93629      0.05821
       1458.77280     73.78412    268.20100   1904.66679     38.77539     -0.02655
       1458.92520     74.04027    268.19200   1892.66672     39.41897      0.02302
       1459.07760     72.85820    268.31490   1916.33325     40.54522      0.04186
       1459.23000     72.76348    268.34270   1909.49996     39.57986     -0.01116
       1459.38240     71.94632    268.28020   1923.00019     41.18880      0.03730
       1459.53480     71.29330    268.21150   1910.00016     42.24880     -0.03780
       1459.68720     71.16133    268.19130   1903.33323     39.83540      0.06296
       1459.83960     70.68145    268.08190   1920.00011     39.99629     -0.01231
       1459.99200     70.89926    268.19490   1921.66685     40.15719     -0.01757
       1460.14440     70.39361    268.10010   1887.99991     39.83540      0.05756
       1460.29680     69.84967    268.11050   1881.99998     37.97092     -0.04469
       1460.44920     70.57764    268.20970   1904.50021     39.74075      0.04131
       1460.60160     69.94225    268.12650   1891.33315     37.09074     -0.09737
       1460.75400     68.83493    267.97700   1908.99999     36.12538      0.20216
       1460.90640     70.10838    268.04150   1912.33323     36.92985     -0.10413
       1461.05880     68.18354    267.85920   1925.00009     37.41253      0.12853
       1461.21120     67.09563    268.01500   1922.33340     35.62377     -0.08924
       1461.36360     65.66769    267.88820   1928.99989     37.79110      0.10023
       1461.51600     51.78049    267.34340   1936.49974     37.46932     -0.04131
       1461.66840     42.23804    266.96340   1908.66682     35.86037      0.11364
       1461.82080     35.19395    266.28060   1893.66667     33.60786     -0.13171
       1461.97320     27.89821    265.73730   1884.99983     34.91394      0.02719
       1462.12560     24.42731    265.10330   1887.49993     33.30500     -0.10358
       1462.27800     21.10265    264.39840   1872.00003     33.22929      0.01558
       1462.43040     22.04123    264.41630   1890.00003     32.74661     -0.04343
       1462.58280     24.66829    265.09030   1915.33330     34.35555     -0.04538
       1462.73520     30.06217    265.72170   1917.99999     34.19465      0.01066
       1462.88760     35.44823    266.49350   1946.33333     34.24197     -0.01765
       1463.04000     42.68206    266.86780   1917.66682     37.37467      0.10200
       1463.19240     51.93357    267.16520   1924.00014     38.98361     -0.04891
       1463.34480     61.25282    267.88340   1895.99996     39.14450      0.13121
       1463.49720     68.61910    267.90800   1910.00016     42.39077     -0.09150
       1463.64960     71.53212    268.16340   1881.66659     44.91775      0.23850
       1463.80200     71.16441    268.08910   1909.49996     42.02166     -0.23401
       1463.95440     69.24138    268.08540   1890.99998     41.37809      0.23455
       1464.10680     68.73943    268.16310   1911.33328     44.59596     -0.16310
       1464.25920     69.19815    268.14800   1924.00014     43.38453      0.13732
       1464.41160     69.78786    268.12220   1935.00004     41.13201     -0.18822
       1464.56400     69.99565    268.15260   1926.50001     40.48844      0.19814
       1464.71640     69.13728    268.12710   1908.99999     40.13826     -0.07808
       1464.86880     68.21109    268.12890   1907.33325     38.69021      0.00490
       1465.02120     69.04572    268.11110   1880.33347     40.03415      0.04882
       1465.17360     69.35931    268.09590   1916.33325     39.87325      0.04126
       1465.32600     69.02393    268.12940   1880.00008     42.76934      0.15267
       1465.47840     68.70741    268.12910   1898.00008     44.24578      0.01712
       1465.63080     68.00098    268.10910   1924.00014     44.03756      0.12828
       1465.78320     68.66692    268.07850   1905.66674     40.01522     -0.14110
       1465.93560     68.81680    268.02510   1916.00009     38.88897      0.21071
       1466.08800     65.56254    267.99620   1911.49986     38.97414     -0.19022
       1466.24040     62.53730    267.86900   1919.00016     37.20432      0.21794
       1466.39280     57.46515    267.53490   1935.66660     36.92985     -0.19323
       1466.54520     52.89595    267.29590   1936.33338     38.54825      0.19172
       1466.69760     48.46768    266.91930   1921.66685     39.03093     -0.12319
       1466.85000     47.54896    266.99360   1923.66675     37.33681      0.14540
       1467.00240     47.49213    266.87400   1929.50009     37.81950     -0.08417
