~VERSION INFORMATION 
VERS  .    2.0                                     :CWLS Log ASCII Standard - VERSION 2.0
WRAP  .    NO                                      :One Line per Depth step
PROD  .    Schlumberger Technology Corp.           :LAS Producer
PROG  .    Horizon LASWriter 13.0.221437.3100      :LAS Program name and version
SOURCE.    2. CBL-VDL-Log[3]/Up                    :Run&Pass Information
CREA  .    12/05/2023                              :LAS Creation date {MM/DD/YYYY}
#--------------------------------------------------
~WELL INFORMATION 
#MNEM           .UNIT                      DATA            :DESCRIPTION
#----            ------          --------------            -----------------------------
STRT            .m                      3.65760            :START DEPTH
STOP            .m                   2738.01840            :STOP DEPTH
STEP            .m                       0.1524            :STEP
NULL            .                       -999.25            :NULL VALUE
COMP            .                PAN AMERICAN ENERGY LLC   :COMPANY
WELL            .                PAE.CH.LMS-1034(d)        :WELL NAME
FLD             .                LA MADRE SELVA            :FIELD NAME
RIGN            .                                          :Rig Name
RIGTYP          .                       Rigless            :Rig Type
SON             .                A.1011303.91.01           :Service Order Number
SRVC            .                  Schlumberger            :SERVICE COMPANY
DATE            .                    12/05/2023            :LOG DATE(Composite Date for Composite LAP) (MM/DD/YYYY)
CLAB            .                    Provincia:            :County Label
CNTY            .                        CHUBUT            :COUNTY
SLAB            .                            X:            :State/Province Label
STAT            .                             X            :STATE or PROVINCE
PROV            .                             X            :STATE or PROVINCE
CTRY            .                     ARGENTINA            :COUNTRY
CONT_REGION     .                    S. America            :Continent Region
SECT            .                       Rigless            :Section
TOWN            .                    4915900.85            :Township
RANG            .                    2544268.09            :Range
API             .                EARAD0040501021           :API NUMBER
UWI             .                                          :UNIQUE WELL ID
LUL             .                          ARCS            :Logging Unit Location
LUN             .                          7704            :Logging Unit Number
LOC             .                          ARCS            :FIELD LOCATION
FL1             .                                          :Field Location Line 1
FL2             .                                          :Field Location Line 2
LATI            .deg                 -45.908570            :LATITUDE
LONG            .deg                 -68.431750            :LONGITUDE
PDAT            .                            GL            :Local Permanent Datum
LMF             .                            DF            :Logging Measured From
APD             .m                      6.20000            :Elevation of Depth Reference (LMF) Above Permanent Datum
EPD             .m                    698.54000            :Elevation of Permanent Datum (PDAT) above Mean Sea Level
EKB             .m                      -999.25            :Elevation of Kelly Bushing Above Permanent Datum
EDF             .m                      6.20000            :Elevation of Drill Floor Above Permanent Datum
EGL             .m                      0.00000            :Elevation of Ground Level Above Permanent Datum
ECF             .m                      -999.25            :Elevation of Casing Flange above Permanent Datum
#--------------------------------------------------
~CURVE INFORMATION
#MNEM           .UNIT                  API CODE            :DESCRIPTION
#----            ------          --------------            -----------------------------
DEPT            .m                                         :                                                        Depth Index
CBL             .mV                                        :        (SCMT-HC)               (2in)                   CBL Amplitude
TT              .us                                        :        (SCMT-HC)               (2in)                   Transit Time for CBL
TENS            .lbf                                       :        (WLWorkflow)            (1in)                   Cable Tension
GR              .gAPI                                      :        (PSTP-E)                (6in)                   Gamma Ray
CCLC            .V                                         :        (PSTP-E)                (1in)                   CCL Computed Amplitude
#-------------------------------------------------------------
#            DEPT          CBL           TT         TENS           GR         CCLC 
#                    (SCMT-HC)    (SCMT-HC)  (WLWorkflo)     (PSTP-E)     (PSTP-E) 
#                                                                                  
#                        (2in)        (2in)        (1in)        (6in)        (1in) 
~ASCII
# ...
        181.05120     64.83780      -999.25    500.99999     17.27233      0.09092
        181.20360     65.08924      -999.25    504.50004     16.83102     -0.04009
        181.35600     65.25877      -999.25    503.00012     16.29164      0.09248
        181.50840     64.90145      -999.25    508.33326     16.56133     -0.06509
        181.66080     64.81149      -999.25    501.49997     15.96066     -0.02605
        181.81320     64.61250      -999.25    500.00004     15.61742      0.05723
        181.96560     64.99275      -999.25    497.66675     14.69803     -0.05999
        182.11800     64.47336      -999.25    500.00004     15.55613      0.09738
        182.27040     64.32787      -999.25    495.33346     14.45286     -0.05827
        182.42280     63.96954      -999.25    496.49999     13.93800      0.11418
        182.57520     64.34581      -999.25    500.33343     15.82582     -0.14881
        182.72760     64.23309      -999.25    501.99994     16.74521      0.12946
        182.88000     64.63831      -999.25    501.66678     17.77493     -0.14670
        183.03240     64.26827      -999.25    500.99999     18.09365      0.13133
        183.18480     64.86668      -999.25    501.66678     17.92203     -0.09742
        183.33720     64.67986      -999.25    504.00007     17.23555      0.09403
        183.48960     64.40229      -999.25    505.66658     17.41943     -0.08765
        183.64200     64.93245      -999.25    504.00007     17.41943      0.05658
        183.79440     65.55146      -999.25    505.00002     17.10071      0.08885
        183.94680     65.30537      -999.25    501.99994     18.30205     -0.06327
        184.09920     65.18425      -999.25    491.00004     17.62783      0.10345
        184.25160     64.92693      -999.25    509.50002     16.68392     -0.05162
        184.40400     65.00693      -999.25    505.00002     15.70323      0.06718
        184.55640     64.90495      -999.25    501.49997     15.67871     -0.06744
        184.70880     64.94263      -999.25    496.33341     13.19022      0.13840
        184.86120     64.69628      -999.25    503.50009     13.69283     -0.15824
        185.01360     64.98595      -999.25    505.66658     14.08510      0.08429
        185.16600     64.97903      -999.25    507.00014     13.69283     -0.10000
        185.31840     64.80023      -999.25    497.99992     12.83472      0.02408
        185.47080     64.67103      -999.25    500.00004     14.48963     -0.04004
        185.62320     64.64879      -999.25    494.66668     14.14639     -0.02220
        185.77560     65.07490      -999.25    497.49994     14.78384      0.07829
        185.92800     65.67914      -999.25    503.00012     14.80835     -0.06339
        186.08040     62.11767      -999.25    501.49997     15.32321     -0.04150
        186.23280     56.02969      -999.25    499.00009     13.48443      0.00245
        186.38520     40.80806      -999.25    509.00004     12.62633      0.06514
        186.53760     47.73349      -999.25    504.66663     10.70173      0.35444
        186.69000     50.31863      -999.25    508.00009     10.16236      1.97805
        186.84240     49.60523      -999.25    505.00002      9.42684     -2.37696
        186.99480     45.87214      -999.25    498.66670     12.44245     -0.04646
        187.14720     48.21704      -999.25    507.50012     13.30055      0.33994
        187.29960     53.72382      -999.25    506.33336     14.77158      0.03524
        187.45200     62.80345      -999.25    505.00002     14.77158      0.04155
        187.60440     63.54063      -999.25    513.33324     16.05873      0.09743
        187.75680     64.11610      -999.25    505.99997     13.82767      0.05150
        187.90920     64.96615      -999.25    503.50009     14.58770      0.12331
        188.06160     64.71675      -999.25    504.50004     14.18317      0.00508
        188.21400     64.94159      -999.25    499.50007     15.09030     -0.16441
        188.36640     65.02309      -999.25    505.49999     16.42649     -0.01400
        188.51880     65.15742      -999.25    495.00007     17.97107     -0.21258
        188.67120     64.95755      -999.25    495.50004     17.41943      0.16994
        188.82360     65.07675      -999.25    493.66673     16.38971     -0.16002
        188.97600     65.64012      -999.25    511.49992     15.13934      0.15874
        189.12840     65.74806      -999.25    517.66665     13.80315     -0.11970
        189.28080     65.84281      -999.25    531.00007     13.45991      0.10692
        189.43320     65.80672      -999.25    504.33324     14.19543     -0.11166
        189.58560     65.26176      -999.25    514.99997     15.39677      0.06117
        189.73800     65.59994      -999.25    516.33331     16.76973      0.02934
        189.89040     65.78589      -999.25    503.50009     16.03421      0.10956
        190.04280     65.96274      -999.25    501.33339     16.72069      0.02735
        190.19520     65.93018      -999.25    495.00007     16.97812     -0.03344
        190.34760     66.27180      -999.25    499.33326     18.13043      0.03905
        190.50000     66.57486      -999.25    503.50009     17.95881     -0.07945
        190.65240     66.16305      -999.25    503.66668     18.51044      0.13041
        190.80480     66.03458      -999.25    505.99997     17.65234     -0.09977
        190.95720     65.96585      -999.25    512.00012     16.65940      0.07562
        191.10960     66.14568      -999.25    509.00004     15.33547     -0.20188
        191.26200     66.11038      -999.25    507.49989     15.93614      0.11578
        191.41440     66.14208      -999.25    509.00004     15.39676     -0.17256
        191.56680     66.01026      -999.25    497.49994     15.22515      0.09821
        191.71920     66.19666      -999.25    505.99997     15.77678     -0.09557
        191.87160     66.13457      -999.25    501.99994     15.77678      0.10220
        192.02400     65.90201      -999.25    500.99999     16.37745     -0.04870
        192.17640     65.50902      -999.25    508.33326     18.38786      0.06883
        192.32880     65.86545      -999.25    507.50012     20.27568     -0.04271
        192.48120     65.71004      -999.25    516.66670     19.54016     -0.00851
        192.63360     65.45938      -999.25    519.99995     19.71178     -0.00971
        192.78600     65.89125      -999.25    513.66663     19.11111     -0.00927
        192.93840     65.75870      -999.25    513.00007     17.27233      0.06318
        193.09080     65.40933      -999.25    505.49999     15.58064     -0.07564
        193.24320     65.09258      -999.25    504.33324     15.55613      0.07185
        193.39560     64.84789      -999.25    510.49997     15.97292     -0.06227
        193.54800     65.34223      -999.25    503.33329     15.88711      0.10777
        193.70040     65.96649      -999.25    509.99999     15.88711     -0.12656
        193.85280     66.03101      -999.25    510.99994     15.34773      0.18025
        194.00520     66.06235      -999.25    521.50010     15.86259     -0.15907
        194.15760     65.78280      -999.25    519.33339     15.49484      0.16959
        194.31000     65.78671      -999.25    516.50012     14.97998     -0.09090
        194.46240     65.81866      -999.25    496.99997     15.89937      0.11510
        194.61480     65.78576      -999.25    501.49997     16.41423     -0.05629
        194.76720     65.57899      -999.25    496.33341     16.75747     -0.00861
        194.91960     65.57631      -999.25    498.49989     16.94135     -0.03848
        195.07200     65.51839      -999.25    506.33336     16.94135     -0.04916
        195.22440     65.31654      -999.25    499.50007     17.39491     -0.00444
        195.37680     64.45505      -999.25    514.99997     18.52270     -0.04577
        195.52920     62.63943      -999.25    512.00012     17.49298      0.06744
        195.68160     62.13804      -999.25    522.50005     16.94135     -0.07529
