~VERSION INFORMATION 
VERS  .    2.0                                     :CWLS Log ASCII Standard - VERSION 2.0
WRAP  .    NO                                      :One Line per Depth step
PROD  .    Schlumberger Technology Corp.           :LAS Producer
PROG  .    Horizon LASWriter 13.0.221437.3100      :LAS Program name and version
SOURCE.    2. CBL-VDL-Log[3]/Up                    :Run&Pass Information
CREA  .    12/05/2023                              :LAS Creation date {MM/DD/YYYY}
#--------------------------------------------------
~WELL INFORMATION 
#MNEM           .UNIT                      DATA            :DESCRIPTION
#----            ------          --------------            -----------------------------
STRT            .m                      3.65760            :START DEPTH
STOP            .m                   2738.01840            :STOP DEPTH
STEP            .m                       0.1524            :STEP
NULL            .                       -999.25            :NULL VALUE
COMP            .                PAN AMERICAN ENERGY LLC   :COMPANY
WELL            .                PAE.CH.LMS-1034(d)        :WELL NAME
FLD             .                LA MADRE SELVA            :FIELD NAME
RIGN            .                                          :Rig Name
RIGTYP          .                       Rigless            :Rig Type
SON             .                A.1011303.91.01           :Service Order Number
SRVC            .                  Schlumberger            :SERVICE COMPANY
DATE            .                    12/05/2023            :LOG DATE(Composite Date for Composite LAP) (MM/DD/YYYY)
CLAB            .                    Provincia:            :County Label
CNTY            .                        CHUBUT            :COUNTY
SLAB            .                            X:            :State/Province Label
STAT            .                             X            :STATE or PROVINCE
PROV            .                             X            :STATE or PROVINCE
CTRY            .                     ARGENTINA            :COUNTRY
CONT_REGION     .                    S. America            :Continent Region
SECT            .                       Rigless            :Section
TOWN            .                    4915900.85            :Township
RANG            .                    2544268.09            :Range
API             .                EARAD0040501021           :API NUMBER
UWI             .                                          :UNIQUE WELL ID
LUL             .                          ARCS            :Logging Unit Location
LUN             .                          7704            :Logging Unit Number
LOC             .                          ARCS            :FIELD LOCATION
FL1             .                                          :Field Location Line 1
FL2             .                                          :Field Location Line 2
LATI            .deg                 -45.908570            :LATITUDE
LONG            .deg                 -68.431750            :LONGITUDE
PDAT            .                            GL            :Local Permanent Datum
LMF             .                            DF            :Logging Measured From
APD             .m                      6.20000            :Elevation of Depth Reference (LMF) Above Permanent Datum
EPD             .m                    698.54000            :Elevation of Permanent Datum (PDAT) above Mean Sea Level
EKB             .m                      -999.25            :Elevation of Kelly Bushing Above Permanent Datum
EDF             .m                      6.20000            :Elevation of Drill Floor Above Permanent Datum
EGL             .m                      0.00000            :Elevation of Ground Level Above Permanent Datum
ECF             .m                      -999.25            :Elevation of Casing Flange above Permanent Datum
#--------------------------------------------------
~CURVE INFORMATION
#MNEM           .UNIT                  API CODE            :DESCRIPTION
#----            ------          --------------            -----------------------------
DEPT            .m                                         :                                                        Depth Index
CBL             .mV                                        :        (SCMT-HC)               (2in)                   CBL Amplitude
TT              .us                                        :        (SCMT-HC)               (2in)                   Transit Time for CBL
TENS            .lbf                                       :        (WLWorkflow)            (1in)                   Cable Tension
GR              .gAPI                                      :        (PSTP-E)                (6in)                   Gamma Ray
CCLC            .V                                         :        (PSTP-E)                (1in)                   CCL Computed Amplitude
#-------------------------------------------------------------
#            DEPT          CBL           TT         TENS           GR         CCLC 
#                    (SCMT-HC)    (SCMT-HC)  (WLWorkflo)     (PSTP-E)     (PSTP-E) 
#                                                                                  
#                        (2in)        (2in)        (1in)        (6in)        (1in) 
~ASCII
# ...
       2723.69280      2.74749    271.84060   3282.99965     22.48222      0.43738
       2723.84520      2.52576    272.48140   3258.33361     24.62747     -0.01664
       2723.99760      2.69716    271.07360   3261.66753     23.89808      0.07867
       2724.15000      2.61564    271.60090   3253.00114     25.09942      0.51289
       2724.30240      2.39871    271.94420   3248.33411     25.81808     -0.37343
       2724.45480      2.11147    272.63800   3245.33291     25.34613      0.22537
       2724.60720      2.00082    274.60840   3168.99903     24.54166     -0.04928
       2724.75960      1.93416    275.38830   3204.99994     26.08624      0.28082
       2724.91200      1.94845    275.97290   3252.33346     26.40803      0.07732
       2725.06440      2.29402    273.18480   3247.99914     26.89071      0.00182
       2725.21680      2.39785    272.95900   3289.49888     26.14702     -0.03388
       2725.36920      2.48619    272.75070   3280.00070     26.37942     -0.09586
       2725.52160      2.60283    272.56560   3270.50027     25.53036     -0.04195
       2725.67400      2.79121    273.14640   3238.50097     24.96340     -0.04153
       2725.82640      2.56367    273.59670   3285.00045     25.82150     -0.03604
       2725.97880      2.63015    273.07480   3268.49947     26.55621     -0.04542
       2726.13120      2.59517    272.96430   3241.49992      -999.25     -0.05046
       2726.28360      2.66760    273.14310   3220.99959      -999.25     -0.05144
       2726.43600      2.92389    272.37320   3212.49956      -999.25     -0.05782
       2726.58840      3.06123    273.37850   3215.99984      -999.25     -0.06507
       2726.74080      3.21244    272.31530   3151.99898      -999.25     -0.07320
       2726.89320      3.17293    272.72710   3252.00074      -999.25     -0.08701
       2727.04560      3.03527    272.35730   3267.33271      -999.25     -0.09723
       2727.19800      2.65359    273.00830   3272.66743      -999.25     -0.10392
       2727.35040      2.76532    272.72850   3307.00025      -999.25      -999.25
       2727.50280      2.76407    273.08610   3291.66603      -999.25      -999.25
       2727.65520      2.57425    273.03950   3292.66643      -999.25      -999.25
       2727.80760      3.33491    275.77050   3235.66613      -999.25      -999.25
       2727.96000      2.53539    278.29710   3284.33277      -999.25      -999.25
       2728.11240      2.99850    276.38710   3241.99899      -999.25      -999.25
       2728.26480      2.93150    277.43720   3234.66573      -999.25      -999.25
       2728.41720      3.05628    278.14690   3215.33440      -999.25      -999.25
       2728.56960      2.33450    282.65410   3223.00039      -999.25      -999.25
       2728.72200      3.25026    278.98790   3224.99894      -999.25      -999.25
       2728.87440      2.57633    277.89410   3226.50067      -999.25      -999.25
       2729.02680      2.36650    278.19510   3274.00055      -999.25      -999.25
       2729.17920      2.35441    278.74220   3283.50097      -999.25      -999.25
       2729.33160      2.36619    278.96730   3320.00095      -999.25      -999.25
       2729.48400      2.53256    277.83450   3310.99960      -999.25      -999.25
       2729.63640      2.49173    278.06740   3297.00075      -999.25      -999.25
       2729.78880      2.56795    278.40360   3264.99920      -999.25      -999.25
       2729.94120      2.38489    278.56430   3228.66782      -999.25      -999.25
       2730.09360      2.38722    279.37770   3262.33296      -999.25      -999.25
       2730.24600      2.53347    278.31950   3218.00064      -999.25      -999.25
       2730.39840      2.47400    277.81150   3203.99954      -999.25      -999.25
       2730.55080      2.61412    277.54320   3224.00079      -999.25      -999.25
       2730.70320      2.65946    277.00850   3244.50112      -999.25      -999.25
       2730.85560      2.49601    277.52690   3273.49922      -999.25      -999.25
       2731.00800      2.46875    277.56070   3285.49952      -999.25      -999.25
       2731.16040      2.43000    277.73110   3276.33406      -999.25      -999.25
       2731.31280      2.47284    277.60540   3324.00030      -999.25      -999.25
       2731.46520      2.45629    277.72330   3342.33347      -999.25      -999.25
       2731.61760      2.48055    277.68390   3296.49943      -999.25      -999.25
       2731.77000      2.48720    277.35900   3221.99999      -999.25      -999.25
       2731.92240      2.45964    277.59450   3224.00079      -999.25      -999.25
       2732.07480      2.47387    277.49270   3281.99925      -999.25      -999.25
       2732.22720      2.48828    277.53980   3223.49947      -999.25      -999.25
       2732.37960      2.45618    277.66070   3206.00034      -999.25      -999.25
       2732.53200      2.49426    277.51010   3232.99989      -999.25      -999.25
       2732.68440      2.47044    277.51370   3275.00095      -999.25      -999.25
       2732.83680      2.44639    277.43840   3280.49977      -999.25      -999.25
       2732.98920      2.45499    277.28900   3287.50032      -999.25      -999.25
       2733.14160      2.46389    277.61950   3332.66669      -999.25      -999.25
       2733.29400      -999.25      -999.25   3286.33357      -999.25      -999.25
       2733.44640      -999.25      -999.25   3293.50047      -999.25      -999.25
       2733.59880      -999.25      -999.25   3234.49937      -999.25      -999.25
       2733.75120      -999.25      -999.25   3214.50036      -999.25      -999.25
       2733.90360      -999.25      -999.25   3228.00014      -999.25      -999.25
       2734.05600      -999.25      -999.25   3196.00084      -999.25      -999.25
       2734.20840      -999.25      -999.25   3204.99994      -999.25      -999.25
       2734.36080      -999.25      -999.25   3221.33456      -999.25      -999.25
       2734.51320      -999.25      -999.25   3288.99980      -999.25      -999.25
       2734.66560      -999.25      -999.25   3293.66683      -999.25      -999.25
       2734.81800      -999.25      -999.25   3258.33361      -999.25      -999.25
       2734.97040      -999.25      -999.25   3304.99945      -999.25      -999.25
       2735.12280      -999.25      -999.25   3377.99941      -999.25      -999.25
       2735.27520      -999.25      -999.25   3396.49894      -999.25      -999.25
       2735.42760      -999.25      -999.25   3356.33233      -999.25      -999.25
       2735.58000      -999.25      -999.25   3232.33221      -999.25      -999.25
       2735.73240      -999.25      -999.25   3166.00008      -999.25      -999.25
       2735.88480      -999.25      -999.25   3101.99922      -999.25      -999.25
       2736.03720      -999.25      -999.25   3014.00001      -999.25      -999.25
       2736.18960      -999.25      -999.25   2928.99975      -999.25      -999.25
       2736.34200      -999.25      -999.25   2893.99925      -999.25      -999.25
       2736.49440      -999.25      -999.25   2871.50037      -999.25      -999.25
       2736.64680      -999.25      -999.25   2960.99906      -999.25      -999.25
       2736.79920      -999.25      -999.25   2942.66589      -999.25      -999.25
       2736.95160      -999.25      -999.25   2879.33271      -999.25      -999.25
       2737.10400      -999.25      -999.25   2956.50063      -999.25      -999.25
       2737.25640      -999.25      -999.25   2939.66693      -999.25      -999.25
       2737.40880      -999.25      -999.25   2876.00104      -999.25      -999.25
       2737.56120      -999.25      -999.25   2878.66728      -999.25      -999.25
       2737.71360      -999.25      -999.25   2883.33431      -999.25      -999.25
       2737.86600      -999.25      -999.25   2770.74999      -999.25      -999.25
       2738.01840      -999.25      -999.25      -999.25      -999.25      -999.25
