~VERSION INFORMATION 
VERS  .    2.0                                     :CWLS Log ASCII Standard - VERSION 2.0
WRAP  .    NO                                      :One Line per Depth step
PROD  .    Schlumberger Technology Corp.           :LAS Producer
PROG  .    Horizon LASWriter 13.0.221437.3100      :LAS Program name and version
SOURCE.    2. CBL-VDL-Log[3]/Up                    :Run&Pass Information
CREA  .    12/05/2023                              :LAS Creation date {MM/DD/YYYY}
#--------------------------------------------------
~WELL INFORMATION 
#MNEM           .UNIT                      DATA            :DESCRIPTION
#----            ------          --------------            -----------------------------
STRT            .m                      3.65760            :START DEPTH
STOP            .m                   2738.01840            :STOP DEPTH
STEP            .m                       0.1524            :STEP
NULL            .                       -999.25            :NULL VALUE
COMP            .                PAN AMERICAN ENERGY LLC   :COMPANY
WELL            .                PAE.CH.LMS-1034(d)        :WELL NAME
FLD             .                LA MADRE SELVA            :FIELD NAME
RIGN            .                                          :Rig Name
RIGTYP          .                       Rigless            :Rig Type
SON             .                A.1011303.91.01           :Service Order Number
SRVC            .                  Schlumberger            :SERVICE COMPANY
DATE            .                    12/05/2023            :LOG DATE(Composite Date for Composite LAP) (MM/DD/YYYY)
CLAB            .                    Provincia:            :County Label
CNTY            .                        CHUBUT            :COUNTY
SLAB            .                            X:            :State/Province Label
STAT            .                             X            :STATE or PROVINCE
PROV            .                             X            :STATE or PROVINCE
CTRY            .                     ARGENTINA            :COUNTRY
CONT_REGION     .                    S. America            :Continent Region
SECT            .                       Rigless            :Section
TOWN            .                    4915900.85            :Township
RANG            .                    2544268.09            :Range
API             .                EARAD0040501021           :API NUMBER
UWI             .                                          :UNIQUE WELL ID
LUL             .                          ARCS            :Logging Unit Location
LUN             .                          7704            :Logging Unit Number
LOC             .                          ARCS            :FIELD LOCATION
FL1             .                                          :Field Location Line 1
FL2             .                                          :Field Location Line 2
LATI            .deg                 -45.908570            :LATITUDE
LONG            .deg                 -68.431750            :LONGITUDE
PDAT            .                            GL            :Local Permanent Datum
LMF             .                            DF            :Logging Measured From
APD             .m                      6.20000            :Elevation of Depth Reference (LMF) Above Permanent Datum
EPD             .m                    698.54000            :Elevation of Permanent Datum (PDAT) above Mean Sea Level
EKB             .m                      -999.25            :Elevation of Kelly Bushing Above Permanent Datum
EDF             .m                      6.20000            :Elevation of Drill Floor Above Permanent Datum
EGL             .m                      0.00000            :Elevation of Ground Level Above Permanent Datum
ECF             .m                      -999.25            :Elevation of Casing Flange above Permanent Datum
#--------------------------------------------------
~CURVE INFORMATION
#MNEM           .UNIT                  API CODE            :DESCRIPTION
#----            ------          --------------            -----------------------------
DEPT            .m                                         :                                                        Depth Index
CBL             .mV                                        :        (SCMT-HC)               (2in)                   CBL Amplitude
TT              .us                                        :        (SCMT-HC)               (2in)                   Transit Time for CBL
TENS            .lbf                                       :        (WLWorkflow)            (1in)                   Cable Tension
GR              .gAPI                                      :        (PSTP-E)                (6in)                   Gamma Ray
CCLC            .V                                         :        (PSTP-E)                (1in)                   CCL Computed Amplitude
#-------------------------------------------------------------
#            DEPT          CBL           TT         TENS           GR         CCLC 
#                    (SCMT-HC)    (SCMT-HC)  (WLWorkflo)     (PSTP-E)     (PSTP-E) 
#                                                                                  
#                        (2in)        (2in)        (1in)        (6in)        (1in) 
~ASCII
# ...
       2176.72920      4.57432    270.16090   2688.49914     48.05991     -0.03660
       2176.88160      4.67372    270.19650   2737.33439     50.63421     -0.14928
       2177.03400      4.59292    269.98830   2619.66714     49.07259      0.03288
       2177.18640      4.53451    269.74550   2713.00107     49.23349     -0.01393
       2177.33880      4.70033    269.64940   2726.99992     49.71617     -0.14714
       2177.49120      4.48010    270.27640   2601.66669     49.87706      0.01355
       2177.64360      4.53409    270.03900   2703.33429     48.20187     -0.06537
       2177.79600      4.68694    269.87220   2724.66641     45.46668      0.07346
       2177.94840      4.60065    270.39380   2620.33258     43.05328      0.37960
       2178.10080      4.55869    270.01870   2687.33238     39.03093     -0.04037
       2178.25320      4.56342    270.24990   2691.99942     39.03093     -0.32656
       2178.40560      4.55845    270.44620   2580.33232     36.84467     -0.50211
       2178.55800      4.49631    270.10740   2684.00072     38.71861     -0.01730
       2178.71040      4.45780    270.38120   2722.33289     38.55771     -0.25378
       2178.86280      4.34248    270.19480   2623.99921     40.97112      0.33199
       2179.01520      4.32524    270.07700   2717.33314     43.54542     -0.02368
       2179.16760      4.32499    270.47300   2745.49945     49.49849     -0.12953
       2179.32000      4.37275    270.41230   2631.50108     53.25583      0.56387
       2179.47240      4.27681    270.45470   2716.00002     55.99103      0.05388
       2179.62480      4.22231    270.75620   2720.99977     55.34745     -0.41389
       2179.77720      4.15369    270.16420   2577.49973     53.25583     -0.46660
       2179.92960      4.09491    270.78670   2694.00022     49.03474     -0.00423
       2180.08200      4.08263    270.77850   2717.33314     46.62133      0.02758
       2180.23440      4.19367    270.30220   2605.00061     43.24256      0.06222
       2180.38680      4.15311    270.82750   2734.49955     44.20792     -0.01823
       2180.53920      4.08818    270.73890   2719.99937     44.69061     -0.18206
       2180.69160      4.06466    270.38170   2621.00026     43.76310     -0.19852
       2180.84400      3.89548    270.61100   2733.33279     44.53918      0.05001
       2180.99640      3.85519    271.00690   2716.33274     49.36599     -0.01016
       2181.14880      3.93125    270.29290   2621.00026     48.07884      0.48967
       2181.30120      3.95003    270.34040   2724.00097     46.63079      0.08422
       2181.45360      3.96508    270.82250   2705.49920     47.91795     -0.14132
       2181.60600      4.15428    271.08060   2590.50043     48.26812     -0.22070
       2181.75840      4.14799    270.80090   2680.99952     45.69382      0.06423
       2181.91080      4.17705    271.02820   2690.99902     47.46365     -0.24697
       2182.06320      4.11058    271.04100   2617.00091     50.60582      0.36287
       2182.21560      4.05614    271.18050   2691.50034     54.30637      0.02180
       2182.36800      4.09251    271.16970   2742.50050     54.30637     -0.03440
       2182.52040      4.10245    270.88020   2686.50059     54.30637     -0.23744
       2182.67280      4.00686    271.18200   2719.99937     51.73207      0.07175
       2182.82520      3.98248    270.60410   2771.50085     49.71617     -0.12571
       2182.97760      3.88944    271.85680   2611.99891     47.30276     -0.34256
       2183.13000      3.89463    271.34270   2677.49924     46.49829      0.15918
       2183.28240      3.91664    270.90960   2709.99987     47.14187      0.00397
       2183.43480      3.78181    271.03060   2583.00080     48.95902      0.47672
       2183.58720      3.80276    271.63140   2657.99931     49.92438     -0.00831
       2183.73960      3.73547    271.92390   2720.99977     51.37243     -0.03748
       2183.89200      3.90272    271.87880   2596.33422     52.33779     -0.41090
       2184.04440      3.82164    271.45590   2689.33318     52.65958      0.09443
       2184.19680      3.89483    271.05950   2750.66781     52.96243     -0.19147
       2184.34920      3.81457    271.45740   2615.33282     51.99707      0.33949
       2184.50160      3.77467    271.69840   2698.33229     51.83618      0.21048
       2184.65400      3.73899    271.10170   2749.33244     48.61831      0.17170
       2184.80640      3.95165    271.57360   2622.33337     48.29652     -0.45022
       2184.95880      4.01818    271.50850   2702.99932     50.19884     -0.00221
       2185.11120      4.08416    270.84090   2728.33304     50.52064     -0.32238
       2185.26360      3.90315    271.64400   2638.33303     46.65919      0.30031
       2185.41600      3.98643    271.44180   2673.99897     45.88311      0.12702
       2185.56840      4.01304    271.37550   2690.33358     43.46971      0.03508
       2185.72080      4.00150    271.29460   2607.50048     38.48200      0.48176
       2185.87320      3.59996    272.80630   2662.33363     38.20753      0.10416
       2186.02560      3.93063    271.69770   2719.99937     41.42541     -0.10964
       2186.17800      4.43026    276.11110   2641.50059     42.52327     -0.84583
       2186.33040      4.79323    273.63370   2679.99912     45.90204      0.31943
       2186.48280      4.82359    273.75970   2741.00102     47.99366      1.09754
       2186.63520      4.86778    273.33210   2639.49979     47.30276     -3.47235
       2186.78760      5.24022    272.36940   2662.99906     45.76954      0.06926
       2186.94000      5.91592    272.64380   2696.99917     46.09133      0.01601
       2187.09240      3.97855    269.88780   2599.66589     45.93043      0.70907
       2187.24480      4.25238    270.53460   2673.33353     44.96507     -0.02540
       2187.39720      4.20942    270.04530   2721.33249     46.57401     -0.79717
       2187.54960      4.23457    270.46780   2591.66719     44.40667      2.49628
       2187.70200      4.33424    270.33710   2677.00017     42.38131      0.16561
       2187.85440      4.30889    270.29820   2763.33354     39.00254      0.10402
       2188.00680      4.39294    269.97960   2635.33408     38.19807     -0.36085
       2188.15920      4.15244    270.64220   2690.33358     34.70573     -0.01267
       2188.31160      4.19405    270.76310   2763.66626     33.74036     -0.23120
       2188.46400      4.21668    270.30900   2629.99936     33.99590     -0.07479
       2188.61640      4.35497    270.58220   2648.50114     33.51322      0.08634
       2188.76880      4.36819    270.56270   2701.49984     35.44395     -0.06503
       2188.92120      4.61305    270.69530   2580.50093     37.26110     -0.13801
       2189.07360      4.47940    270.77220   2640.99926     38.54825     -0.02380
       2189.22600      4.59646    270.29270   2685.99927     37.90467     -0.15485
       2189.37840      4.46463    270.26860   2596.99965     38.72807     -0.19843
       2189.53080      4.17354    270.04430   2654.49904     36.15377      0.18571
       2189.68320      4.15381    269.72140   2739.49930     33.96751      0.09789
       2189.83560      4.19024    270.07120   2640.33383     35.09377      0.32112
       2189.98800      4.30552    269.39310   2673.66625     35.57644      0.15826
       2190.14040      4.35016    269.01490   2752.66636     36.03074      0.06333
       2190.29280      4.60296    269.04940   2648.33253     36.51342     -0.19320
       2190.44520      5.65953    267.42770   2652.99956     35.54805      0.05733
       2190.59760      6.23555    267.33040   2733.00007     33.45644     -0.18256
       2190.75000      8.92443    267.41320   2647.33438     31.84750     -0.21005
       2190.90240     11.98898    266.28560   2630.33433     32.50054      0.12664
       2191.05480     12.73166    266.27520   2729.66616     31.21338     -0.07406
       2191.20720     16.17006    265.91950   2619.50078     33.14411      0.25321
       2191.35960     17.72359    266.05270   2633.00056     33.53215      0.02591
