~VERSION INFORMATION 
VERS  .    2.0                                     :CWLS Log ASCII Standard - VERSION 2.0
WRAP  .    NO                                      :One Line per Depth step
PROD  .    Schlumberger Technology Corp.           :LAS Producer
PROG  .    Horizon LASWriter 13.0.221437.3100      :LAS Program name and version
SOURCE.    2. CBL-VDL-Log[3]/Up                    :Run&Pass Information
CREA  .    12/05/2023                              :LAS Creation date {MM/DD/YYYY}
#--------------------------------------------------
~WELL INFORMATION 
#MNEM           .UNIT                      DATA            :DESCRIPTION
#----            ------          --------------            -----------------------------
STRT            .m                      3.65760            :START DEPTH
STOP            .m                   2738.01840            :STOP DEPTH
STEP            .m                       0.1524            :STEP
NULL            .                       -999.25            :NULL VALUE
COMP            .                PAN AMERICAN ENERGY LLC   :COMPANY
WELL            .                PAE.CH.LMS-1034(d)        :WELL NAME
FLD             .                LA MADRE SELVA            :FIELD NAME
RIGN            .                                          :Rig Name
RIGTYP          .                       Rigless            :Rig Type
SON             .                A.1011303.91.01           :Service Order Number
SRVC            .                  Schlumberger            :SERVICE COMPANY
DATE            .                    12/05/2023            :LOG DATE(Composite Date for Composite LAP) (MM/DD/YYYY)
CLAB            .                    Provincia:            :County Label
CNTY            .                        CHUBUT            :COUNTY
SLAB            .                            X:            :State/Province Label
STAT            .                             X            :STATE or PROVINCE
PROV            .                             X            :STATE or PROVINCE
CTRY            .                     ARGENTINA            :COUNTRY
CONT_REGION     .                    S. America            :Continent Region
SECT            .                       Rigless            :Section
TOWN            .                    4915900.85            :Township
RANG            .                    2544268.09            :Range
API             .                EARAD0040501021           :API NUMBER
UWI             .                                          :UNIQUE WELL ID
LUL             .                          ARCS            :Logging Unit Location
LUN             .                          7704            :Logging Unit Number
LOC             .                          ARCS            :FIELD LOCATION
FL1             .                                          :Field Location Line 1
FL2             .                                          :Field Location Line 2
LATI            .deg                 -45.908570            :LATITUDE
LONG            .deg                 -68.431750            :LONGITUDE
PDAT            .                            GL            :Local Permanent Datum
LMF             .                            DF            :Logging Measured From
APD             .m                      6.20000            :Elevation of Depth Reference (LMF) Above Permanent Datum
EPD             .m                    698.54000            :Elevation of Permanent Datum (PDAT) above Mean Sea Level
EKB             .m                      -999.25            :Elevation of Kelly Bushing Above Permanent Datum
EDF             .m                      6.20000            :Elevation of Drill Floor Above Permanent Datum
EGL             .m                      0.00000            :Elevation of Ground Level Above Permanent Datum
ECF             .m                      -999.25            :Elevation of Casing Flange above Permanent Datum
#--------------------------------------------------
~CURVE INFORMATION
#MNEM           .UNIT                  API CODE            :DESCRIPTION
#----            ------          --------------            -----------------------------
DEPT            .m                                         :                                                        Depth Index
CBL             .mV                                        :        (SCMT-HC)               (2in)                   CBL Amplitude
TT              .us                                        :        (SCMT-HC)               (2in)                   Transit Time for CBL
TENS            .lbf                                       :        (WLWorkflow)            (1in)                   Cable Tension
GR              .gAPI                                      :        (PSTP-E)                (6in)                   Gamma Ray
CCLC            .V                                         :        (PSTP-E)                (1in)                   CCL Computed Amplitude
#-------------------------------------------------------------
#            DEPT          CBL           TT         TENS           GR         CCLC 
#                    (SCMT-HC)    (SCMT-HC)  (WLWorkflo)     (PSTP-E)     (PSTP-E) 
#                                                                                  
#                        (2in)        (2in)        (1in)        (6in)        (1in) 
~ASCII
# ...
       2354.12280      4.69715    271.04770   2924.66768     37.33681     -0.35705
       2354.27520      4.21813    271.18360   2885.33286     36.85413      0.31051
       2354.42760      4.25878    271.09390   2831.66647     41.21972      0.04690
       2354.58000      4.28599    271.18440   2920.33337     39.92310     -0.16849
       2354.73240      4.31483    271.02390   2885.00014     40.40578      0.10777
       2354.88480      4.23140    271.24400   2783.33255     42.33651      0.02702
       2355.03720      4.33227    271.16270   2871.33401     41.53204      0.02996
       2355.18960      4.12877    271.42440   2880.66583     38.77539      0.00119
       2355.34200      4.26880    270.83970   2766.33250     40.22344      0.15445
       2355.49440      4.06475    271.44280   2798.66677     41.18880     -0.17234
       2355.64680      4.05989    271.24350   2885.66558     39.57986      0.28850
       2355.79920      3.85344    272.12870   2804.33420     41.18880      0.11924
       2355.95160      3.94540    271.76420   2791.49986     42.23934      0.04066
       2356.10400      4.02157    271.16060   2959.00050     44.33096     -0.52773
       2356.25640      3.89428    272.14880   2910.50022     43.52649      0.04775
       2356.40880      4.14887    271.92110   2802.00068     45.61811     -0.01715
       2356.56120      4.23947    271.39470   2897.66588     46.90527      0.04487
       2356.71360      4.35354    271.56240   2880.33311     47.94634     -0.09981
       2356.86600      4.32392    271.57440   2774.66616     49.71617     -0.00046
       2357.01840      4.46826    270.90170   2843.99949     50.84243     -0.05642
       2357.17080      4.60348    270.90570   2861.99994     47.30276      0.01306
       2357.32320      4.34821    271.75180   2767.00018     49.55527      0.07152
       2357.47560      4.42738    271.70240   2804.99963     50.19885      0.05746
       2357.62800      4.45236    271.10820   2891.49937     49.66885      0.20564
       2357.78040      4.39176    271.62280   2841.00054     49.23980     -0.01328
       2357.93280      4.37953    271.67290   2820.00113     50.04427     -0.12873
       2358.08520      4.42723    271.73690   2916.99945     46.47621      0.08600
       2358.23760      4.42738    271.67310   2869.66593     47.28068      0.03354
       2358.39000      4.51775    271.31690   2794.33245     44.11012     -0.04789
       2358.54240      4.57098    271.32680   2883.66703     44.21738     -0.10013
       2358.69480      4.54986    270.87770   2876.66648     44.53918     -0.15146
       2358.84720      4.57772    271.31920   2748.66701     44.99346     -0.14319
       2358.99960      4.49896    271.32960   2815.50046     43.06274     -0.01434
       2359.15200      4.55093    271.37110   2886.00054     43.93157      0.33266
       2359.30440      4.59372    271.12730   2781.99943     44.85402     -0.04751
       2359.45680      4.54998    271.20260   2836.66622     42.15101      0.26553
       2359.60920      4.76633    271.12860   2926.00080     42.44377     -0.06682
       2359.76160      4.63143    270.93500   2870.49997     38.95774      0.29856
       2359.91400      4.63732    270.76710   2845.50121     37.60624     -0.08417
       2360.06640      4.58563    270.78100   2916.33401     34.61514     -0.55652
       2360.21880      4.45467    270.32120   2870.33361     36.84620     -0.08361
       2360.37120      4.18916    270.68730   2785.33335     37.73648      0.05705
       2360.52360      4.13639    271.12850   2876.99919     42.02698     -0.66731
       2360.67600      3.97056    271.43770   2876.50012     45.29082      0.30840
       2360.82840      3.98785    271.27210   2763.99898     47.84214     -0.12397
       2360.98080      3.90310    271.61070   2825.00089     49.04348      0.60827
       2361.13320      4.09253    271.30910   2872.66713     46.78024     -0.83041
       2361.28560      3.62431    271.42630   2786.66646     45.23566     -0.21807
       2361.43800      3.81343    271.34240   2868.33281     43.83818     -0.57931
       2361.59040      4.95617    273.79890   2941.66773     42.73338     -0.11424
       2361.74280      4.35697    274.55680   2880.00039     40.50232      1.42579
       2361.89520      4.51786    274.60140   2856.66747     43.24824      0.51772
       2362.04760      4.44296    274.54680   2946.50113     43.24824     -1.21925
       2362.20000      3.88237    277.44340   2889.50082     44.44958      1.13186
       2362.35240      5.05916    275.05550   2796.00053     46.33740     -0.18386
       2362.50480      4.17690    270.57450   2876.00104     50.79952     -0.24816
       2362.65720      4.78001    270.42390   2882.00119     52.85896     -0.15195
       2362.80960      4.76102    270.31200   2752.50000     53.54543     -0.45864
       2362.96200      4.97426    270.69780   2804.99963     50.79952      0.10482
       2363.11440      5.07583    269.89120   2872.99984     50.11304      0.58252
       2363.26680      5.31502    269.36290   2776.33425     47.36712     -0.01030
       2363.41920      5.21035    268.87670   2821.33425     42.90500      0.05803
       2363.57160      5.32551    268.58020   2946.66749     41.01718     -0.20253
       2363.72400      5.26375    268.42300   2865.66657     41.53204      0.35574
       2363.87640      4.96274    267.90530   2853.66627     39.30098     -0.10932
       2364.02880      4.93703    268.58820   2930.00015     38.27126      0.04206
       2364.18120      5.54660    268.13660   2885.49922     40.33070      0.09847
       2364.33360      6.29490    267.40940   2808.99898     39.81584      0.30808
       2364.48600      6.44152    268.00460   2848.50016     37.92802      0.10996
       2364.63840      6.51896    268.27540   2849.99964     39.12936      0.05448
       2364.79080      6.42826    268.18770   2763.99898     38.95774     -0.49748
       2364.94320      6.58127    268.95220   2816.99993     37.75640     -0.24843
       2365.09560      5.11574    270.34960   2871.99944     38.60377     -0.10870
       2365.24800      4.32166    271.74510   2793.66701     40.83483     -0.11992
       2365.40040      4.34121    271.51550   2821.99969     40.31997      0.17780
       2365.55280      4.36866    271.08850   2922.50052     41.69293      0.06197
       2365.70520      4.37359    271.51620   2837.99934     41.69293     -0.05859
       2365.85760      4.36170    271.71190   2839.33246     39.81584      0.28827
       2366.01000      4.49548    271.69330   2911.33426     39.47260     -0.04855
       2366.16240      4.68762    271.55200   2854.99939     44.79282     -0.05889
       2366.31480      4.84473    271.52470   2843.99949     46.50902     -0.21533
       2366.46720      5.12745    271.42260   2880.33311     46.68064      0.02349
       2366.61960      5.19331    271.32510   2849.99964     50.32757      0.07085
       2366.77200      4.97572    271.55580   2825.49996     52.55862     -0.07755
       2366.92440      4.88635    271.66920   2836.00079     50.15594     -0.16894
       2367.07680      4.68132    271.56080   2846.49936     50.90372     -0.00238
       2367.22920      4.49393    271.54020   2860.99954     50.02416     -0.02494
       2367.38160      4.51123    271.14510   2867.33241     48.95154      0.14798
       2367.53400      4.29175    271.31350   2890.33261     45.34752      0.03976
       2367.68640      4.28421    271.22910   2852.33316     40.54216      0.07292
       2367.83880      4.26279    271.13820   2865.99929     35.67551     -0.06676
       2367.99120      4.11899    271.25690   2876.66648     34.87104      0.39539
       2368.14360      4.09212    270.98270   2808.99898     32.90967      0.10274
       2368.29600      3.88443    272.09290   2815.66682     33.76777      0.01462
       2368.44840      3.94615    272.07360   2870.66633     36.34206     -0.63659
       2368.60080      3.94407    272.11710   2805.33235     38.91637     -0.57452
       2368.75320      3.94389    271.54720   2842.00094     40.77201      0.06229
