~Version Information
 VERS.                  2.0:   CWLS log ASCII Standard -VERSION 2.0
 WRAP.                   NO:   One line per depth step
~Well Information Block
#MNEM.UNIT     VALUE/NAME     DESCRIPTION
#---------     -----------    ---------------------------
 STRT.M              1491.0000: START DEPTH
 STOP.M              2343.0000: STOP DEPTH
 STEP.M                 0.1000: STEP DEPTH
 NULL.                 -999.25: NULL VALUE
 LOC .        X  4.914.974,61:  LOCATION
 FL3 .               Z  548.65:  LOCATIONLINE3
 FL2 .         Y  2.533.371,25:  LOCATIONLINE2
 FL1 .        X  4.914.974,641:  LOCATIONLINE1
 DMF .                      KB:  DRILL MEAS FROM
 PDAT.                      GL:  PERMANENT DATUM
 CNTY.                  CHUBUT:  COUNTY NAME
 FLD .                   ZORRO:  FIELD NAME
 WELL.                 PZ-1645:  WELL NAME
 COMP.     PAN AMERICAN ENERGY LLC.:  COMPANY
 DATE.             24-Jan-2024:  DATE
 SVCO.             Halliburton:  SERVICECONAME
 PROV.                  CHUBUT:  PROVINCE
 STAT.                  CHUBUT:  STATE NAME
 CTRY.               ARGENTINA:  COUNTRY NAME
 APIL.                     API:  APILABEL
 HIDE.                        :  WELLNAMEOPERAT
 UWI .                     N/A:  UNIQUE WELL IDENTIFIER
 API .                     N/A:  API NUMBER
 RANG.                     N/A:  RANGE
 TOWN.                     N/A:  TOWNSHIP
 SECT.                     N/A:  SECTION
 SON .                     N/A:  JOB NUMBER
 SRVC.             Halliburton:  SERVICE COMPANY
 LMF .                      KB:  LOG MEASURED FROM
 LATI.deg               0.0000:  LATITUDE
 LONG.deg               0.0000:  LONGITUDE
 EGL .m               548.6500:  GROUND ELEVATION
 BAP .m                 0.0000:  GL ELEV ONSHORE
 GVFD.g                 1.0000:  GRAVITY FIELD
 EKB .m               553.2500:  KB ELEVATION
 EDF .m               553.2500:  DF ELEVATION
~Curve Information Block
#MNEM.UNIT                 API CODE     Curve Description
#---------               -----------    ---------------------------
 DEPT.M                 00 000 000 000:  Depth
 AMP .mV                00 000 000 000:  Pipe Amplitude
 SGFF.cu                00 000 000 000:  Far Formation Sigma
 CCL .mV                00 000 000 000:  Collar Locator
 GR  .api               00 000 000 000:  Gamma API
 NDSN.cps               00 000 000 000:  DSN Near Counts
 RT90_HAT.ohmm          00 000 000 000:  Emulated 90 in Resistivity
 CT90_HAT.mmo/m          00 000 000 000:  Emulated 90 in Conductivity 
#Other Information
#
#WARRANTY: Halliburton will use its best efforts to furnish customers with 
#accurate information and interpretations that are part of, and incident to, the services 
#provided.  However, Halliburton cannot and does not warrant the accuracy 
#or correctness of such information and interpretations.  Under no circumstances should any 
#such information or interpretation be relied upon as the sole basis for any drilling, 
#completion, production, or financial decision or any procedure involving any risk to the 
#safety of any drilling venture, drilling rig or its crew or any other third party.  The 
#Customer has full responsibility for all drilling, completion and production operation.  
#Halliburton makes no representations or warranties, either expressed or 
#implied, including, but not limited to, the implied warranties of merchantability or fitness 
#for a particular purpose, with respect to the services rendered.  In no event will 
#Halliburton be liable for failure to obtain any particular results or for 
#any damages, including, but not limited to, indirect, special or consequential damages, 
#resulting from the use of any information or interpretation provided by Halliburton.
#
~A   DEPT      AMP    SGFF     CCL     GR      NDSN   RT90_HAT CT90_HAT 
# ...
   1995.0000  5.1626 20.4697  0.0525 16.1934 152.1289   4.0029 249.8189
   1995.1000  5.1737 20.3882 -0.0223 15.9571 154.5914   4.0960 244.1406
   1995.2000  5.3686 20.2399  0.0424 15.6491 157.1128   4.2723 234.0660
   1995.3000  5.5221 20.0339 -0.0064 15.4111 159.6705   4.5328 220.6142
   1995.4000  5.6790 19.7731  0.0040 15.0348 161.7610   4.8906 204.4739
   1995.5000  5.8811 19.3197  0.0073 13.9281 162.8543   5.5946 178.7438
   1995.6000  5.8872 19.1498 -0.0134 13.3657 163.5816   5.8879 169.8398
   1995.7000  5.8367 19.0086  0.0128 12.9642 164.8779   6.1449 162.7366
   1995.8000  5.6780 18.9825  0.0018 13.1122 167.1796   6.1937 161.4544
   1995.9000  5.6187 18.9991 -0.0424 13.8014 169.7514   6.1626 162.2692
   1996.0000  5.5810 19.0289 -0.0092 14.9023 171.4753   6.1071 163.7438
   1996.1000  5.5537 19.0628  0.0146 16.3429 172.0170   6.0447 165.4342
   1996.2000  5.4711 19.0761  0.0049 19.7044 171.7343   6.0205 166.0992
   1996.3000  5.4023 19.0834 -0.0537 21.2999 170.9147   6.0072 166.4669
   1996.4000  5.3255 19.1579  0.0110 22.6448 169.5859   5.8735 170.2562
   1996.5000  5.2147 19.1863 -0.0305 24.3093 167.6126   5.8234 171.7210
   1996.6000  5.1945 19.2536  0.0800 24.6577 165.3416   5.7067 175.2326
   1996.7000  5.1869 19.3473 -0.0665 24.7776 163.8820   5.5485 180.2289
   1996.8000  5.1861 19.3989  0.0592 24.6335 164.8133   5.4636 183.0295
   1996.9000  5.2184 19.4460 -0.0079 24.4431 168.6116   5.3873 185.6217
   1997.0000  5.3009 19.6084 -0.0687 24.1721 174.1085   5.1337 194.7913
   1997.1000  5.6166 19.7226  0.0226 23.3563 179.1610   4.9637 201.4626
   1997.2000  5.8064 19.8415  0.0317 22.8596 182.1513   4.7936 208.6115
   1997.3000  5.9860 20.1482 -0.0375 22.3914 182.7645   4.3860 227.9982
   1997.4000  6.3120 20.2767  0.0812 21.9115 181.4619   4.2277 236.5352
   1997.5000  6.4948 20.4073 -0.1096 22.0534 179.2351   4.0740 245.4590
   1997.6000  6.7161 20.5090  0.0021 22.4984 176.7643   3.9590 252.5890
   1997.7000  7.2639 20.6997  0.0574 24.1938 174.3784   3.7542 266.3683
   1997.8000  7.5558 20.7850 -0.0446 25.2990 172.1275   3.6670 272.7025
   1997.9000  7.8341 20.8986  0.0482 26.4309 170.2403   3.5548 281.3098
   1998.0000  8.0806 21.0486  0.0150 27.4616 168.8775   3.4134 292.9630
   1998.1000  8.3957 21.1176 -0.0845 28.7265 167.6754   3.3508 298.4362
   1998.2000  8.4289 21.1728  0.0504 28.7601 165.5157   3.3019 302.8559
   1998.3000  8.3787 21.2500 -0.0470 28.3197 162.1666   3.2350 309.1190
   1998.4000  8.1352 21.2512  0.0165 26.0927 158.5235   3.2340 309.2146
   1998.5000  8.0097 21.3087  0.0281 24.4853 155.1995   3.1853 313.9422
   1998.6000  7.9137 21.4524 -0.0690 22.7463 152.4200   3.0681 325.9346
   1998.7000  7.8615 21.5317  0.0171 19.5870 150.8182   3.0060 332.6680
   1998.8000  7.9320 21.5929  0.0217 18.4763 151.5709   2.9592 337.9292
   1998.9000  8.0757 21.6986 -0.0781 17.8059 155.4049   2.8808 347.1258
   1999.0000  8.4647 21.6614 -0.0107 17.8131 161.4827   2.9081 343.8672
   1999.1000  8.5907 21.6037 -0.0037 18.3676 167.8553   2.9511 338.8567
   1999.2000  8.5954 21.5363 -0.0497 19.1473 171.7794   3.0024 333.0669
   1999.3000  8.1912 21.4378  0.0494 20.8934 171.0364   3.0798 324.6964
   1999.4000  7.8208 21.4122 -0.0217 21.6457 166.0128   3.1003 322.5494
   1999.5000  7.3725 21.4172 -0.0342 22.2217 159.5406   3.0963 322.9661
   1999.6000  6.3393 21.5772 -0.0378 22.7779 154.0637   2.9711 336.5757
   1999.7000  5.8244 21.6893 -0.0241 22.8088 150.1629   2.8876 346.3083
   1999.8000  5.3710 21.7773 -0.0537 22.7473 147.2486   2.8243 354.0700
   1999.9000  5.0153 21.9053  0.0055 22.6576 145.0588   2.7358 365.5238
   2000.0000  4.6163 21.9327 -0.0391 22.6101 144.4968   2.7174 367.9988
   2000.1000  4.5298 21.9464  0.0226 22.7108 145.8993   2.7082 369.2490
   2000.2000  4.4840 21.8949 -0.0159 22.8911 147.5525   2.7428 364.5909
   2000.3000  4.4722 21.8743 -0.0397 23.3257 146.7291   2.7569 362.7262
   2000.4000  4.4938 21.8600 -0.0217 23.4651 141.6331   2.7667 361.4414
   2000.5000  4.5136 21.7936 -0.0003 23.4837 133.4281   2.8128 355.5176
   2000.6000  4.4862 21.7189 -0.0558 23.0941 124.3670   2.8661 348.9062
   2000.7000  4.4493 21.6328  0.0290 22.7358 116.9990   2.9293 341.3785
   2000.8000  4.4320 21.5660  0.0040 22.3423 112.9659   2.9796 335.6155
   2000.9000  4.4609 21.3223 -0.0427 21.9817 112.4864   3.1740 315.0598
   2001.0000  4.6735 21.2113  0.0345 21.5750 115.1798   3.2683 305.9695
   2001.1000  4.8188 21.0923  0.0269 21.5916 119.9168   3.3736 296.4193
   2001.2000  4.9474 20.9310  0.0073 21.7624 125.5492   3.5236 283.8007
   2001.3000  5.0458 20.8642 -0.0180 22.4717 132.0027   3.5883 278.6835
   2001.4000  5.0022 20.8269 -0.0046 22.9121 139.5669   3.6251 275.8545
   2001.5000  4.9212 20.8010  0.0177 23.3138 148.7252   3.6509 273.9051
   2001.6000  4.7638 20.8188 -0.0302 23.6968 158.5222   3.6331 275.2470
   2001.7000  4.7197 20.8605  0.0009 23.5816 166.5826   3.5919 278.4042
   2001.8000  4.6937 21.0141 -0.0272 23.2696 171.3802   3.4452 290.2589
   2001.9000  4.6242 21.1122 -0.0192 22.3549 172.4012   3.3557 298.0004
   2002.0000  4.5495 21.2063 -0.0473 21.9503 168.7738   3.2726 305.5674
   2002.1000  4.4477 21.3459  0.0085 21.6848 160.6338   3.1544 317.0175
   2002.2000  4.2364 21.3878  0.0708 21.5873 149.8891   3.1201 320.5025
   2002.3000  4.1616 21.3918  0.0061 21.6411 140.7025   3.1168 320.8419
   2002.4000  4.1131 21.3682 -0.0119 21.6477 136.2035   3.1361 318.8674
   2002.5000  4.0841 21.2635  0.0015 21.5377 135.8268   3.2235 310.2218
   2002.6000  4.0562 21.2111  0.0061 20.8958 137.4964   3.2685 305.9507
   2002.7000  4.0508 21.1791 -0.0128 20.4361 140.4062   3.2963 303.3705
   2002.8000  4.0499 21.1121  0.0079 19.9776 144.9368   3.3557 298.0004
   2002.9000  4.0464 21.0625 -0.0195 19.3239 151.1619   3.4007 294.0571
   2003.0000  4.0325 21.0253  0.0186 19.1879 157.9747   3.4349 291.1293
   2003.1000  4.0042 20.9554  0.0363 19.1539 163.5058   3.5003 285.6898
   2003.2000  3.8863 20.9179 -0.0592 19.1283 167.3955   3.5362 282.7894
   2003.3000  3.7954 20.8737  0.0104 18.9834 170.0636   3.5790 279.4077
   2003.4000  3.7001 20.8762 -0.0137 18.6773 171.9656   3.5765 279.6030
   2003.5000  3.5872 20.9309 -0.0116 17.5963 173.1600   3.5237 283.7926
   2003.6000  3.5933 21.0151 -0.0241 16.9378 172.5019   3.4443 290.3347
   2003.7000  3.6345 21.1717  0.0308 16.3297 168.6568   3.3028 302.7734
   2003.8000  3.7766 21.2758 -0.0198 15.6801 161.9798   3.2130 311.2356
   2003.9000  3.8557 21.3749 -0.0253 15.7976 154.6216   3.1306 319.4276
   2004.0000  3.9208 21.4443  0.0354 16.2603 148.7141   3.0746 325.2456
   2004.1000  3.9499 21.4879 -0.0494 18.1148 145.0782   3.0401 328.9365
   2004.2000  3.9081 21.4838 -0.0134 19.3408 142.1678   3.0433 328.5907
   2004.3000  3.8443 21.4946  0.0528 20.5896 138.5817   3.0348 329.5110
   2004.4000  3.7759 21.5063 -0.0842 21.6960 133.9283   3.0257 330.5020
   2004.5000  3.6626 21.5149  0.0894 22.8763 129.9787   3.0190 331.2355
   2004.6000  3.6167 21.5432 -0.0589 22.7560 129.4184   2.9971 333.6559
   2004.7000  3.5743 21.6292 -0.0378 22.1575 133.0731   2.9319 341.0757
   2004.8000  3.5307 21.6676  0.0690 20.0013 139.6634   2.9035 344.4119
   2004.9000  3.5577 21.7158 -0.0650 18.8255 145.8261   2.8683 348.6386
   2005.0000  3.6267 21.7603 -0.0131 17.8595 148.5933   2.8364 352.5596
   2005.1000  3.8462 21.8157  0.0635 17.1410 146.5490   2.7973 357.4876
   2005.2000  3.9627 21.8715 -0.0339 17.4955 141.0157   2.7588 362.4764
   2005.3000  4.0692 22.0164  0.0208 18.2824 134.6924   2.6622 375.6292
   2005.4000  4.2276 22.0933 -0.0363 20.7796 130.3191   2.6130 382.7019
   2005.5000  4.2617 22.1792  0.0171 22.2875 129.6497   2.5596 390.6860
   2005.6000  4.2572 22.2283  0.0333 23.8452 132.9420   2.5298 395.2882
   2005.7000  4.1702 22.2019  0.0690 26.7655 138.9489   2.5457 392.8192
   2005.8000  4.1182 22.1443 -0.0388 27.9334 144.5820   2.5811 387.4317
   2005.9000  4.0699 22.0478  0.0394 28.7638 147.0777   2.6419 378.5154
   2006.0000  3.9847 21.8058 -0.0162 29.0918 146.0288   2.8043 356.5952
   2006.1000  3.9629 21.6916 -0.0424 28.5524 143.3763   2.8859 346.5124
