~Version Information
 VERS.                  2.0:   CWLS log ASCII Standard -VERSION 2.0
 WRAP.                   NO:   One line per depth step
~Well Information Block
#MNEM.UNIT     VALUE/NAME     DESCRIPTION
#---------     -----------    ---------------------------
 STRT.M              1491.0000: START DEPTH
 STOP.M              2343.0000: STOP DEPTH
 STEP.M                 0.1000: STEP DEPTH
 NULL.                 -999.25: NULL VALUE
 LOC .        X  4.914.974,61:  LOCATION
 FL3 .               Z  548.65:  LOCATIONLINE3
 FL2 .         Y  2.533.371,25:  LOCATIONLINE2
 FL1 .        X  4.914.974,641:  LOCATIONLINE1
 DMF .                      KB:  DRILL MEAS FROM
 PDAT.                      GL:  PERMANENT DATUM
 CNTY.                  CHUBUT:  COUNTY NAME
 FLD .                   ZORRO:  FIELD NAME
 WELL.                 PZ-1645:  WELL NAME
 COMP.     PAN AMERICAN ENERGY LLC.:  COMPANY
 DATE.             24-Jan-2024:  DATE
 SVCO.             Halliburton:  SERVICECONAME
 PROV.                  CHUBUT:  PROVINCE
 STAT.                  CHUBUT:  STATE NAME
 CTRY.               ARGENTINA:  COUNTRY NAME
 APIL.                     API:  APILABEL
 HIDE.                        :  WELLNAMEOPERAT
 UWI .                     N/A:  UNIQUE WELL IDENTIFIER
 API .                     N/A:  API NUMBER
 RANG.                     N/A:  RANGE
 TOWN.                     N/A:  TOWNSHIP
 SECT.                     N/A:  SECTION
 SON .                     N/A:  JOB NUMBER
 SRVC.             Halliburton:  SERVICE COMPANY
 LMF .                      KB:  LOG MEASURED FROM
 LATI.deg               0.0000:  LATITUDE
 LONG.deg               0.0000:  LONGITUDE
 EGL .m               548.6500:  GROUND ELEVATION
 BAP .m                 0.0000:  GL ELEV ONSHORE
 GVFD.g                 1.0000:  GRAVITY FIELD
 EKB .m               553.2500:  KB ELEVATION
 EDF .m               553.2500:  DF ELEVATION
~Curve Information Block
#MNEM.UNIT                 API CODE     Curve Description
#---------               -----------    ---------------------------
 DEPT.M                 00 000 000 000:  Depth
 AMP .mV                00 000 000 000:  Pipe Amplitude
 SGFF.cu                00 000 000 000:  Far Formation Sigma
 CCL .mV                00 000 000 000:  Collar Locator
 GR  .api               00 000 000 000:  Gamma API
 NDSN.cps               00 000 000 000:  DSN Near Counts
 RT90_HAT.ohmm          00 000 000 000:  Emulated 90 in Resistivity
 CT90_HAT.mmo/m          00 000 000 000:  Emulated 90 in Conductivity 
#Other Information
#
#WARRANTY: Halliburton will use its best efforts to furnish customers with 
#accurate information and interpretations that are part of, and incident to, the services 
#provided.  However, Halliburton cannot and does not warrant the accuracy 
#or correctness of such information and interpretations.  Under no circumstances should any 
#such information or interpretation be relied upon as the sole basis for any drilling, 
#completion, production, or financial decision or any procedure involving any risk to the 
#safety of any drilling venture, drilling rig or its crew or any other third party.  The 
#Customer has full responsibility for all drilling, completion and production operation.  
#Halliburton makes no representations or warranties, either expressed or 
#implied, including, but not limited to, the implied warranties of merchantability or fitness 
#for a particular purpose, with respect to the services rendered.  In no event will 
#Halliburton be liable for failure to obtain any particular results or for 
#any damages, including, but not limited to, indirect, special or consequential damages, 
#resulting from the use of any information or interpretation provided by Halliburton.
#
~A   DEPT      AMP    SGFF     CCL     GR      NDSN   RT90_HAT CT90_HAT 
# ...
   1547.0000  5.1474 21.3010  0.0049 19.1756 125.0971   3.1918 313.3028
   1547.1000  5.1658 21.4786  0.0031 19.2901 128.0370   3.0474 328.1486
   1547.2000  5.1546 21.5348 -0.0555 19.2236 131.3333   3.0036 332.9338
   1547.3000  5.0197 21.5636  0.1062 18.7990 133.9943   2.9815 335.4016
   1547.4000  4.9337 21.5075  0.0381 18.6166 134.5150   3.0248 330.6004
   1547.5000  4.8709 21.4635 -0.0955 18.5702 131.9406   3.0593 326.8722
   1547.6000  4.8293 21.3850  0.0003 19.0465 126.5673   3.1224 320.2664
   1547.7000  4.8183 21.2896  0.0342 19.5250 119.9376   3.2014 312.3633
   1547.8000  4.7916 21.3355 -0.0717 20.0511 113.3651   3.1630 316.1555
   1547.9000  4.7068 21.4367  0.0189 20.7813 106.8572   3.0807 324.6016
   1548.0000  4.6925 21.6002  0.0613 20.8194 100.2811   2.9537 338.5584
   1548.1000  4.7304 21.9443 -0.0125 20.6296  94.3621   2.7096 369.0582
   1548.2000  4.9780 22.1567 -0.0052 19.9364  89.4403   2.5734 388.5910
   1548.3000  5.1493 22.3333 -0.0156 19.7004  85.9695   2.4678 405.2192
   1548.4000  5.3099 22.5684 -0.0287 19.6980  84.0068   2.3374 427.8258
   1548.5000  5.4949 22.6170  0.0186 20.5906  83.8671   2.3118 432.5634
   1548.6000  5.5052 22.6364 -0.0607 21.4524  85.6798   2.3017 434.4615
   1548.7000  5.4770 22.6158 -0.0006 22.5096  88.6470   2.3124 432.4511
   1548.8000  5.3598 22.5890  0.0427 24.8775  91.6384   2.3265 429.8302
   1548.9000  5.2768 22.5353 -0.0156 26.0198  93.6034   2.3551 424.6104
   1549.0000  5.1814 22.4072 -0.0128 27.0309  94.0953   2.4256 412.2691
   1549.1000  5.0889 22.3176  0.0812 27.8465  93.4533   2.4769 403.7304
   1549.2000  4.9775 22.2014 -0.1816 28.7650  92.4405   2.5460 392.7730
   1549.3000  4.9665 21.9833  0.0430 28.8984  91.8632   2.6838 372.6060
   1549.4000  4.9785 21.9340  0.0397 28.8989  92.3288   2.7165 368.1207
   1549.5000  5.0607 21.8722 -0.0262 28.8785  94.1325   2.7583 362.5421
   1549.6000  5.1302 21.8379  0.0128 29.0122  96.9571   2.7819 359.4666
   1549.7000  5.2128 21.8843  0.0641 29.2770  99.6394   2.7500 363.6364
   1549.8000  5.3579 21.9304 -0.0964 30.0307 100.6395   2.7189 367.7958
   1549.9000  5.3748 21.9811 -0.0128 30.3759  99.1909   2.6853 372.3979
   1550.0000  5.3290 22.0870  0.0119 30.6193  95.5602   2.6170 382.1169
   1550.1000  5.2220 22.1240 -0.0339 30.7404  90.9081   2.5937 385.5496
   1550.2000  4.9380 22.1128  0.0095 30.6739  87.0199   2.6007 384.5119
   1550.3000  4.8384 22.1069 -0.0180 30.5317  85.4733   2.6044 383.9656
   1550.4000  4.8057 22.0738  0.0626 30.3148  86.7353   2.6253 380.9088
   1550.5000  4.9689 22.0274  0.0378 29.4948  90.7371   2.6551 376.6336
   1550.6000  5.1397 21.8638 -0.0934 28.7999  96.5399   2.7641 361.7814
   1550.7000  5.3252 21.8032 -0.0058 27.8892 102.9820   2.8061 356.3665
   1550.8000  5.5721 21.7057  0.0681 25.5788 108.6847   2.8756 347.7535
   1550.9000  5.5904 21.4831 -0.0433 24.3280 112.4208   3.0439 328.5259
   1551.0000  5.5532 21.3857  0.0085 23.1184 114.4845   3.1218 320.3280
   1551.1000  5.4376 21.3257  0.0421 21.0313 115.5211   3.1712 315.3380
   1551.2000  5.4142 21.2748 -0.0662 20.1991 115.7976   3.2139 311.1484
   1551.3000  5.4354 21.2378  0.0580 19.5209 115.2861   3.2454 308.1284
   1551.4000  5.5900 21.2889 -0.1062 18.6805 114.1960   3.2020 312.3048
   1551.5000  5.6706 21.4015 -0.0311 18.5609 113.5934   3.1090 321.6468
   1551.6000  5.7160 21.6592  0.0021 18.6671 114.2711   2.9097 343.6780
   1551.7000  5.7236 21.7955 -0.0009 19.5517 116.1292   2.8115 355.6820
   1551.8000  5.7354 21.9242  0.2011 20.2884 118.6476   2.7231 367.2285
   1551.9000  5.7668 22.0365 -0.3479 21.1724 121.8653   2.6492 377.4724
   1552.0000  5.7994 22.0121  0.5035 22.1598 125.8663   2.6650 375.2345
   1552.1000  5.7735 21.9726  0.0894 24.2622 129.6901   2.6909 371.6229
   1552.2000  5.7082 21.7320 -0.0125 25.2903 132.4393   2.8566 350.0665
   1552.3000  5.6367 21.5807 -0.0006 26.2506 133.8385   2.9685 336.8705
   1552.4000  5.5578 21.4416  0.0305 27.8423 134.3698   3.0767 325.0236
   1552.5000  5.5413 21.2631 -0.0171 28.4243 134.9552   3.2238 310.1929
   1552.6000  5.5061 21.1827  0.0150 28.8348 136.1739   3.2932 303.6560
   1552.7000  5.3117 21.1814 -0.1053 29.0872 137.9736   3.2943 303.5546
   1552.8000  5.1726 21.2026  0.0113 28.9415 139.3860   3.2758 305.2690
   1552.9000  5.0452 21.2937  0.0104 28.6682 139.5921   3.1979 312.7052
   1553.0000  4.9223 21.3258  0.1266 28.0507 138.7361   3.1711 315.3480
   1553.1000  4.9357 21.3368 -0.0876 27.8780 137.9873   3.1620 316.2556
   1553.2000  4.9800 21.3278 -0.0769 27.8711 138.6164   3.1694 315.5171
   1553.3000  5.0488 21.3169  0.0198 28.2637 141.1118   3.1785 314.6138
   1553.4000  5.0154 21.2946  0.0366 28.4779 145.7508   3.1972 312.7737
   1553.5000  4.9129 21.2184 -0.1025 28.5254 152.2040   3.2621 306.5510
   1553.6000  4.5441 21.1941  0.0577 27.6408 159.6989   3.2832 304.5809
   1553.7000  4.3611 21.1587 -0.0415 26.5973 166.6490   3.3143 301.7228
   1553.8000  4.2593 20.9911  0.0162 25.1885 171.7463   3.4667 288.4588
   1553.9000  4.2833 20.8756  0.0702 23.5180 174.6302   3.5771 279.5561
   1554.0000  4.6862 20.7297 -0.0244 19.9593 174.7317   3.7232 268.5862
   1554.1000  4.9646 20.4057 -0.0818 18.3653 172.3126   4.0758 245.3506
   1554.2000  5.2083 20.2387  0.0824 17.0575 168.8724   4.2738 233.9838
   1554.3000  5.4313 20.0811  0.0128 15.5862 166.6329   4.4715 223.6386
   1554.4000  5.4073 19.9492 -0.0165 15.4724 166.4443   4.6455 215.2621
   1554.5000  5.3365 19.7413 -0.0162 15.7491 167.4963   4.9365 202.5727
   1554.6000  5.2176 19.6665 -0.0250 17.2285 168.3644   5.0464 198.1611
   1554.7000  5.2094 19.6260  0.0677 18.2426 168.4144   5.1071 195.8058
   1554.8000  5.2296 19.6102 -0.0934 19.2735 167.6550   5.1310 194.8938
   1554.9000  5.3042 19.5973 -0.0317 20.8022 166.0845   5.1506 194.1521
   1555.0000  5.3493 19.5730  0.1068 21.0267 163.1856   5.1878 192.7599
   1555.1000  5.4036 19.5209 -0.0681 20.7721 159.3351   5.2686 189.8037
   1555.2000  5.4677 19.4606 -0.0745 20.0330 156.4041   5.3639 186.4315
   1555.3000  5.5903 19.3628  0.1443 17.4736 156.3060   5.5228 181.0676
   1555.4000  5.6209 19.1223 -0.0418 15.9879 158.8261   5.9369 168.4381
   1555.5000  5.6213 18.9974 -0.0623 14.6208 161.6181   6.1658 162.1850
   1555.6000  5.5576 18.8562  0.0424 12.8289 162.4204   6.4364 155.3663
   1555.7000  5.5127 18.6049 -0.0882 12.5575 161.1519   6.9513 143.8580
   1555.8000  5.4647 18.5303  0.1019 12.7159 159.7013   7.1128 140.5916
   1555.9000  5.3591 18.5205 -0.0308 14.1524 159.6405   7.1343 140.1679
   1556.0000  5.3075 18.5486 -0.0305 15.2882 161.1901   7.0728 141.3867
   1556.1000  5.2634 18.7580  0.0235 16.5732 162.9970   6.6325 150.7727
   1556.2000  5.1952 18.9309 -0.0272 19.0889 163.2461   6.2916 158.9421
   1556.3000  5.1595 19.1710 -0.0204 20.0688 161.1862   5.8503 170.9314
   1556.4000  5.1186 19.7446  0.0790 20.7433 157.5146   4.9317 202.7698
   1556.5000  5.0774 20.0301 -0.0439 21.0897 152.8881   4.5378 220.3711
   1556.6000  5.0326 20.3289 -0.0363 21.0133 147.6645   4.1654 240.0730
   1556.7000  5.0423 20.8767  0.0876 20.8082 141.7240   3.5761 279.6342
   1556.8000  5.0717 21.0154 -0.0662 20.6559 135.6651   3.4440 290.3600
   1556.9000  5.1499 21.0689 -0.0168 20.8460 130.5756   3.3948 294.5682
   1557.0000  5.1799 21.0724  0.0473 21.2285 127.6070   3.3916 294.8461
   1557.1000  5.2010 20.9633 -0.0516 21.7354 127.3093   3.4929 286.2951
   1557.2000  5.2576 20.8071 -0.0607 22.6718 128.7454   3.6448 274.3635
   1557.3000  5.3229 20.5589  0.0223 22.8534 130.3946   3.9041 256.1410
   1557.4000  5.4200 20.4580 -0.0226 22.7182 131.4220   4.0161 248.9978
   1557.5000  5.6311 20.3938  0.0293 21.4545 131.9722   4.0895 244.5287
   1557.6000  5.6905 20.3346  0.0427 20.4573 132.4258   4.1587 240.4598
   1557.7000  5.7042 20.2925 -0.1035 19.3765 132.7948   4.2087 237.6030
   1557.8000  5.6637 20.2432  0.0912 17.4847 132.8967   4.2683 234.2853
   1557.9000  5.6512 20.1701 -0.0095 16.8708 133.0914   4.3585 229.4367
   1558.0000  5.6524 19.9433 -0.1218 16.5440 133.9398   4.6535 214.8920
   1558.1000  5.6480 19.8141  0.0522 16.7138 135.7455   4.8322 206.9451
