~Version Information
 VERS.                  2.0:   CWLS log ASCII Standard -VERSION 2.0
 WRAP.                   NO:   One line per depth step
~Well Information Block
#MNEM.UNIT     VALUE/NAME     DESCRIPTION
#---------     -----------    ---------------------------
 STRT.M              1491.0000: START DEPTH
 STOP.M              2343.0000: STOP DEPTH
 STEP.M                 0.1000: STEP DEPTH
 NULL.                 -999.25: NULL VALUE
 LOC .        X  4.914.974,61:  LOCATION
 FL3 .               Z  548.65:  LOCATIONLINE3
 FL2 .         Y  2.533.371,25:  LOCATIONLINE2
 FL1 .        X  4.914.974,641:  LOCATIONLINE1
 DMF .                      KB:  DRILL MEAS FROM
 PDAT.                      GL:  PERMANENT DATUM
 CNTY.                  CHUBUT:  COUNTY NAME
 FLD .                   ZORRO:  FIELD NAME
 WELL.                 PZ-1645:  WELL NAME
 COMP.     PAN AMERICAN ENERGY LLC.:  COMPANY
 DATE.             24-Jan-2024:  DATE
 SVCO.             Halliburton:  SERVICECONAME
 PROV.                  CHUBUT:  PROVINCE
 STAT.                  CHUBUT:  STATE NAME
 CTRY.               ARGENTINA:  COUNTRY NAME
 APIL.                     API:  APILABEL
 HIDE.                        :  WELLNAMEOPERAT
 UWI .                     N/A:  UNIQUE WELL IDENTIFIER
 API .                     N/A:  API NUMBER
 RANG.                     N/A:  RANGE
 TOWN.                     N/A:  TOWNSHIP
 SECT.                     N/A:  SECTION
 SON .                     N/A:  JOB NUMBER
 SRVC.             Halliburton:  SERVICE COMPANY
 LMF .                      KB:  LOG MEASURED FROM
 LATI.deg               0.0000:  LATITUDE
 LONG.deg               0.0000:  LONGITUDE
 EGL .m               548.6500:  GROUND ELEVATION
 BAP .m                 0.0000:  GL ELEV ONSHORE
 GVFD.g                 1.0000:  GRAVITY FIELD
 EKB .m               553.2500:  KB ELEVATION
 EDF .m               553.2500:  DF ELEVATION
~Curve Information Block
#MNEM.UNIT                 API CODE     Curve Description
#---------               -----------    ---------------------------
 DEPT.M                 00 000 000 000:  Depth
 AMP .mV                00 000 000 000:  Pipe Amplitude
 SGFF.cu                00 000 000 000:  Far Formation Sigma
 CCL .mV                00 000 000 000:  Collar Locator
 GR  .api               00 000 000 000:  Gamma API
 NDSN.cps               00 000 000 000:  DSN Near Counts
 RT90_HAT.ohmm          00 000 000 000:  Emulated 90 in Resistivity
 CT90_HAT.mmo/m          00 000 000 000:  Emulated 90 in Conductivity 
#Other Information
#
#WARRANTY: Halliburton will use its best efforts to furnish customers with 
#accurate information and interpretations that are part of, and incident to, the services 
#provided.  However, Halliburton cannot and does not warrant the accuracy 
#or correctness of such information and interpretations.  Under no circumstances should any 
#such information or interpretation be relied upon as the sole basis for any drilling, 
#completion, production, or financial decision or any procedure involving any risk to the 
#safety of any drilling venture, drilling rig or its crew or any other third party.  The 
#Customer has full responsibility for all drilling, completion and production operation.  
#Halliburton makes no representations or warranties, either expressed or 
#implied, including, but not limited to, the implied warranties of merchantability or fitness 
#for a particular purpose, with respect to the services rendered.  In no event will 
#Halliburton be liable for failure to obtain any particular results or for 
#any damages, including, but not limited to, indirect, special or consequential damages, 
#resulting from the use of any information or interpretation provided by Halliburton.
#
~A   DEPT      AMP    SGFF     CCL     GR      NDSN   RT90_HAT CT90_HAT 
# ...
   2107.0000  4.6896 22.3394 -0.0668 23.2346 142.3876   2.4643 405.7948
   2107.1000  4.8712 22.3238 -0.0195 22.0224 143.2481   2.4733 404.3181
   2107.2000  5.1424 22.2656  0.0089 20.4616 143.9083   2.5075 398.8036
   2107.3000  5.1764 22.1797 -0.0351 20.3683 145.4776   2.5593 390.7318
   2107.4000  5.1434 22.1567 -0.1862 20.7736 148.1498   2.5734 388.5910
   2107.5000  5.0571 22.1003  0.2652 21.6216 151.4216   2.6086 383.3474
   2107.6000  4.8008 21.8707 -0.3223 24.2048 154.2233   2.7593 362.4108
   2107.7000  4.6746 21.7271 -0.1163 25.6615 155.1118   2.8602 349.6259
   2107.8000  4.5717 21.5778  0.1215 27.0275 153.0169   2.9707 336.6210
   2107.9000  4.4725 21.3902 -0.0681 28.9509 148.2018   3.1181 320.7081
   2108.0000  4.4899 21.0874 -0.0064 29.3338 143.3112   3.3780 296.0331
   2108.1000  4.5428 20.9745 -0.0336 29.3069 140.4807   3.4823 287.1665
   2108.2000  4.6169 20.8807  0.0195 28.2760 139.4517   3.5722 279.9395
   2108.3000  4.5717 20.7263  0.0626 27.4616 138.8444   3.7267 268.3339
   2108.4000  4.4663 20.6080 -0.0629 26.5559 138.5084   3.8510 259.6728
   2108.5000  4.1959 20.4579  0.0635 24.5878 139.1810   4.0163 248.9854
   2108.6000  4.0956 20.2129 -0.0208 23.5213 141.1288   4.3054 232.2665
   2108.7000  4.0415 20.1060 -0.0336 22.3971 143.4423   4.4395 225.2506
   2108.8000  4.0576 19.9778  0.0406 20.1416 145.1516   4.6071 217.0563
   2108.9000  4.1009 19.8566 -0.0729 19.1632 146.0364   4.7725 209.5338
   2109.0000  4.1481 19.8698 -0.0003 18.3990 146.2433   4.7542 210.3403
   2109.1000  4.2276 19.8873  0.0323 17.7136 146.1135   4.7300 211.4165
   2109.2000  4.2569 19.9163 -0.0531 17.7772 146.4606   4.6902 213.2105
   2109.3000  4.2755 19.9697  0.0089 18.0282 147.8882   4.6179 216.5486
   2109.4000  4.2812 20.0007  0.0089 18.3722 150.5921   4.5766 218.5028
   2109.5000  4.2785 19.9802 -0.0348 18.9928 154.4431   4.6039 217.2072
   2109.6000  4.2923 19.8752 -0.0031 19.1683 159.3504   4.7467 210.6727
   2109.7000  4.3224 19.8245 -0.0223 19.2504 164.1511   4.8175 207.5765
   2109.8000  4.4101 19.7508 -0.0082 19.2888 167.3671   4.9227 203.1405
   2109.9000  4.4626 19.5338  0.0513 19.3514 169.1422   5.2485 190.5306
   2110.0000  4.5249 19.4622 -0.0677 19.5137 170.8053   5.3614 186.5184
   2110.1000  4.6524 19.3746  0.0385 20.3011 172.7120   5.5034 181.7059
   2110.2000  4.6794 19.2187  0.0079 20.9700 173.4218   5.7669 173.4034
   2110.3000  4.6637 19.1638 -0.0357 21.8104 172.4184   5.8630 170.5611
   2110.4000  4.5552 19.1462  0.0101 23.7652 171.1473   5.8943 169.6554
   2110.5000  4.5130 19.1472 -0.0015 24.6837 171.2485   5.8925 169.7073
   2110.6000  4.5063 19.1891 -0.0183 25.4135 172.8932   5.8185 171.8656
   2110.7000  4.5963 19.2580 -0.0049 25.9841 175.0743   5.6991 175.4663
   2110.8000  4.6554 19.5660 -0.0598 25.7760 176.9917   5.1986 192.3595
   2110.9000  4.6907 19.7543 -0.0156 25.2958 178.7288   4.9177 203.3471
   2111.0000  4.6883 19.9561 -0.0128 24.6438 180.8091   4.6362 215.6939
   2111.1000  4.6011 20.1670 -0.0140 23.3258 183.3914   4.3624 229.2316
   2111.2000  4.5571 20.5055  0.0156 22.8890 185.8726   3.9629 252.3405
   2111.3000  4.5280 20.5725 -0.0372 22.6889 187.6461   3.8893 257.1157
   2111.4000  4.4633 20.5939 -0.0333 22.9230 188.3602   3.8661 258.6586
   2111.5000  4.4090 20.4553  0.0662 23.1888 188.6708   4.0192 248.8057
   2111.6000  4.3599 20.2901 -0.0095 23.4004 189.7192   4.2116 237.4395
   2111.7000  4.3703 20.0407 -0.0189 23.2737 192.5861   4.5239 221.0482
   2111.8000  4.4343 19.2915 -0.0412 22.8442 197.2113   5.6421 177.2390
   2111.9000  4.5142 18.8780  0.0903 22.1841 203.0322   6.3938 156.4015
   2112.0000  4.5898 18.4341 -0.0302 21.3488 210.6909   7.3270 136.4815
   2112.1000  4.6966 17.5232 -0.0055 19.4708 220.5436   9.7350 102.7221
   2112.2000  4.7388 17.1082  0.0107 18.6016 231.7601  11.0953  90.1283
   2112.3000  4.7866 16.7389 -0.0253 17.8857 241.9733  12.4698  80.1937
   2112.4000  4.8821 16.1912 -0.0162 17.1112 249.0587  14.8321  67.4213
   2112.5000  4.8925 16.0089 -0.0137 17.0723 252.9005  15.7138  63.6383
   2112.6000  4.8551 15.9024 -0.0012 17.2240 253.5432  16.2527  61.5282
   2112.7000  4.6455 15.8748  0.0192 17.8180 251.1257  16.3953  60.9931
   2112.8000  4.5006 15.9986 -0.0009 18.0991 246.6694  15.7651  63.4313
   2112.9000  4.3488 16.0983  0.0223 18.2694 242.3690  15.2751  65.4660
   2113.0000  4.0767 16.1903  0.0259 18.0744 240.1821  14.8364  67.4018
   2113.1000  3.9786 16.2932 -0.0644 17.6698 241.1779  14.3605  69.6355
   2113.2000  3.9136 16.2740  0.0183 17.0828 246.6871  14.4481  69.2132
   2113.3000  3.8759 16.2004  0.0024 15.5894 257.6698  14.7890  67.6178
   2113.4000  3.8935 15.9411 -0.0278 14.8345 274.8179  16.0548  62.2867
   2113.5000  3.9251 15.7795  0.1080 14.1798 295.3366  16.8973  59.1810
   2113.6000  3.9800 15.6111 -0.0531 13.4671 315.4938  17.8214  56.1123
   2113.7000  3.9824 15.3043 -0.0217 13.5651 332.6721  19.6338  50.9326
   2113.8000  3.9687 15.1797  0.0433 14.0871 345.7421  20.4200  48.9716
   2113.9000  3.9530 15.0803 -0.0769 15.1371 353.7649  21.0688  47.4635
   2114.0000  3.9865 15.0120 -0.0543 19.1806 354.4335  21.5261  46.4552
   2114.1000  4.0596 15.0700  0.0214 22.2399 346.9336  21.1372  47.3100
   2114.2000  4.1706 15.1961 -0.0717 25.9098 333.3725  20.3148  49.2252
   2114.3000  4.4379 15.3764 -0.0143 34.3051 315.7813  19.1924  52.1040
   2114.4000  4.5527 16.0346  0.0201 38.4798 294.2425  15.5864  64.1585
   2114.5000  4.6459 16.4972 -0.0244 42.2304 270.0060  13.4618  74.2843
   2114.6000  4.8194 16.9959  0.0168 47.4241 243.8593  11.4961  86.9860
   2114.7000  4.9156 18.0110  0.0449 48.5398 219.9644   8.3555 119.6816
   2114.8000  5.0070 18.4431 -0.0272 48.6234 201.9205   7.3067 136.8607
   2114.9000  5.1284 18.7821  0.0385 46.2362 190.6714   6.5838 151.8880
   2115.0000  5.1597 19.2333 -0.0427 44.2681 185.4869   5.7416 174.1675
   2115.1000  5.1810 19.3669 -0.0684 42.1937 182.9026   5.5161 181.2875
   2115.2000  5.1909 19.4770  0.0748 38.7924 180.9739   5.3378 187.3431
   2115.3000  5.1685 19.6937 -0.0317 37.7818 178.3469   5.0061 199.7563
   2115.4000  5.1242 19.8074  0.0360 37.2696 174.8730   4.8417 206.5390
   2115.5000  4.9794 19.9109  0.0146 37.3699 169.9475   4.6975 212.8792
   2115.6000  4.8972 20.1655 -0.0153 37.6889 163.6364   4.3643 229.1318
   2115.7000  4.8339 20.2925 -0.0159 37.9740 156.9582   4.2087 237.6030
   2115.8000  4.8111 20.3862  0.0174 38.0830 150.8532   4.0983 244.0036
   2115.9000  4.9014 20.4877 -0.0522 37.4176 146.0206   3.9827 251.0859
   2116.0000  4.9753 20.6741 -0.0302 36.6231 142.7294   3.7809 264.4873
   2116.1000  5.0310 20.7348  0.0385 35.6162 141.5638   3.7180 268.9618
   2116.2000  5.0308 20.7577 -0.0122 33.4344 143.6097   3.6946 270.6653
   2116.3000  4.9811 20.7583 -0.0424 32.4285 149.1342   3.6940 270.7093
   2116.4000  4.9228 20.7059  0.0159 31.4884 157.1641   3.7478 266.8232
   2116.5000  4.8707 20.6109 -0.0629 29.5019 166.7155   3.8479 259.8820
   2116.6000  4.8852 20.2879  0.0031 28.3034 176.0533   4.2142 237.2930
   2116.7000  4.9007 20.0955 -0.0552 26.9472 183.4828   4.4530 224.5677
   2116.8000  4.8957 19.9402 -0.0299 25.5056 188.1770   4.6577 214.6982
   2116.9000  4.8409 19.7434  0.0745 22.8555 189.6399   4.9334 202.7000
   2117.0000  4.8324 19.7212 -0.0427 21.8701 188.1690   4.9657 201.3815
   2117.1000  4.8474 19.7632  0.0397 21.1870 184.2936   4.9048 203.8819
   2117.2000  4.8792 20.1156  0.0101 20.6563 178.6222   4.4273 225.8713
   2117.3000  4.8694 20.2940 -0.0571 20.7073 172.1304   4.2069 237.7047
   2117.4000  4.8512 20.4605  0.0595 20.8982 165.3266   4.0133 249.1715
   2117.5000  4.8445 20.5842  0.0027 21.5229 158.8227   3.8766 257.9580
   2117.6000  4.8464 20.7774 -0.0867 21.8795 153.9655   3.6746 272.1385
   2117.7000  4.8210 20.8291  0.1059 22.2179 151.7619   3.6229 276.0220
   2117.8000  4.6479 20.8885 -0.0681 22.7687 152.4908   3.5646 280.5364
   2117.9000  4.5414 21.0272 -0.0388 23.0023 155.9316   3.4331 291.2819
   2118.0000  4.4684 21.0993  0.0827 23.2575 161.4350   3.3673 296.9738
   2118.1000  4.4540 21.1613 -0.0861 24.0242 167.9129   3.3120 301.9324
