~Version Information
 VERS.                  2.0:   CWLS log ASCII Standard -VERSION 2.0
 WRAP.                   NO:   One line per depth step
~Well Information Block
#MNEM.UNIT     VALUE/NAME     DESCRIPTION
#---------     -----------    ---------------------------
 STRT.M              1491.0000: START DEPTH
 STOP.M              2343.0000: STOP DEPTH
 STEP.M                 0.1000: STEP DEPTH
 NULL.                 -999.25: NULL VALUE
 LOC .        X  4.914.974,61:  LOCATION
 FL3 .               Z  548.65:  LOCATIONLINE3
 FL2 .         Y  2.533.371,25:  LOCATIONLINE2
 FL1 .        X  4.914.974,641:  LOCATIONLINE1
 DMF .                      KB:  DRILL MEAS FROM
 PDAT.                      GL:  PERMANENT DATUM
 CNTY.                  CHUBUT:  COUNTY NAME
 FLD .                   ZORRO:  FIELD NAME
 WELL.                 PZ-1645:  WELL NAME
 COMP.     PAN AMERICAN ENERGY LLC.:  COMPANY
 DATE.             24-Jan-2024:  DATE
 SVCO.             Halliburton:  SERVICECONAME
 PROV.                  CHUBUT:  PROVINCE
 STAT.                  CHUBUT:  STATE NAME
 CTRY.               ARGENTINA:  COUNTRY NAME
 APIL.                     API:  APILABEL
 HIDE.                        :  WELLNAMEOPERAT
 UWI .                     N/A:  UNIQUE WELL IDENTIFIER
 API .                     N/A:  API NUMBER
 RANG.                     N/A:  RANGE
 TOWN.                     N/A:  TOWNSHIP
 SECT.                     N/A:  SECTION
 SON .                     N/A:  JOB NUMBER
 SRVC.             Halliburton:  SERVICE COMPANY
 LMF .                      KB:  LOG MEASURED FROM
 LATI.deg               0.0000:  LATITUDE
 LONG.deg               0.0000:  LONGITUDE
 EGL .m               548.6500:  GROUND ELEVATION
 BAP .m                 0.0000:  GL ELEV ONSHORE
 GVFD.g                 1.0000:  GRAVITY FIELD
 EKB .m               553.2500:  KB ELEVATION
 EDF .m               553.2500:  DF ELEVATION
~Curve Information Block
#MNEM.UNIT                 API CODE     Curve Description
#---------               -----------    ---------------------------
 DEPT.M                 00 000 000 000:  Depth
 AMP .mV                00 000 000 000:  Pipe Amplitude
 SGFF.cu                00 000 000 000:  Far Formation Sigma
 CCL .mV                00 000 000 000:  Collar Locator
 GR  .api               00 000 000 000:  Gamma API
 NDSN.cps               00 000 000 000:  DSN Near Counts
 RT90_HAT.ohmm          00 000 000 000:  Emulated 90 in Resistivity
 CT90_HAT.mmo/m          00 000 000 000:  Emulated 90 in Conductivity 
#Other Information
#
#WARRANTY: Halliburton will use its best efforts to furnish customers with 
#accurate information and interpretations that are part of, and incident to, the services 
#provided.  However, Halliburton cannot and does not warrant the accuracy 
#or correctness of such information and interpretations.  Under no circumstances should any 
#such information or interpretation be relied upon as the sole basis for any drilling, 
#completion, production, or financial decision or any procedure involving any risk to the 
#safety of any drilling venture, drilling rig or its crew or any other third party.  The 
#Customer has full responsibility for all drilling, completion and production operation.  
#Halliburton makes no representations or warranties, either expressed or 
#implied, including, but not limited to, the implied warranties of merchantability or fitness 
#for a particular purpose, with respect to the services rendered.  In no event will 
#Halliburton be liable for failure to obtain any particular results or for 
#any damages, including, but not limited to, indirect, special or consequential damages, 
#resulting from the use of any information or interpretation provided by Halliburton.
#
~A   DEPT      AMP    SGFF     CCL     GR      NDSN   RT90_HAT CT90_HAT 
# ...
   2051.0000  4.3852 20.1205  0.0354 18.6676 158.4218   4.4210 226.1932
   2051.1000  4.3661 20.2578  0.0363 18.9211 157.7231   4.2505 235.2664
   2051.2000  4.2385 20.4655 -0.0912 19.9606 157.5324   4.0077 249.5197
   2051.3000  4.1618 20.6799  0.0912 20.6887 157.9243   3.7748 264.9147
   2051.4000  4.1263 21.0675 -0.0232 21.5520 158.2456   3.3961 294.4554
   2051.5000  4.3016 21.2326 -0.0287 23.7300 157.0744   3.2499 307.7018
   2051.6000  4.4951 21.3684 -0.0388 25.0393 153.5949   3.1359 318.8877
   2051.7000  4.6866 21.3650 -0.0613 26.4586 149.3552   3.1387 318.6032
   2051.8000  4.8059 21.3009 -0.0116 29.4381 147.1295   3.1919 313.2930
   2051.9000  4.6932 21.1679  0.0534 30.9051 148.2990   3.3062 302.4620
   2052.0000  4.5139 20.8758 -0.0156 32.3031 151.5488   3.5769 279.5717
   2052.1000  4.1857 20.7341  0.0317 34.6900 154.9622   3.7187 268.9112
   2052.2000  4.0979 20.5998  0.0034 35.5263 157.6183   3.8598 259.0808
   2052.3000  4.0620 20.3673 -0.0113 35.9910 160.0062   4.1203 242.7008
   2052.4000  4.0720 20.2944  0.0198 35.9954 162.9852   4.2065 237.7273
   2052.5000  4.2357 20.2481 -0.0204 34.5573 166.2500   4.2623 234.6151
   2052.6000  4.3804 20.0936 -0.0024 33.2935 168.6535   4.4554 224.4467
   2052.7000  4.5349 19.9900  0.0342 31.9162 169.2560   4.5908 217.8270
   2052.8000  4.7458 19.8768 -0.0403 29.6780 168.3393   4.7445 210.7704
   2052.9000  4.7766 19.7741 -0.0311 29.1099 167.0347   4.8892 204.5324
   2053.0000  4.7711 19.5352  0.0366 28.9444 165.8309   5.2463 190.6105
   2053.1000  4.7460 19.4441 -0.0296 29.0866 164.6924   5.3904 185.5150
   2053.2000  4.6599 19.3851 -0.0391 29.6410 163.6494   5.4861 182.2788
   2053.3000  4.5948 19.3893  0.0244 29.7043 162.9665   5.4793 182.5051
   2053.4000  4.5194 19.4347 -0.0702 29.4445 162.6572   5.4055 184.9968
   2053.5000  4.3998 19.5069 -0.0055 27.7402 162.4108   5.2906 189.0145
   2053.6000  4.3792 19.7281  0.0085 26.3350 161.6281   4.9557 201.7878
   2053.7000  4.3758 19.8507 -0.0867 24.6747 160.1980   4.7808 209.1700
   2053.8000  4.3375 19.9440  0.0693 21.1140 157.9877   4.6525 214.9382
   2053.9000  4.2841 20.0195  0.0369 19.4805 154.9500   4.5518 219.6933
   2054.0000  4.2209 19.9722 -0.0644 18.0880 151.4775   4.6146 216.7035
   2054.1000  4.1328 19.8868  0.0732 16.2764 148.8250   4.7306 211.3897
   2054.2000  4.1294 19.6023 -0.0574 15.9300 147.8342   5.1430 194.4390
   2054.3000  4.1576 19.4490 -0.0751 15.9915 147.8606   5.3825 185.7873
   2054.4000  4.2738 19.2687  0.0504 17.4096 148.2407   5.6808 176.0315
   2054.5000  4.3202 19.1320  0.0085 18.7453 150.1600   5.9196 168.9303
   2054.6000  4.3242 19.0241 -0.0644 20.4108 154.8778   6.1160 163.5056
   2054.7000  4.1510 19.0486  0.0253 24.1200 161.6981   6.0708 164.7229
   2054.8000  3.9934 19.1121 -0.0262 25.7618 167.8728   5.9553 167.9177
   2054.9000  3.8320 19.4428 -0.0607 26.9960 171.3805   5.3925 185.4427
   2055.0000  3.7069 19.6288  0.1144 27.6843 172.2160   5.1028 195.9708
   2055.1000  3.6507 19.7729 -0.0247 27.3061 171.2087   4.8909 204.4613
   2055.2000  3.7079 20.0119  0.0180 26.3967 169.3686   4.5618 219.2117
   2055.3000  3.7906 20.1296  0.0482 25.2140 167.3402   4.4095 226.7831
   2055.4000  3.9301 20.2430 -0.0244 22.7259 164.7071   4.2685 234.2743
   2055.5000  3.9538 20.4817 -0.0684 21.7016 160.2951   3.9895 250.6580
   2055.6000  3.9476 20.6529 -0.0217 20.9329 154.4053   3.8032 262.9365
   2055.7000  3.9215 20.8229 -0.0012 20.1785 147.8002   3.6290 275.5580
   2055.8000  3.9292 21.0175 -0.0140 20.0974 141.6016   3.4421 290.5203
   2055.9000  3.9389 20.9566 -0.0116 20.1086 136.9363   3.4992 285.7796
   2056.0000  3.8939 20.7874  0.0134 20.1076 135.0692   3.6646 272.8811
   2056.1000  3.8552 20.5125  0.0235 20.0033 136.7816   3.9551 252.8381
   2056.2000  3.8509 19.7382  0.0412 19.8158 141.1465   4.9410 202.3882
   2056.3000  4.0255 19.3260 -0.1141 19.2525 146.5154   5.5840 179.0831
   2056.4000  4.1813 18.9654  0.0687 18.9055 151.8988   6.2260 160.6168
   2056.5000  4.3436 18.4251 -0.0623 18.5188 156.8931   7.3474 136.1026
   2056.6000  4.5632 18.3180 -0.0089 17.6145 161.6374   7.5949 131.6673
   2056.7000  4.5707 18.2919  0.0479 17.1103 166.1997   7.6566 130.6063
   2056.8000  4.5078 18.3556  0.0287 16.6000 169.7238   7.5070 133.2090
   2056.9000  4.4086 18.4280 -0.0986 16.1091 171.8979   7.3408 136.2249
   2057.0000  4.2707 18.5481  0.1971 15.2201 173.7243   7.0739 141.3647
   2057.1000  4.2600 18.6580 -0.6528 14.7845 177.4188   6.8389 146.2224
   2057.2000  4.2620 18.6204  0.0244 14.3100 183.4221   6.9183 144.5442
   2057.3000  4.2296 18.5504  0.2078 13.1869 189.6678   7.0689 141.4647
   2057.4000  4.1998 18.1294  0.0513 12.6051 193.8176   8.0529 124.1789
   2057.5000  4.1680 17.7544 -0.0937 12.1176 195.7277   9.0535 110.4545
   2057.6000  4.0343 17.3673 -0.0400 11.8112 198.4505  10.2246  97.8033
   2057.7000  3.8993 16.9827  0.1208 12.1204 205.1456  11.5442  86.6236
   2057.8000  3.7303 16.1525 -0.0259 12.7481 218.4018  15.0151  66.5996
   2057.9000  3.4191 15.7560 -0.0299 14.7389 237.7913  17.0233  58.7430
   2058.0000  3.3186 15.4275 -0.0266 15.9336 260.2934  18.8854  52.9510
   2058.1000  3.2502 14.8990  0.0342 17.1428 283.4203  22.3038  44.8354
   2058.2000  3.1429 14.7039 -0.0464 19.3316 303.9161  23.7102  42.1759
   2058.3000  3.0883 14.5844  0.0403 20.2587 319.8132  24.6129  40.6291
   2058.4000  3.0388 14.5724 -0.0342 21.1147 328.5315  24.7054  40.4770
   2058.5000  2.9803 14.6450  0.0076 22.9585 327.2288  24.1511  41.4060
   2058.6000  2.9741 14.8057 -0.0348 24.1205 315.8128  22.9661  43.5424
   2058.7000  2.9850 15.4297 -0.0040 25.4770 295.9510  18.8723  52.9877
   2058.8000  3.0188 15.8653  0.0150 26.9474 270.2299  16.4447  60.8099
   2058.9000  3.1779 16.3911 -0.0360 29.5123 241.5927  13.9219  71.8293
   2059.0000  3.3012 17.7846 -0.0418 30.1858 212.4937   8.9682 111.5051
   2059.1000  3.4420 18.5620  0.0574 30.2476 185.3588   7.0437 141.9708
   2059.2000  3.7213 19.2301  0.0073 28.5359 162.9194   5.7471 174.0008
   2059.3000  3.8238 19.7438 -0.0876 27.0324 146.1764   4.9328 202.7246
   2059.4000  3.8761 20.2663  0.0085 25.3926 137.3358   4.2403 235.8324
   2059.5000  3.8733 20.2807  0.0424 23.8514 136.7595   4.2229 236.8041
   2059.6000  3.7916 20.1818 -0.0079 21.7597 142.9825   4.3439 230.2079
   2059.7000  3.7782 19.8685 -0.0098 21.3757 153.2478   4.7560 210.2607
   2059.8000  3.8021 19.7791  0.0253 21.4254 164.7394   4.8820 204.8341
   2059.9000  3.9002 19.7346  0.0131 22.5311 175.4758   4.9462 202.1754
   2060.0000  3.9393 19.7503 -0.0629 23.4033 184.4911   4.9234 203.1117
   2060.1000  3.9636 19.8469  0.0137 24.3743 190.6641   4.7861 208.9384
   2060.2000  3.9640 20.0358  0.0256 26.3535 193.6681   4.5304 220.7311
   2060.3000  3.9413 20.4654  0.0253 27.2708 193.0540   4.0078 249.5134
   2060.4000  3.9166 20.6899  0.0308 28.1016 188.1587   3.7644 265.6466
   2060.5000  3.9069 20.9322  0.0079 29.4598 179.4832   3.5224 283.8973
   2060.6000  3.9067 21.3281 -0.0079 29.9952 169.1014   3.1692 315.5370
   2060.7000  3.8813 21.4307 -0.0171 30.4597 159.6217   3.0855 324.0966
   2060.8000  3.7588 21.5039 -0.0507 31.2723 152.7748   3.0276 330.2946
   2060.9000  3.7160 21.5216 -0.0082 31.6543 148.5950   3.0138 331.8070
   2061.0000  3.7190 21.4802 -0.0211 32.0272 146.4282   3.0461 328.2886
   2061.1000  3.8368 21.4487  0.0214 32.7295 146.4737   3.0711 325.6162
   2061.2000  3.9123 21.4060 -0.0171 33.0603 148.2488   3.1053 322.0301
   2061.3000  3.9805 21.3092 -0.0488 33.3904 150.4881   3.1849 313.9816
   2061.4000  4.0362 21.2919  0.0256 33.7287 151.5926   3.1994 312.5586
   2061.5000  4.0809 21.2667 -0.0513 34.3768 150.6784   3.2208 310.4819
   2061.6000  4.0530 21.2271 -0.0256 34.6006 147.6158   3.2546 307.2574
   2061.7000  3.9920 21.2429  0.0122 34.6833 143.2080   3.2411 308.5372
   2061.8000  3.8554 21.2810 -0.0101 34.3243 138.6431   3.2086 311.6624
   2061.9000  3.8390 21.3100  0.0317 33.9424 135.0976   3.1843 314.0408
   2062.0000  3.8799 21.3102 -0.0336 33.5319 133.2054   3.1841 314.0605
   2062.1000  4.0547 21.2969  0.0034 32.9775 132.7298   3.1952 312.9695
