~Version Information
 VERS.                  2.0:   CWLS log ASCII Standard -VERSION 2.0
 WRAP.                   NO:   One line per depth step
~Well Information Block
#MNEM.UNIT     VALUE/NAME     DESCRIPTION
#---------     -----------    ---------------------------
 STRT.M              1491.0000: START DEPTH
 STOP.M              2343.0000: STOP DEPTH
 STEP.M                 0.1000: STEP DEPTH
 NULL.                 -999.25: NULL VALUE
 LOC .        X  4.914.974,61:  LOCATION
 FL3 .               Z  548.65:  LOCATIONLINE3
 FL2 .         Y  2.533.371,25:  LOCATIONLINE2
 FL1 .        X  4.914.974,641:  LOCATIONLINE1
 DMF .                      KB:  DRILL MEAS FROM
 PDAT.                      GL:  PERMANENT DATUM
 CNTY.                  CHUBUT:  COUNTY NAME
 FLD .                   ZORRO:  FIELD NAME
 WELL.                 PZ-1645:  WELL NAME
 COMP.     PAN AMERICAN ENERGY LLC.:  COMPANY
 DATE.             24-Jan-2024:  DATE
 SVCO.             Halliburton:  SERVICECONAME
 PROV.                  CHUBUT:  PROVINCE
 STAT.                  CHUBUT:  STATE NAME
 CTRY.               ARGENTINA:  COUNTRY NAME
 APIL.                     API:  APILABEL
 HIDE.                        :  WELLNAMEOPERAT
 UWI .                     N/A:  UNIQUE WELL IDENTIFIER
 API .                     N/A:  API NUMBER
 RANG.                     N/A:  RANGE
 TOWN.                     N/A:  TOWNSHIP
 SECT.                     N/A:  SECTION
 SON .                     N/A:  JOB NUMBER
 SRVC.             Halliburton:  SERVICE COMPANY
 LMF .                      KB:  LOG MEASURED FROM
 LATI.deg               0.0000:  LATITUDE
 LONG.deg               0.0000:  LONGITUDE
 EGL .m               548.6500:  GROUND ELEVATION
 BAP .m                 0.0000:  GL ELEV ONSHORE
 GVFD.g                 1.0000:  GRAVITY FIELD
 EKB .m               553.2500:  KB ELEVATION
 EDF .m               553.2500:  DF ELEVATION
~Curve Information Block
#MNEM.UNIT                 API CODE     Curve Description
#---------               -----------    ---------------------------
 DEPT.M                 00 000 000 000:  Depth
 AMP .mV                00 000 000 000:  Pipe Amplitude
 SGFF.cu                00 000 000 000:  Far Formation Sigma
 CCL .mV                00 000 000 000:  Collar Locator
 GR  .api               00 000 000 000:  Gamma API
 NDSN.cps               00 000 000 000:  DSN Near Counts
 RT90_HAT.ohmm          00 000 000 000:  Emulated 90 in Resistivity
 CT90_HAT.mmo/m          00 000 000 000:  Emulated 90 in Conductivity 
#Other Information
#
#WARRANTY: Halliburton will use its best efforts to furnish customers with 
#accurate information and interpretations that are part of, and incident to, the services 
#provided.  However, Halliburton cannot and does not warrant the accuracy 
#or correctness of such information and interpretations.  Under no circumstances should any 
#such information or interpretation be relied upon as the sole basis for any drilling, 
#completion, production, or financial decision or any procedure involving any risk to the 
#safety of any drilling venture, drilling rig or its crew or any other third party.  The 
#Customer has full responsibility for all drilling, completion and production operation.  
#Halliburton makes no representations or warranties, either expressed or 
#implied, including, but not limited to, the implied warranties of merchantability or fitness 
#for a particular purpose, with respect to the services rendered.  In no event will 
#Halliburton be liable for failure to obtain any particular results or for 
#any damages, including, but not limited to, indirect, special or consequential damages, 
#resulting from the use of any information or interpretation provided by Halliburton.
#
~A   DEPT      AMP    SGFF     CCL     GR      NDSN   RT90_HAT CT90_HAT 
# ...
   2331.0000 15.4675 23.8183 -0.0281 30.1830 186.6398   1.8045 554.1701
   2331.1000 15.2080 24.0684 -0.0574 34.2834 177.5430   1.7244 579.9119
   2331.2000 15.0428 24.2722  0.0674 36.1720 168.7045   1.6644 600.8171
   2331.3000 14.8719 24.4202 -0.0461 37.8071 162.2248   1.6236 615.9152
   2331.4000 14.5583 24.6380  0.0034 40.0389 158.8246   1.5675 637.9586
   2331.5000 14.4450 24.6860  0.0345 40.5697 156.8727   1.5557 642.7975
   2331.6000 14.3714 24.7279 -0.1401 40.7134 154.3500   1.5456 646.9979
   2331.7000 14.3305 24.8280 -0.0009 39.9886 149.5904   1.5222 656.9439
   2331.8000 14.3707 24.8526  0.1379 39.2332 143.3520   1.5165 659.4131
   2331.9000 14.4805 24.8577  0.1187 38.2966 137.2323   1.5154 659.8918
   2332.0000 15.0343 24.7034 -0.5161 36.0120 132.8731   1.5515 644.5375
   2332.1000 15.5172 24.5084  0.3271 34.6605 131.9039   1.6003 624.8829
   2332.2000 16.1324 24.2903  0.0964 33.1274 134.7645   1.6593 602.6638
   2332.3000 17.5968 23.7900 -0.0299 29.4273 140.8004   1.8141 551.2375
   2332.4000 18.2962 23.5278  0.0958 27.3143 147.8853   1.9075 524.2464
   2332.5000 18.8411 23.2664 -0.0690 25.1495 153.7451   2.0100 497.5125
   2332.6000 19.1945 23.0219  0.2893 21.2582 157.2867   2.1153 472.7462
   2332.7000 19.0525 22.6557 -0.2469 19.8093 158.6803   2.2917 436.3573
   2332.8000 18.8483 22.4902  0.1273 18.8033 157.7227   2.3796 420.2387
   2332.9000 18.6886 22.3257  0.0195 18.2355 154.1777   2.4722 404.4980
   2333.0000 18.5008 21.9392  0.0458 18.0939 148.9747   2.7130 368.5956
   2333.1000 18.3269 21.6619 -0.1135 18.2791 144.3970   2.9077 343.9144
   2333.2000 18.0436 21.3034  0.1416 18.4792 142.5304   3.1898 313.4993
   2333.3000 17.3679 20.4583 -0.0476 18.6792 144.5782   4.0158 249.0164
   2333.4000 17.1217 19.9679  0.0516 18.6674 149.6958   4.6203 216.4362
   2333.5000 16.9718 19.4715 -0.1337 18.6232 156.1624   5.3466 187.0347
   2333.6000 16.8596 18.7258  0.0311 18.5718 161.8914   6.6982 149.2938
   2333.7000 16.8443 18.5294  0.0870 18.5807 165.1073   7.1147 140.5541
   2333.8000 16.8281 18.4375 -0.1239 18.5917 164.6523   7.3193 136.6251
   2333.9000 16.6959 18.6712  0.0223 18.5406 160.2813   6.8112 146.8170
   2334.0000 16.5745 19.0177 -0.0183 18.4835 153.6681   6.1279 163.1880
   2334.1000 16.4690 19.5064 -0.0723 18.4408 148.2022   5.2913 188.9895
   2334.2000 16.5170 20.0295 -0.0848 18.5237 146.7803   4.5386 220.3323
   2334.3000 16.6872 20.9078  0.1727 18.6606 150.8332   3.5459 282.0158
   2334.4000 16.8980 21.1360  0.1508 18.8184 159.1989   3.3344 299.9040
   2334.5000 17.2519 21.1925 -0.2316 18.9417 169.3061   3.2846 304.4511
   2334.6000 17.3650 20.7709  0.0272 18.7978 178.5853   3.6812 271.6505
   2334.7000 17.4386 20.4760  0.0308 18.4974 186.9470   3.9959 250.2565
   2334.8000 17.4618 20.1882 -0.0684 18.0788 196.5814   4.3360 230.6273
   2334.9000 17.2743 19.5836 -0.0189 17.2234 207.5117   5.1715 193.3675
   2335.0000 17.0640 19.3836  0.0366 16.9980 218.7071   5.4886 182.1958
   2335.1000 16.8232 19.2878 -0.0665 17.0419 228.2028   5.6483 177.0444
   2335.2000 16.4439 19.4256  0.0656 18.2180 234.1297   5.4202 184.4950
   2335.3000 16.3504 19.6938  0.0586 19.4007 234.7471   5.0059 199.7643
   2335.4000 16.3100 20.1357  0.0412 20.9386 229.3309   4.4018 227.1798
   2335.5000 16.3429 21.1704  0.0281 24.6172 218.9972   3.3040 302.6635
   2335.6000 16.4210 21.7716  0.0201 26.4032 206.0827   2.8284 353.5568
   2335.7000 16.5378 22.3737  0.0250 27.8799 192.0238   2.4446 409.0648
   2335.8000 16.7738 22.9418 -0.1172 29.2584 178.9395   2.1519 464.7056
   2335.9000 16.8299 23.7351 -0.0522 29.0325 169.1282   1.8329 545.5835
   2336.0000 16.8304 24.0480  0.0293 28.2783 163.4778   1.7306 577.8343
   2336.1000 16.7065 24.3014 -0.0381 25.9146 162.2382   1.6561 603.8282
   2336.2000 16.6046 24.6215  0.0330 24.7361 163.3321   1.5716 636.2943
   2336.3000 16.4904 24.6977 -0.0571 23.7977 164.3585   1.5529 643.9565
   2336.4000 16.2955 24.7594 -0.0534 22.9082 163.9492   1.5381 650.1528
   2336.5000 16.2458 24.8408 -0.1163 22.8862 162.7907   1.5192 658.2412
   2336.6000 16.2319 24.8257 -0.0388 23.0190 162.3545   1.5227 656.7282
   2336.7000 16.2448 24.8056 -0.1505 23.2150 163.5588   1.5273 654.7502
   2336.8000 16.3092 24.6741 -0.1617 23.6850 166.1118   1.5586 641.6014
   2336.9000 16.3439 24.5702  0.1157 24.0538 168.7453   1.5844 631.1537
   2337.0000 16.3702 24.4366 -0.0702 24.6265 169.8109   1.6192 617.5889
   2337.1000 16.3685 24.2146  0.0500 26.5224 168.2694   1.6809 594.9194
   2337.2000 16.3239 24.0874  0.0833 27.7166 165.0836   1.7186 581.8690
   2337.3000 16.2394 23.9590 -0.2264 28.8592 162.6331   1.7585 568.6665
   2337.4000 16.1153 23.8096  0.0937 29.7506 162.9503   1.8075 553.2504
   2337.5000 15.8225 23.5040  0.0922 30.2204 165.5681   1.9164 521.8118
   2337.6000 15.7160 23.3336 -0.0046 29.7623 167.4720   1.9827 504.3627
   2337.7000 15.6672 23.1551 -0.0204 28.9831 166.4881   2.0568 486.1922
   2337.8000 15.7133 22.8862  0.0009 27.1677 162.8517   2.1779 459.1579
   2337.9000 15.7517 22.8020 -0.0180 26.4190 159.3865   2.2184 450.7753
   2338.0000 15.7603 22.7230 -0.0171 25.8595 158.3221   2.2575 442.9679
   2338.1000 15.6463 22.5918  0.0082 25.2072 158.4095   2.3250 430.1075
   2338.2000 15.5433 22.5673 -0.0314 25.0306 156.0063   2.3380 427.7160
   2338.3000 15.4405 22.5398 -0.1422 24.9389 149.1035   2.3527 425.0436
   2338.4000 15.3185 22.5024 -0.0192 25.1885 139.7531   2.3729 421.4253
   2338.5000 15.3090 22.5229  0.0327 25.6508 131.7509   2.3618 423.4059
   2338.6000 15.3166 22.5584 -0.0638 26.3857 126.8470   2.3427 426.8579
   2338.7000 15.3088 22.7023  0.0897 28.5605 125.1525   2.2680 440.9171
   2338.8000 15.2796 22.8469 -0.0272 29.8357 125.5330   2.1967 455.2283
   2338.9000 15.2450 23.0237 -0.0479 31.0782 126.9736   2.1145 472.9250
   2339.0000 15.2142 23.2062  0.0229 32.9505 129.0609   2.0351 491.3763
   2339.1000 15.2260 23.4551  0.1047 33.3463 132.6295   1.9350 516.7959
   2339.2000 15.2438 23.3439  0.0275 33.2711 139.3195   1.9786 505.4079
   2339.3000 15.2519 22.9357  0.0119 32.6942 151.4968   2.1547 464.1017
   2339.4000 15.1978 21.1614 -0.1230 30.1911 169.9721   3.3119 301.9415
   2339.5000 15.1421 19.9969  0.0391 28.4775 196.4959   4.5817 218.2596
   2339.6000 15.0872 18.8511 -0.0195 26.6662 229.1287   6.4465 155.1229
   2339.7000 15.0280 16.8026 -0.0226 23.4464 263.8897  12.2209  81.8270
   2339.8000 15.0247 16.1371  0.0180 22.3401 294.2079  15.0885  66.2756
   2339.9000 15.0306 15.6506 -0.3345 21.7080 314.3197  17.6003  56.8172
   2340.0000 15.0501 15.1343  0.0296 21.9843 323.7201  20.7139  48.2768
   2340.1000 15.0537 15.0800 -0.1587 22.8142 324.7726  21.0708  47.4590
   2340.2000 15.0442 15.1643 -0.2054 23.9617 319.8613  20.5192  48.7348
   2340.3000 14.9889 15.7439  0.1260 26.5251 310.1970  17.0886  58.5185
   2340.4000 14.9665 16.2105 -0.0067 27.5697 294.7623  14.7417  67.8348
   2340.5000 14.9675 16.8030 -0.0031 28.2554 273.0067  12.2194  81.8371
   2340.6000 15.0506 17.5498 -0.0027 28.3500 248.3039   9.6539 103.5851
   2340.7000 15.1103 19.4252  0.0137 27.8707 223.9830   5.4208 184.4746
   2340.8000 15.1541 20.3839  0.0137 27.2311 203.1477   4.1010 243.8430
   2340.9000 15.0414 -999.25  0.0198 26.1852 186.3363  -999.25  -999.25
   2341.0000 14.7345 -999.25 -0.0397 26.0656 172.9719  -999.25  -999.25
   2341.1000 14.0905 -999.25 -0.0220 26.3011 163.4687  -999.25  -999.25
   2341.2000 12.9677 -999.25  0.0082 26.8599 156.6107  -999.25  -999.25
   2341.3000  9.2027 -999.25  0.0204 28.4984 151.7285  -999.25  -999.25
   2341.4000  6.9362 -999.25 -0.0244 29.2648 148.1700  -999.25  -999.25
   2341.5000  4.8507 -999.25 -0.0232 29.7921 146.2268  -999.25  -999.25
   2341.6000  2.1178 -999.25  0.0076 29.7742 145.5893  -999.25  -999.25
   2341.7000  1.4922 -999.25 -0.0461 29.2173 145.2932  -999.25  -999.25
   2341.8000  1.1878 -999.25  0.0079 28.3976 144.7134  -999.25  -999.25
   2341.9000  1.0169 -999.25 -0.0107 26.5379 143.7191  -999.25  -999.25
   2342.0000  1.0034 -999.25 -0.0061 25.7946 142.6338  -999.25  -999.25
   2342.1000  1.0000 -999.25 -0.0226 25.3220 141.5666  -999.25  -999.25
