~Version Information
 VERS.                  2.0:   CWLS log ASCII Standard -VERSION 2.0
 WRAP.                   NO:   One line per depth step
~Well Information Block
#MNEM.UNIT     VALUE/NAME     DESCRIPTION
#---------     -----------    ---------------------------
 STRT.M              1491.0000: START DEPTH
 STOP.M              2343.0000: STOP DEPTH
 STEP.M                 0.1000: STEP DEPTH
 NULL.                 -999.25: NULL VALUE
 LOC .        X  4.914.974,61:  LOCATION
 FL3 .               Z  548.65:  LOCATIONLINE3
 FL2 .         Y  2.533.371,25:  LOCATIONLINE2
 FL1 .        X  4.914.974,641:  LOCATIONLINE1
 DMF .                      KB:  DRILL MEAS FROM
 PDAT.                      GL:  PERMANENT DATUM
 CNTY.                  CHUBUT:  COUNTY NAME
 FLD .                   ZORRO:  FIELD NAME
 WELL.                 PZ-1645:  WELL NAME
 COMP.     PAN AMERICAN ENERGY LLC.:  COMPANY
 DATE.             24-Jan-2024:  DATE
 SVCO.             Halliburton:  SERVICECONAME
 PROV.                  CHUBUT:  PROVINCE
 STAT.                  CHUBUT:  STATE NAME
 CTRY.               ARGENTINA:  COUNTRY NAME
 APIL.                     API:  APILABEL
 HIDE.                        :  WELLNAMEOPERAT
 UWI .                     N/A:  UNIQUE WELL IDENTIFIER
 API .                     N/A:  API NUMBER
 RANG.                     N/A:  RANGE
 TOWN.                     N/A:  TOWNSHIP
 SECT.                     N/A:  SECTION
 SON .                     N/A:  JOB NUMBER
 SRVC.             Halliburton:  SERVICE COMPANY
 LMF .                      KB:  LOG MEASURED FROM
 LATI.deg               0.0000:  LATITUDE
 LONG.deg               0.0000:  LONGITUDE
 EGL .m               548.6500:  GROUND ELEVATION
 BAP .m                 0.0000:  GL ELEV ONSHORE
 GVFD.g                 1.0000:  GRAVITY FIELD
 EKB .m               553.2500:  KB ELEVATION
 EDF .m               553.2500:  DF ELEVATION
~Curve Information Block
#MNEM.UNIT                 API CODE     Curve Description
#---------               -----------    ---------------------------
 DEPT.M                 00 000 000 000:  Depth
 AMP .mV                00 000 000 000:  Pipe Amplitude
 SGFF.cu                00 000 000 000:  Far Formation Sigma
 CCL .mV                00 000 000 000:  Collar Locator
 GR  .api               00 000 000 000:  Gamma API
 NDSN.cps               00 000 000 000:  DSN Near Counts
 RT90_HAT.ohmm          00 000 000 000:  Emulated 90 in Resistivity
 CT90_HAT.mmo/m          00 000 000 000:  Emulated 90 in Conductivity 
#Other Information
#
#WARRANTY: Halliburton will use its best efforts to furnish customers with 
#accurate information and interpretations that are part of, and incident to, the services 
#provided.  However, Halliburton cannot and does not warrant the accuracy 
#or correctness of such information and interpretations.  Under no circumstances should any 
#such information or interpretation be relied upon as the sole basis for any drilling, 
#completion, production, or financial decision or any procedure involving any risk to the 
#safety of any drilling venture, drilling rig or its crew or any other third party.  The 
#Customer has full responsibility for all drilling, completion and production operation.  
#Halliburton makes no representations or warranties, either expressed or 
#implied, including, but not limited to, the implied warranties of merchantability or fitness 
#for a particular purpose, with respect to the services rendered.  In no event will 
#Halliburton be liable for failure to obtain any particular results or for 
#any damages, including, but not limited to, indirect, special or consequential damages, 
#resulting from the use of any information or interpretation provided by Halliburton.
#
~A   DEPT      AMP    SGFF     CCL     GR      NDSN   RT90_HAT CT90_HAT 
# ...
   1771.0000  4.0984 21.5349  0.0562 23.7156 125.9050   3.0035 332.9449
   1771.1000  4.0513 21.2388 -0.0864 22.8124 129.2822   3.2446 308.2044
   1771.2000  4.0012 20.9831  0.0629 22.3493 132.1925   3.4742 287.8361
   1771.3000  3.9202 20.7605  0.0061 21.9062 132.8415   3.6918 270.8706
   1771.4000  3.6925 20.4311 -0.0266 21.1755 130.7773   4.0467 247.1149
   1771.5000  3.5877 20.3596  0.0421 20.9377 127.7850   4.1293 242.1718
   1771.6000  3.5163 20.3140 -0.0247 20.8041 126.4712   4.1831 239.0571
   1771.7000  3.4924 20.2781 -0.0427 20.8309 128.1658   4.2260 236.6304
   1771.8000  3.5218 20.3022 -0.0192 20.9547 132.6134   4.1971 238.2597
   1771.9000  3.5589 20.3386  0.0229 21.1147 138.9514   4.1540 240.7318
   1772.0000  3.6240 20.4248 -0.0278 21.4228 145.9150   4.0539 246.6761
   1772.1000  3.6558 20.4613 -0.0275 21.5011 151.7643   4.0124 249.2274
   1772.2000  3.6927 20.4735  0.0580 21.4893 155.2522   3.9987 250.0813
   1772.3000  3.7598 20.4953 -0.0040 21.1642 156.1649   3.9743 251.6166
   1772.4000  3.7630 20.4724  0.0070 20.9001 155.2380   3.9999 250.0062
   1772.5000  3.7296 20.4397 -0.0223 20.6438 152.8568   4.0369 247.7148
   1772.6000  3.6601 20.3446 -0.0143 20.4648 149.4751   4.1469 241.1440
   1772.7000  3.4969 20.3110 -0.0363 20.5549 146.3442   4.1866 238.8573
   1772.8000  3.4680 20.2570 -0.0449 20.8479 144.6643   4.2515 235.2111
   1772.9000  3.5053 20.2172  0.1080 21.2564 144.3290   4.3001 232.5527
   1773.0000  3.7382 20.1307 -0.0366 22.0846 144.8220   4.4081 226.8551
   1773.1000  3.8628 20.1058  0.0516 22.3069 145.9201   4.4398 225.2354
   1773.2000  3.9374 20.0447 -0.0375 22.2856 147.6068   4.5187 221.3026
   1773.3000  3.8754 19.8110  0.0183 21.3603 150.3412   4.8366 206.7568
   1773.4000  3.7731 19.6309  0.0018 20.5036 155.0475   5.0997 196.0900
   1773.5000  3.6715 19.4103 -0.0027 19.4973 163.1606   5.4450 183.6547
   1773.6000  3.5865 18.8704 -0.0479 17.5503 174.3247   6.4086 156.0403
   1773.7000  3.6135 18.5450  0.0137 16.8663 186.0600   7.0806 141.2310
   1773.8000  3.6625 18.2441 -0.0293 16.5093 196.1384   7.7710 128.6836
   1773.9000  3.7365 17.8008 -0.0208 16.9719 203.2411   8.9228 112.0724
   1774.0000  3.7529 17.6762 -0.0162 17.7953 206.1775   9.2782 107.7795
   1774.1000  3.7706 17.6299  0.0696 18.9517 203.7185   9.4140 106.2248
   1774.2000  3.8171 17.8524 -0.0427 21.8758 194.6974   8.7799 113.8965
   1774.3000  3.8182 18.1282 -0.0040 23.3906 180.1316   8.0559 124.1326
   1774.4000  3.7903 18.4629 -0.0037 24.7703 163.8635   7.2621 137.7012
   1774.5000  3.7401 18.8416 -0.0266 25.9145 149.0434   6.4652 154.6743
   1774.6000  3.6323 19.6203 -0.0333 27.3126 137.9832   5.1157 195.4767
   1774.7000  3.5972 19.9935 -0.0064 27.5857 131.1299   4.5862 218.0454
   1774.8000  3.5844 20.3028 -0.0269 27.6352 127.5021   4.1964 238.2995
   1774.9000  3.6359 20.7035  0.0339 27.2892 126.0766   3.7503 266.6454
   1775.0000  3.6835 20.7605 -0.0470 26.9758 124.7662   3.6918 270.8706
   1775.1000  3.7238 20.7651  0.0342 26.6009 122.9185   3.6871 271.2159
   1775.2000  3.7464 20.6487  0.0073 26.1783 121.4605   3.8076 262.6326
   1775.3000  3.7586 20.5783  0.0314 25.2526 121.7310   3.8830 257.5328
   1775.4000  3.7732 20.5245 -0.0598 24.7715 123.1207   3.9418 253.6912
   1775.5000  3.8070 20.5298  0.0406 24.2746 124.0751   3.9360 254.0650
   1775.6000  3.9536 20.5714 -0.0180 23.1270 124.1223   3.8905 257.0364
   1775.7000  4.0594 20.6515  0.0012 22.4261 123.5697   3.8047 262.8328
   1775.8000  4.1577 20.9488 -0.0217 21.6535 122.4690   3.5066 285.1765
   1775.9000  4.1990 21.1112  0.0400 20.2179 120.6226   3.3566 297.9205
   1776.0000  4.1211 21.2847 -0.1675 19.8074 118.5047   3.2055 311.9638
   1776.1000  4.0084 21.4505  0.2237 19.7654 116.7126   3.0696 325.7753
   1776.2000  3.8047 21.7762 -0.1407 20.9391 115.3425   2.8251 353.9698
   1776.3000  3.7382 21.8651 -0.0113 22.0034 114.4158   2.7632 361.8992
   1776.4000  3.6925 21.9027  0.0449 23.1474 114.0284   2.7376 365.2834
   1776.5000  3.6585 21.7875  0.0262 24.7663 114.4413   2.8171 354.9750
   1776.6000  3.6652 21.6674 -0.0336 24.8916 115.1207   2.9036 344.4001
   1776.7000  3.6758 21.5177 -0.0259 24.4781 114.7201   3.0168 331.4771
   1776.8000  3.6581 21.2306  0.0391 22.4205 112.1225   3.2516 307.5409
   1776.9000  3.6155 21.1182 -0.0415 21.1470 108.4100   3.3503 298.4807
   1777.0000  3.5561 21.0466 -0.0244 19.9820 106.2403   3.4152 292.8086
   1777.1000  3.4989 20.9963  0.0095 19.0770 107.3090   3.4618 288.8671
   1777.2000  3.4799 21.0175  0.0113 18.2603 111.0398   3.4421 290.5203
   1777.3000  3.5306 21.0826 -0.0162 18.2723 116.1385   3.3824 295.6481
   1777.4000  3.5980 21.1949  0.0198 18.4427 121.3984   3.2825 304.6458
   1777.5000  3.7004 21.2356 -0.0308 18.9536 125.9460   3.2473 307.9482
   1777.6000  3.7327 21.2382 -0.0293 19.2594 130.1511   3.2451 308.1569
   1777.7000  3.7657 21.1988  0.0522 19.6639 134.4903   3.2791 304.9617
   1777.8000  3.8276 20.9380 -0.0626 21.1123 138.6826   3.5169 284.3413
   1777.9000  3.8307 20.7803  0.0040 22.2856 141.5779   3.6717 272.3534
   1778.0000  3.8010 20.6246  0.0705 23.7670 142.6297   3.8332 260.8786
   1778.1000  3.6555 20.3624 -0.0174 27.3567 143.0774   4.1260 242.3655
   1778.2000  3.5661 20.2947 -0.0461 29.2164 144.2122   4.2061 237.7499
   1778.3000  3.4899 20.2848  0.0546 30.9290 146.0193   4.2180 237.0792
   1778.4000  3.4358 20.3634 -0.0369 33.4152 146.9795   4.1249 242.4301
   1778.5000  3.4685 20.4642 -0.0531 34.0231 145.2148   4.0091 249.4325
   1778.6000  3.5307 20.5802  0.0903 34.1679 140.9407   3.8809 257.6722
   1778.7000  3.6688 20.7233 -0.0357 33.1922 136.0495   3.7298 268.1109
   1778.8000  3.7149 20.7562 -0.0208 32.2030 132.5847   3.6961 270.5555
   1778.9000  3.7429 20.7822  0.0299 30.9868 131.3601   3.6698 272.4944
   1779.0000  3.7631 20.6985 -0.0259 29.6210 132.2202   3.7555 266.2761
   1779.1000  3.8312 20.6046 -0.0049 26.6835 134.7106   3.8546 259.4303
   1779.2000  3.8910 20.5439  0.0195 25.1975 138.4500   3.9205 255.0695
   1779.3000  3.9584 20.4728 -0.0061 23.7433 142.9543   3.9995 250.0313
   1779.4000  4.0480 20.2029  0.0027 21.0719 147.7809   4.3177 231.6048
   1779.5000  4.0529 20.0115 -0.0354 19.9521 152.6449   4.5623 219.1877
   1779.6000  4.0426 19.8297  0.0027 19.0555 156.8230   4.8102 207.8916
   1779.7000  4.0531 19.4645 -0.0391 18.1282 160.0004   5.3577 186.6473
   1779.8000  4.0999 19.3044 -0.0504 18.1253 162.6319   5.6203 177.9265
   1779.9000  4.1817 19.2041 -0.1099 18.3746 165.0863   5.7923 172.6430
   1780.0000  4.4438 19.1498  0.0992 19.2061 166.1526   5.8879 169.8398
   1780.1000  4.5975 19.1893  0.1837 19.5426 163.6015   5.8181 171.8774
   1780.2000  4.7323 19.2745 -0.3860 19.6978 156.5169   5.6709 176.3389
   1780.3000  4.8641 19.6124  0.1080 19.4250 146.7330   5.1276 195.0230
   1780.4000  4.8495 19.8107  0.0726 19.1353 137.5541   4.8370 206.7397
   1780.5000  4.7810 20.0389 -0.0690 18.9021 131.7900   4.5263 220.9310
   1780.6000  4.5090 20.4027  0.0311 19.0463 130.9922   4.0793 245.1401
   1780.7000  4.3566 20.5531  0.0388 19.5160 134.1175   3.9104 255.7283
   1780.8000  4.2374 20.6521  0.0092 20.1954 138.3781   3.8041 262.8743
   1780.9000  4.1611 20.7499 -0.0150 20.9635 141.0464   3.7026 270.0805
   1781.0000  4.0704 20.8562  0.0558 22.1218 140.9862   3.5961 278.0790
   1781.1000  4.0286 20.8921 -0.0226 22.2262 138.1969   3.5611 280.8121
   1781.2000  3.9952 20.9242 -0.0046 21.9227 133.9673   3.5301 283.2781
   1781.3000  3.9944 20.9713 -0.0034 20.3504 129.7215   3.4853 286.9193
   1781.4000  4.0342 20.9576  0.0232 19.3962 127.0149   3.4983 285.8531
   1781.5000  4.1012 20.9394 -0.0427 18.5877 126.7949   3.5156 284.4465
   1781.6000  4.3191 20.8919 -0.0082 17.9817 129.3305   3.5613 280.7963
   1781.7000  4.4726 20.8546 -0.0009 18.2974 133.4650   3.5977 277.9554
   1781.8000  4.6503 20.8212 -0.0705 18.9884 137.5340   3.6307 275.4290
   1781.9000  4.8257 20.7694  0.0101 19.9756 139.8373   3.6827 271.5399
   1782.0000  4.9730 20.7623 -0.0934 22.4920 139.3207   3.6899 271.0101
   1782.1000  4.8843 20.7647  0.0040 23.8700 136.9246   3.6875 271.1864
