~Version Information
 VERS.                  2.0:   CWLS log ASCII Standard -VERSION 2.0
 WRAP.                   NO:   One line per depth step
~Well Information Block
#MNEM.UNIT     VALUE/NAME     DESCRIPTION
#---------     -----------    ---------------------------
 STRT.M              1491.0000: START DEPTH
 STOP.M              2343.0000: STOP DEPTH
 STEP.M                 0.1000: STEP DEPTH
 NULL.                 -999.25: NULL VALUE
 LOC .        X  4.914.974,61:  LOCATION
 FL3 .               Z  548.65:  LOCATIONLINE3
 FL2 .         Y  2.533.371,25:  LOCATIONLINE2
 FL1 .        X  4.914.974,641:  LOCATIONLINE1
 DMF .                      KB:  DRILL MEAS FROM
 PDAT.                      GL:  PERMANENT DATUM
 CNTY.                  CHUBUT:  COUNTY NAME
 FLD .                   ZORRO:  FIELD NAME
 WELL.                 PZ-1645:  WELL NAME
 COMP.     PAN AMERICAN ENERGY LLC.:  COMPANY
 DATE.             24-Jan-2024:  DATE
 SVCO.             Halliburton:  SERVICECONAME
 PROV.                  CHUBUT:  PROVINCE
 STAT.                  CHUBUT:  STATE NAME
 CTRY.               ARGENTINA:  COUNTRY NAME
 APIL.                     API:  APILABEL
 HIDE.                        :  WELLNAMEOPERAT
 UWI .                     N/A:  UNIQUE WELL IDENTIFIER
 API .                     N/A:  API NUMBER
 RANG.                     N/A:  RANGE
 TOWN.                     N/A:  TOWNSHIP
 SECT.                     N/A:  SECTION
 SON .                     N/A:  JOB NUMBER
 SRVC.             Halliburton:  SERVICE COMPANY
 LMF .                      KB:  LOG MEASURED FROM
 LATI.deg               0.0000:  LATITUDE
 LONG.deg               0.0000:  LONGITUDE
 EGL .m               548.6500:  GROUND ELEVATION
 BAP .m                 0.0000:  GL ELEV ONSHORE
 GVFD.g                 1.0000:  GRAVITY FIELD
 EKB .m               553.2500:  KB ELEVATION
 EDF .m               553.2500:  DF ELEVATION
~Curve Information Block
#MNEM.UNIT                 API CODE     Curve Description
#---------               -----------    ---------------------------
 DEPT.M                 00 000 000 000:  Depth
 AMP .mV                00 000 000 000:  Pipe Amplitude
 SGFF.cu                00 000 000 000:  Far Formation Sigma
 CCL .mV                00 000 000 000:  Collar Locator
 GR  .api               00 000 000 000:  Gamma API
 NDSN.cps               00 000 000 000:  DSN Near Counts
 RT90_HAT.ohmm          00 000 000 000:  Emulated 90 in Resistivity
 CT90_HAT.mmo/m          00 000 000 000:  Emulated 90 in Conductivity 
#Other Information
#
#WARRANTY: Halliburton will use its best efforts to furnish customers with 
#accurate information and interpretations that are part of, and incident to, the services 
#provided.  However, Halliburton cannot and does not warrant the accuracy 
#or correctness of such information and interpretations.  Under no circumstances should any 
#such information or interpretation be relied upon as the sole basis for any drilling, 
#completion, production, or financial decision or any procedure involving any risk to the 
#safety of any drilling venture, drilling rig or its crew or any other third party.  The 
#Customer has full responsibility for all drilling, completion and production operation.  
#Halliburton makes no representations or warranties, either expressed or 
#implied, including, but not limited to, the implied warranties of merchantability or fitness 
#for a particular purpose, with respect to the services rendered.  In no event will 
#Halliburton be liable for failure to obtain any particular results or for 
#any damages, including, but not limited to, indirect, special or consequential damages, 
#resulting from the use of any information or interpretation provided by Halliburton.
#
~A   DEPT      AMP    SGFF     CCL     GR      NDSN   RT90_HAT CT90_HAT 
# ...
   2275.0000 12.0819 24.9779  0.1050 32.7647 143.1959   1.4886 671.7722
   2275.1000 12.2643 24.8603 -0.0128 32.5371 149.4251   1.5148 660.1532
   2275.2000 12.4615 24.7396 -0.0534 32.3440 156.2116   1.5428 648.1722
   2275.3000 12.7498 24.6392  0.0070 31.9766 162.7535   1.5672 638.0807
   2275.4000 12.8244 24.4404  0.1016 31.7179 169.2627   1.6182 617.9706
   2275.5000 12.8725 24.3490 -0.0372 31.3513 175.5919   1.6429 608.6797
   2275.6000 12.9538 24.2468 -0.0836 30.2237 181.5192   1.6716 598.2292
   2275.7000 12.9993 24.1393  0.0705 29.4901 186.6077   1.7030 587.1991
   2275.8000 13.0442 24.1754 -0.0119 28.7029 190.2080   1.6923 590.9118
   2275.9000 13.0823 24.2065 -0.1025 27.9206 192.3945   1.6832 594.1064
   2276.0000 13.1277 24.2267  0.1477 26.5821 193.3497   1.6774 596.1607
   2276.1000 13.1322 24.1823 -0.0803 26.0942 193.6272   1.6903 591.6110
   2276.2000 13.1140 24.1322  0.0513 25.7546 193.7147   1.7051 586.4758
   2276.3000 12.9743 23.9978  0.0821 25.6106 194.7788   1.7463 572.6393
   2276.4000 12.8588 23.5147 -0.0854 25.8692 197.6564   1.9124 522.9031
   2276.5000 12.7314 23.2210  0.0766 26.3877 201.9652   2.0289 492.8779
   2276.6000 12.5159 22.9293  0.0662 28.1856 206.8595   2.1577 463.4565
   2276.7000 12.4685 22.3036 -0.1538 29.3591 211.4832   2.4851 402.3983
   2276.8000 12.4808 22.0730 -0.0726 30.5850 215.0252   2.6258 380.8363
   2276.9000 12.6439 21.8957  0.1483 32.6916 216.3336   2.7423 364.6574
   2277.0000 12.7407 21.7240  0.1501 33.3298 215.2538   2.8624 349.3572
   2277.1000 12.8122 21.7878 -0.0681 33.5622 212.9773   2.8169 355.0002
   2277.2000 12.8391 21.9479 -0.0262 32.6561 210.1927   2.7072 369.3853
   2277.3000 12.7977 22.4459 -0.0967 31.5754 206.8529   2.4040 415.9734
   2277.4000 12.7274 22.7017  0.0903 30.2093 203.2082   2.2683 440.8588
   2277.5000 12.5290 22.9136 -0.0174 27.2353 199.9584   2.1650 461.8938
   2277.6000 12.4317 23.0145  0.0311 25.9243 197.8673   2.1186 472.0099
   2277.7000 12.3687 22.7627  0.0507 24.8621 197.4613   2.2377 446.8874
   2277.8000 12.3603 22.3618 -0.1056 24.0768 198.8883   2.4514 407.9301
   2277.9000 12.4861 21.8002  0.0671 23.1983 202.2093   2.8082 356.1000
   2278.0000 12.5614 20.4839 -0.0861 22.9772 207.8053   3.9870 250.8152
   2278.1000 12.6014 19.8217  0.0507 22.8167 215.3730   4.8215 207.4043
   2278.2000 12.5478 19.2096 -0.0580 22.5194 224.3019   5.7827 172.9296
   2278.3000 12.4840 18.2940 -0.0436 22.3336 233.5636   7.6516 130.6916
   2278.4000 12.4244 18.0130  0.1486 22.0982 242.1805   8.3503 119.7562
   2278.5000 12.3897 17.8717 -0.0696 21.3728 249.4340   8.7271 114.5856
   2278.6000 12.4403 17.9779 -0.2017 20.8302 254.0325   8.4423 118.4511
   2278.7000 12.5338 18.2445  0.0812 20.1448 256.0027   7.7700 128.7001
   2278.8000 12.7421 18.6249  0.0842 18.3987 255.6947   6.9087 144.7450
   2278.9000 12.8058 19.6152 -0.3522 17.4327 252.8776   5.1234 195.1829
   2279.0000 12.8431 20.1735  0.1447 16.5117 247.5905   4.3543 229.6580
   2279.1000 12.8749 20.6816 -0.0519 15.7396 240.8672   3.7731 265.0341
   2279.2000 12.9580 21.0949 -0.0159 15.0470 234.1348   3.3712 296.6303
   2279.3000 12.9883 21.6057  0.0241 15.2623 228.4543   2.9496 339.0290
   2279.4000 12.9951 21.7696 -0.0107 15.8587 223.7061   2.8298 353.3819
   2279.5000 12.9719 21.9319  0.0119 17.8697 219.0661   2.7179 367.9311
   2279.6000 12.9837 22.4385  0.1254 19.0172 213.0768   2.4081 415.2652
   2279.7000 13.0294 22.8425 -0.2515 20.0727 204.0439   2.1988 454.7935
   2279.8000 13.1672 23.3525  0.1242 21.5537 192.8714   1.9751 506.3035
   2279.9000 13.2033 24.4295  0.0009 21.9369 181.6648   1.6211 616.8651
   2280.0000 13.1978 24.9777  0.0073 22.1395 172.7712   1.4887 671.7270
   2280.1000 13.1543 25.4760 -0.2325 22.3443 166.6793   1.3898 719.5280
   2280.2000 13.1806 26.1537  0.0525 22.5074 161.8246   1.2821 779.9704
   2280.3000 13.2491 26.2367  0.1349 22.7613 157.0985   1.2708 786.9059
   2280.4000 13.3385 26.2037 -0.3476 23.0726 153.3152   1.2752 784.1907
   2280.5000 13.5172 25.5522  0.1425 23.4216 153.2256   1.3763 726.5858
   2280.6000 13.6207 24.8925 -0.0626 23.1527 159.0097   1.5075 663.3499
   2280.7000 13.7506 23.8829  0.0674 22.4115 170.0766   1.7831 560.8210
   2280.8000 14.0356 22.6830 -0.0650 19.4349 186.4979   2.2778 439.0201
   2280.9000 14.1316 19.8497  0.0253 17.4064 207.8540   4.7821 209.1131
   2281.0000 14.1670 18.4212  0.0278 15.2766 232.1908   7.3563 135.9379
   2281.1000 14.0584 17.1672 -0.0369 11.5346 255.8353  10.8906  91.8223
   2281.2000 13.9448 15.4699 -0.0235 10.2133 273.6485  18.6343  53.6645
   2281.3000 13.8213 14.8794 -0.0110  9.3476 283.9991  22.4414  44.5605
   2281.4000 13.6292 14.4351 -0.0275  8.9997 288.5420  25.7867  38.7797
   2281.5000 13.5878 14.0259 -0.0424  9.5236 287.9637  29.2796  34.1535
   2281.6000 13.5864 14.0392  0.0153 10.5445 283.2685  29.1594  34.2943
   2281.7000 13.6570 14.1728 -0.0262 14.1951 276.0968  27.9776  35.7429
   2281.8000 13.6938 14.8480  0.0244 16.7840 268.4241  22.6635  44.1238
   2281.9000 13.7165 15.4224 -0.0641 19.7261 260.6169  18.9159  52.8656
   2282.0000 13.7359 16.1525  0.0876 25.6962 249.7326  15.0151  66.5996
   2282.1000 13.7452 18.1362 -0.0369 28.1326 233.1374   8.0359 124.4416
   2282.2000 13.7527 19.4394 -0.0320 29.8495 211.8429   5.3979 185.2572
   2282.3000 13.7521 20.9815  0.0345 30.6989 188.6016   3.4757 287.7118
   2282.4000 13.7220 22.4764  0.0113 29.8852 168.1426   2.3871 418.9184
   2282.5000 13.7033 24.8306 -0.0775 28.5748 152.9590   1.5216 657.2029
   2282.6000 13.6885 25.5015  0.0232 27.0193 144.1983   1.3853 721.8653
   2282.7000 13.6527 25.8239 -0.0320 24.2067 140.8543   1.3311 751.2584
   2282.8000 13.6138 25.6725 -0.0226 23.2929 140.2103   1.3557 737.6263
   2282.9000 13.5531 25.4986  0.0073 22.7864 141.1467   1.3858 721.6049
   2283.0000 13.3821 25.3476 -0.0507 22.8038 143.4733   1.4135 707.4637
   2283.1000 13.2960 25.2407  0.1086 23.1555 147.2826   1.4342 697.2528
   2283.2000 13.2315 25.3453 -0.1025 23.6245 151.4718   1.4140 707.2136
   2283.3000 13.2062 25.5541  0.0790 24.7254 154.1742   1.3760 726.7441
   2283.4000 13.2398 26.0052 -0.0726 25.3224 153.4829   1.3034 767.2242
   2283.5000 13.2873 26.2118  0.0037 25.9560 148.9647   1.2741 784.8678
   2283.6000 13.3723 26.3675  0.0305 27.3821 142.2181   1.2535 797.7662
   2283.7000 13.3970 26.3868  0.0711 28.1770 136.5192   1.2511 799.2966
   2283.8000 13.4102 26.2420 -0.0070 28.9886 134.2047   1.2701 787.3396
   2283.9000 13.4159 26.0589 -0.0793 30.3669 135.3593   1.2956 771.8431
   2284.0000 13.4186 25.8311 -0.0763 30.7302 138.1097   1.3300 751.8797
   2284.1000 13.4354 25.2651 -0.1077 30.7534 141.4899   1.4294 699.5942
   2284.2000 13.4817 25.0064 -0.1288 30.3872 146.0250   1.4824 674.5818
   2284.3000 13.6896 24.7678  0.0879 28.5848 152.3961   1.5362 650.9569
   2284.4000 13.8264 24.1671  0.1056 27.3216 161.8396   1.6947 590.0750
   2284.5000 13.9517 23.8166 -0.0989 25.9844 173.8406   1.8051 553.9860
   2284.6000 14.1151 23.4168  0.0571 23.6368 186.7447   1.9498 512.8731
   2284.7000 14.1667 22.5105  0.0381 22.8858 197.8975   2.3685 422.2082
   2284.8000 14.2181 22.0050 -0.0497 22.5569 205.6829   2.6696 374.5880
   2284.9000 14.2790 21.5513  0.0504 22.7090 209.9469   2.9909 334.3475
   2285.0000 14.4499 20.6990 -0.1642 24.3739 211.5646   3.7549 266.3187
   2285.1000 14.5621 20.3555 -0.0525 25.6689 212.4445   4.1341 241.8906
   2285.2000 14.6773 20.0724  0.1547 27.0405 214.4362   4.4827 223.0798
   2285.3000 14.8015 19.7920 -0.0778 29.2910 217.7173   4.8636 205.6090
   2285.4000 14.7727 19.7513  0.0607 29.9257 221.6139   4.9220 203.1694
   2285.5000 14.7018 19.7534 -0.0818 30.1822 225.4737   4.9190 203.2934
   2285.6000 14.5861 19.8147 -0.1117 29.7573 228.8793   4.8313 206.9836
   2285.7000 14.5866 20.1308  0.1044 29.2510 230.7060   4.4080 226.8603
   2285.8000 14.6199 20.3703 -0.0381 28.6719 229.9541   4.1168 242.9071
   2285.9000 14.7067 20.6508 -0.1248 27.5922 226.9433   3.8054 262.7845
   2286.0000 14.7361 21.4047  0.1016 27.1892 221.6122   3.1064 321.9160
   2286.1000 14.7604 21.8495 -0.1553 26.9156 213.0318   2.7739 360.5033
