~Version Information
 VERS.                  2.0:   CWLS log ASCII Standard -VERSION 2.0
 WRAP.                   NO:   One line per depth step
~Well Information Block
#MNEM.UNIT     VALUE/NAME     DESCRIPTION
#---------     -----------    ---------------------------
 STRT.M              1491.0000: START DEPTH
 STOP.M              2343.0000: STOP DEPTH
 STEP.M                 0.1000: STEP DEPTH
 NULL.                 -999.25: NULL VALUE
 LOC .        X  4.914.974,61:  LOCATION
 FL3 .               Z  548.65:  LOCATIONLINE3
 FL2 .         Y  2.533.371,25:  LOCATIONLINE2
 FL1 .        X  4.914.974,641:  LOCATIONLINE1
 DMF .                      KB:  DRILL MEAS FROM
 PDAT.                      GL:  PERMANENT DATUM
 CNTY.                  CHUBUT:  COUNTY NAME
 FLD .                   ZORRO:  FIELD NAME
 WELL.                 PZ-1645:  WELL NAME
 COMP.     PAN AMERICAN ENERGY LLC.:  COMPANY
 DATE.             24-Jan-2024:  DATE
 SVCO.             Halliburton:  SERVICECONAME
 PROV.                  CHUBUT:  PROVINCE
 STAT.                  CHUBUT:  STATE NAME
 CTRY.               ARGENTINA:  COUNTRY NAME
 APIL.                     API:  APILABEL
 HIDE.                        :  WELLNAMEOPERAT
 UWI .                     N/A:  UNIQUE WELL IDENTIFIER
 API .                     N/A:  API NUMBER
 RANG.                     N/A:  RANGE
 TOWN.                     N/A:  TOWNSHIP
 SECT.                     N/A:  SECTION
 SON .                     N/A:  JOB NUMBER
 SRVC.             Halliburton:  SERVICE COMPANY
 LMF .                      KB:  LOG MEASURED FROM
 LATI.deg               0.0000:  LATITUDE
 LONG.deg               0.0000:  LONGITUDE
 EGL .m               548.6500:  GROUND ELEVATION
 BAP .m                 0.0000:  GL ELEV ONSHORE
 GVFD.g                 1.0000:  GRAVITY FIELD
 EKB .m               553.2500:  KB ELEVATION
 EDF .m               553.2500:  DF ELEVATION
~Curve Information Block
#MNEM.UNIT                 API CODE     Curve Description
#---------               -----------    ---------------------------
 DEPT.M                 00 000 000 000:  Depth
 AMP .mV                00 000 000 000:  Pipe Amplitude
 SGFF.cu                00 000 000 000:  Far Formation Sigma
 CCL .mV                00 000 000 000:  Collar Locator
 GR  .api               00 000 000 000:  Gamma API
 NDSN.cps               00 000 000 000:  DSN Near Counts
 RT90_HAT.ohmm          00 000 000 000:  Emulated 90 in Resistivity
 CT90_HAT.mmo/m          00 000 000 000:  Emulated 90 in Conductivity 
#Other Information
#
#WARRANTY: Halliburton will use its best efforts to furnish customers with 
#accurate information and interpretations that are part of, and incident to, the services 
#provided.  However, Halliburton cannot and does not warrant the accuracy 
#or correctness of such information and interpretations.  Under no circumstances should any 
#such information or interpretation be relied upon as the sole basis for any drilling, 
#completion, production, or financial decision or any procedure involving any risk to the 
#safety of any drilling venture, drilling rig or its crew or any other third party.  The 
#Customer has full responsibility for all drilling, completion and production operation.  
#Halliburton makes no representations or warranties, either expressed or 
#implied, including, but not limited to, the implied warranties of merchantability or fitness 
#for a particular purpose, with respect to the services rendered.  In no event will 
#Halliburton be liable for failure to obtain any particular results or for 
#any damages, including, but not limited to, indirect, special or consequential damages, 
#resulting from the use of any information or interpretation provided by Halliburton.
#
~A   DEPT      AMP    SGFF     CCL     GR      NDSN   RT90_HAT CT90_HAT 
# ...
   1715.0000  4.0792 20.9860 -0.0787 20.2983 144.0413   3.4715 288.0599
   1715.1000  4.1163 21.1716 -0.0058 21.0653 142.1695   3.3029 302.7642
   1715.2000  4.1074 21.3108  0.1379 21.8306 140.5029   3.1836 314.1098
   1715.3000  3.9512 21.4502 -0.1315 22.8095 139.5053   3.0699 325.7435
   1715.4000  3.8835 21.5888 -0.0357 22.8411 138.3886   2.9623 337.5755
   1715.5000  3.8861 21.8858  0.0858 22.5509 136.2434   2.7490 363.7686
   1715.6000  3.9702 22.0248 -0.0674 22.0042 132.1732   2.6568 376.3926
   1715.7000  4.2509 22.1005 -0.1016 20.5886 126.5729   2.6084 383.3768
   1715.8000  4.3552 22.1935 -0.0082 19.9522 121.3854   2.5508 392.0338
   1715.9000  4.3955 22.2294 -0.0122 19.4764 118.7472   2.5291 395.3976
   1716.0000  4.2576 22.2453 -0.0259 19.0891 119.0364   2.5196 396.8884
   1716.1000  4.0872 22.1796  0.0650 19.1111 120.5156   2.5593 390.7318
   1716.2000  3.8693 22.1543 -0.1318 19.1854 122.2080   2.5749 388.3646
   1716.3000  3.4284 22.1057  0.0525 19.1756 124.8319   2.6052 383.8477
   1716.4000  3.2878 21.9322 -0.0226 18.9657 128.7639   2.7177 367.9582
   1716.5000  3.2355 21.7901 -0.0085 18.5759 132.6903   2.8153 355.2019
   1716.6000  3.3476 21.6234  0.0470 17.3312 135.3193   2.9363 340.5647
   1716.7000  3.4419 21.1131 -0.0269 16.5896 137.4326   3.3549 298.0715
   1716.8000  3.5184 20.7543 -0.1218 15.8820 141.2923   3.6981 270.4091
   1716.9000  3.6249 20.3239  0.1154 14.9121 147.2593   4.1713 239.7334
   1717.0000  3.7130 19.4501 -0.3973 14.7659 153.8506   5.3807 185.8494
   1717.1000  3.8612 18.9743 -0.0946 14.8580 159.6456   6.2092 161.0513
   1717.2000  4.0668 18.5242  0.2298 15.1471 164.6096   7.1261 140.3292
   1717.3000  4.5236 17.7809  0.0232 15.9895 170.1585   8.9786 111.3759
   1717.4000  4.6990 17.5132 -0.0507 16.3486 176.8831   9.7656 102.4003
   1717.5000  4.8002 17.3033  0.0510 16.5479 185.6754  10.4329  95.8506
   1717.6000  4.7248 17.1511  0.0662 16.2436 196.2643  10.9461  91.3567
   1717.7000  4.5525 16.9153 -0.0656 15.6976 207.1868  11.7929  84.7968
   1717.8000  4.3134 16.8128 -0.0403 14.9013 215.5520  12.1815  82.0917
   1717.9000  3.7522 16.7208  0.0177 12.7164 218.2557  12.5415  79.7353
   1718.0000  3.5002 16.5417 -0.0858 11.4438 214.4694  13.2733  75.3392
   1718.1000  3.3131 16.4819 -0.0125 10.1549 206.4429  13.5272  73.9251
   1718.2000  3.2132 16.4483 -0.0031  8.9430 197.6281  13.6719  73.1427
   1718.3000  3.2690 16.4792 -0.0284  7.1493 190.3103  13.5387  73.8623
   1718.4000  3.3704 16.5402 -0.0494  6.7376 184.3165  13.2796  75.3035
   1718.5000  3.4643 16.6188  0.0308  6.7159 178.5684  12.9531  77.2016
   1718.6000  3.5149 16.7064 -0.0516  7.7771 172.6815  12.5988  79.3726
   1718.7000  3.4838 16.7290  0.0018  8.7159 166.2586  12.5090  79.9424
   1718.8000  3.4607 16.7225 -0.0024  9.7793 160.2071  12.5347  79.7785
   1718.9000  3.5498 16.6217 -0.0519 11.8017 156.1006  12.9412  77.2726
   1719.0000  3.6626 16.5423  0.0571 12.5795 155.0449  13.2708  75.3534
   1719.1000  3.7943 16.4829 -0.0223 13.1448 157.1563  13.5229  73.9486
   1719.2000  4.0295 16.4591 -0.0034 13.7327 161.4067  13.6252  73.3934
   1719.3000  4.1142 16.4605 -0.0043 13.8873 165.9133  13.6192  73.4258
   1719.4000  4.1783 16.5101  0.0174 14.0574 168.7316  13.4069  74.5885
   1719.5000  4.2257 16.6016 -0.0272 14.6720 168.9419  13.0239  76.7819
   1719.6000  4.1789 16.8245 -0.0208 15.1464 166.4104  12.1365  82.3961
   1719.7000  4.0728 16.9302  0.0027 15.6993 161.6232  11.7374  85.1977
   1719.8000  3.7571 17.0573 -0.0259 16.8715 154.9487  11.2752  88.6902
   1719.9000  3.6181 17.3520 -0.0092 17.4383 146.4050  10.2740  97.3331
   1720.0000  3.5370 17.5604  0.0665 17.9858 136.6888   9.6218 103.9307
   1720.1000  3.5306 17.8256 -0.0162 18.5216 126.0573   8.8538 112.9459
   1720.2000  3.7079 18.6601 -0.0458 19.5316 115.7699   6.8345 146.3165
   1720.3000  3.8323 19.2390 -0.0073 19.9527 106.8116   5.7318 174.4653
   1720.4000  3.9332 19.9284  0.0348 20.2743  99.8207   4.6737 213.9632
   1720.5000  4.0000 21.4342 -0.0595 20.6026  95.9848   3.0827 324.3910
   1720.6000  3.9843 22.1336 -0.0006 20.6737  96.0681   2.5877 386.4436
   1720.7000  3.9669 22.7225  0.0510 20.7544  99.6847   2.2578 442.9090
   1720.8000  3.9863 23.1385 -0.0809 21.0956 105.3263   2.0639 484.5196
   1720.9000  4.0278 23.6411  0.0348 21.3563 111.2744   1.8660 535.9056
   1721.0000  4.0853 23.7407 -0.0302 21.6321 116.6287   1.8310 546.1497
   1721.1000  4.2199 23.7486  0.0235 22.0674 120.1061   1.8282 546.9861
   1721.2000  4.2785 23.6375  0.0116 22.1889 120.0431   1.8673 535.5326
   1721.3000  4.3232 23.5729 -0.0299 22.2584 116.4522   1.8907 528.9047
   1721.4000  4.3783 23.5003  0.0296 22.3660 111.1394   1.9178 521.4308
   1721.5000  4.3935 23.3621  0.0845 22.4582 105.8856   1.9713 507.2794
   1721.6000  4.3960 23.3164  0.0122 22.5900 101.2419   1.9896 502.6136
   1721.7000  4.3431 23.2796  0.0360 22.9040  97.4384   2.0046 498.8526
   1721.8000  4.2968 23.1408  0.0394 23.0136  94.4225   2.0629 484.7545
   1721.9000  4.2564 23.0283 -0.0049 23.0300  92.2201   2.1124 473.3952
   1722.0000  4.2387 22.9109  0.0159 22.9121  90.4068   2.1663 461.6166
   1722.1000  4.3099 22.6437 -0.0797 22.2219  89.3094   2.2979 435.1800
   1722.2000  4.3940 22.4946 -0.0070 21.7089  90.3387   2.3772 420.6630
   1722.3000  4.4883 22.3280 -0.0342 21.1826  94.4209   2.4709 404.7108
   1722.4000  4.6078 22.2015 -0.0043 20.4689 101.3175   2.5460 392.7730
   1722.5000  4.6019 21.9692 -0.0775 20.4265 109.9388   2.6931 371.3193
   1722.6000  4.5543 21.8917  0.0674 20.6138 118.5289   2.7450 364.2987
   1722.7000  4.4074 21.8343  0.0504 21.4402 125.3462   2.7844 359.1438
   1722.8000  4.3544 21.7797  0.0024 21.9066 129.1347   2.8226 354.2833
   1722.9000  4.3364 21.7730 -0.0940 22.3183 129.1854   2.8274 353.6818
   1723.0000  4.3513 21.7979  0.1373 22.6607 125.7193   2.8098 355.8972
   1723.1000  4.4036 21.8082 -0.0363 23.2853 119.6064   2.8026 356.8116
   1723.2000  4.4029 21.8261  0.0351 23.6704 112.1658   2.7901 358.4101
   1723.3000  4.3790 21.9041 -0.1343 24.1373 104.9959   2.7366 365.4170
   1723.4000  4.2972 22.1645 -0.0558 25.1793  99.1283   2.5686 389.3171
   1723.5000  4.2472 22.3529 -0.0134 25.6192  94.6798   2.4565 407.0833
   1723.6000  4.1879 22.5720  0.0348 25.9116  91.7316   2.3355 428.1738
   1723.7000  4.0640 23.0256 -0.0534 25.9065  90.7376   2.1136 473.1264
   1723.8000  4.0252 23.2259  0.0931 25.6229  92.5372   2.0268 493.3886
   1723.9000  4.0118 23.3856 -0.0815 25.2131  96.7900   1.9620 509.6840
   1724.0000  4.0383 23.5064  0.1236 24.3286 101.6985   1.9155 522.0569
   1724.1000  4.0589 23.6818 -0.1141 24.0268 104.9915   1.8515 540.1026
   1724.2000  4.0754 23.7562  0.0714 23.9157 105.6510   1.8256 547.7651
   1724.3000  4.1122 23.7971 -0.0586 24.3634 103.5377   1.8117 551.9678
   1724.4000  4.1611 23.8437  0.0983 24.8762  99.5879   1.7960 556.7928
   1724.5000  4.2486 23.8427 -0.0635 25.5027  95.5316   1.7964 556.6689
   1724.6000  4.5030 23.8307  0.0253 26.8050  93.3815   1.8004 555.4321
   1724.7000  4.6141 23.7579  0.0266 27.3525  93.8690   1.8250 547.9452
   1724.8000  4.6773 23.6953 -0.0482 27.7574  95.9669   1.8468 541.4772
   1724.9000  4.6836 23.6528  0.0031 27.9669  97.7719   1.8618 537.1146
   1725.0000  4.5694 23.5751 -0.0409 27.5766  98.4693   1.8899 529.1285
   1725.1000  4.4846 23.5201  0.0415 26.8934  99.4343   1.9103 523.4780
   1725.2000  4.4005 23.4515 -0.0024 25.8832 102.3129   1.9364 516.4222
   1725.3000  4.2871 23.3836 -0.0171 23.1951 107.5814   1.9628 509.4763
   1725.4000  4.2908 23.3706  0.0061 21.8013 113.6813   1.9679 508.1559
   1725.5000  4.3503 23.3426 -0.0351 20.5984 118.9039   1.9791 505.2802
   1725.6000  4.5865 23.2893 -0.0208 19.2536 122.4743   2.0006 499.8500
   1725.7000  4.7039 23.2457  0.0537 19.1710 124.0013   2.0186 495.3929
   1725.8000  4.7869 23.1550 -0.0275 19.3846 123.7982   2.0568 486.1922
   1725.9000  4.8348 22.9903  0.0189 20.1082 122.5947   2.1296 469.5717
   1726.0000  4.8134 22.5378  0.0742 20.3322 121.7266   2.3538 424.8449
   1726.1000  4.7736 22.3033  0.0296 20.3551 122.1691   2.4853 402.3659
