~Version Information
 VERS.                  2.0:   CWLS log ASCII Standard -VERSION 2.0
 WRAP.                   NO:   One line per depth step
~Well Information Block
#MNEM.UNIT     VALUE/NAME     DESCRIPTION
#---------     -----------    ---------------------------
 STRT.M              1491.0000: START DEPTH
 STOP.M              2343.0000: STOP DEPTH
 STEP.M                 0.1000: STEP DEPTH
 NULL.                 -999.25: NULL VALUE
 LOC .        X  4.914.974,61:  LOCATION
 FL3 .               Z  548.65:  LOCATIONLINE3
 FL2 .         Y  2.533.371,25:  LOCATIONLINE2
 FL1 .        X  4.914.974,641:  LOCATIONLINE1
 DMF .                      KB:  DRILL MEAS FROM
 PDAT.                      GL:  PERMANENT DATUM
 CNTY.                  CHUBUT:  COUNTY NAME
 FLD .                   ZORRO:  FIELD NAME
 WELL.                 PZ-1645:  WELL NAME
 COMP.     PAN AMERICAN ENERGY LLC.:  COMPANY
 DATE.             24-Jan-2024:  DATE
 SVCO.             Halliburton:  SERVICECONAME
 PROV.                  CHUBUT:  PROVINCE
 STAT.                  CHUBUT:  STATE NAME
 CTRY.               ARGENTINA:  COUNTRY NAME
 APIL.                     API:  APILABEL
 HIDE.                        :  WELLNAMEOPERAT
 UWI .                     N/A:  UNIQUE WELL IDENTIFIER
 API .                     N/A:  API NUMBER
 RANG.                     N/A:  RANGE
 TOWN.                     N/A:  TOWNSHIP
 SECT.                     N/A:  SECTION
 SON .                     N/A:  JOB NUMBER
 SRVC.             Halliburton:  SERVICE COMPANY
 LMF .                      KB:  LOG MEASURED FROM
 LATI.deg               0.0000:  LATITUDE
 LONG.deg               0.0000:  LONGITUDE
 EGL .m               548.6500:  GROUND ELEVATION
 BAP .m                 0.0000:  GL ELEV ONSHORE
 GVFD.g                 1.0000:  GRAVITY FIELD
 EKB .m               553.2500:  KB ELEVATION
 EDF .m               553.2500:  DF ELEVATION
~Curve Information Block
#MNEM.UNIT                 API CODE     Curve Description
#---------               -----------    ---------------------------
 DEPT.M                 00 000 000 000:  Depth
 AMP .mV                00 000 000 000:  Pipe Amplitude
 SGFF.cu                00 000 000 000:  Far Formation Sigma
 CCL .mV                00 000 000 000:  Collar Locator
 GR  .api               00 000 000 000:  Gamma API
 NDSN.cps               00 000 000 000:  DSN Near Counts
 RT90_HAT.ohmm          00 000 000 000:  Emulated 90 in Resistivity
 CT90_HAT.mmo/m          00 000 000 000:  Emulated 90 in Conductivity 
#Other Information
#
#WARRANTY: Halliburton will use its best efforts to furnish customers with 
#accurate information and interpretations that are part of, and incident to, the services 
#provided.  However, Halliburton cannot and does not warrant the accuracy 
#or correctness of such information and interpretations.  Under no circumstances should any 
#such information or interpretation be relied upon as the sole basis for any drilling, 
#completion, production, or financial decision or any procedure involving any risk to the 
#safety of any drilling venture, drilling rig or its crew or any other third party.  The 
#Customer has full responsibility for all drilling, completion and production operation.  
#Halliburton makes no representations or warranties, either expressed or 
#implied, including, but not limited to, the implied warranties of merchantability or fitness 
#for a particular purpose, with respect to the services rendered.  In no event will 
#Halliburton be liable for failure to obtain any particular results or for 
#any damages, including, but not limited to, indirect, special or consequential damages, 
#resulting from the use of any information or interpretation provided by Halliburton.
#
~A   DEPT      AMP    SGFF     CCL     GR      NDSN   RT90_HAT CT90_HAT 
# ...
   2163.0000  3.8359 20.1788  0.0500 20.1358 188.4965   4.3476 230.0120
   2163.1000  3.9592 20.2012  0.0055 19.3406 186.0369   4.3198 231.4922
   2163.2000  4.0967 20.2736 -0.0482 18.9905 185.0012   4.2314 236.3284
   2163.3000  4.2471 20.6026  0.0488 19.8064 184.7833   3.8568 259.2823
   2163.4000  4.2291 20.7901  0.0174 20.9148 184.4266   3.6618 273.0898
   2163.5000  4.1804 20.9347 -0.0488 22.3673 183.3065   3.5201 284.0828
   2163.6000  4.1303 21.1945  0.0647 25.7418 181.8050   3.2829 304.6087
   2163.7000  4.1496 21.2618 -0.0140 27.3567 181.1242   3.2249 310.0871
   2163.8000  4.1784 21.2529 -0.0470 28.7264 182.2094   3.2325 309.3581
   2163.9000  4.1840 21.2075  0.0571 30.2980 184.9249   3.2716 305.6608
   2164.0000  4.1459 21.1471 -0.0006 30.3991 189.5675   3.3245 300.7971
   2164.1000  4.0918 21.0600  0.0122 30.0786 196.5672   3.4029 293.8670
   2164.2000  4.0017 20.8524  0.0354 28.6360 205.7020   3.5999 277.7855
   2164.3000  3.9757 20.7437 -0.1163 27.8197 214.4353   3.7089 269.6217
   2164.4000  3.9483 20.5990  0.0653 27.1300 220.0404   3.8606 259.0271
   2164.5000  3.9084 20.2791  0.0134 26.6545 222.9062   4.2248 236.6976
   2164.6000  3.8158 20.1636 -0.0565 26.4223 224.6458   4.3666 229.0111
   2164.7000  3.7966 20.0616  0.0403 26.6078 225.6027   4.4967 222.3853
   2164.8000  3.8116 19.9702 -0.0143 26.9410 224.4507   4.6173 216.5768
   2164.9000  3.9307 19.8588 -0.0449 27.9525 221.4684   4.7695 209.6656
   2165.0000  4.0085 19.8980  0.0711 28.6206 218.7068   4.7152 212.0801
   2165.1000  4.0755 19.9415 -0.0763 29.3961 217.1860   4.6559 214.7813
   2165.2000  4.1271 20.0617 -0.0180 31.2188 215.7372   4.4966 222.3902
   2165.3000  4.1071 20.1539  0.0159 32.1990 213.2296   4.3788 228.3731
   2165.4000  4.0693 20.2425 -0.0790 33.1513 210.0405   4.2691 234.2414
   2165.5000  4.0033 20.4492  0.0214 34.6716 207.4666   4.0261 248.3793
   2165.6000  3.9907 20.5410 -0.0446 35.1092 206.6718   3.9237 254.8615
   2165.7000  3.9835 20.6009 -0.0726 35.2851 208.1112   3.8586 259.1613
   2165.8000  3.9480 20.6247  0.0598 34.9260 211.6569   3.8331 260.8854
   2165.9000  3.9266 20.6004 -0.0186 34.4903 216.9368   3.8591 259.1278
   2166.0000  3.9230 20.5445 -0.0320 33.9596 222.6729   3.9198 255.1151
   2166.1000  4.0035 20.3844  0.0201 32.7878 226.5183   4.1004 243.8786
   2166.2000  4.0742 20.3535 -0.0314 32.2078 226.6280   4.1364 241.7561
   2166.3000  4.1433 20.3423  0.0406 31.6692 223.3565   4.1496 240.9871
   2166.4000  4.1938 20.3694  0.0363 31.1942 218.8733   4.1179 242.8422
   2166.5000  4.2085 20.5416 -0.0790 30.4638 214.8526   3.9230 254.9070
   2166.6000  4.1839 20.6939  0.0168 30.1667 211.7375   3.7602 265.9433
   2166.7000  4.1545 20.8099 -0.0198 29.8574 209.9419   3.6420 274.5744
   2166.8000  4.0909 20.9345 -0.0592 29.0585 210.2587   3.5203 284.0667
   2166.9000  4.0467 20.9245  0.0912 28.5723 212.4578   3.5298 283.3022
   2167.0000  3.9971 20.8921 -0.0781 28.0853 215.7549   3.5611 280.8121
   2167.1000  3.9535 20.7336  0.0003 27.3014 219.2959   3.7192 268.8750
   2167.2000  4.0006 20.6445  0.0317 26.9990 222.2467   3.8121 262.3226
   2167.3000  4.1126 20.5394 -0.0043 26.6453 223.7950   3.9254 254.7511
   2167.4000  4.5442 20.2439  0.0665 25.2111 223.8571   4.2674 234.3347
   2167.5000  4.8586 19.9741 -0.0732 23.8970 223.3710   4.6120 216.8257
   2167.6000  5.2339 19.5785 -0.0583 22.1637 224.0655   5.1793 193.0763
   2167.7000  6.1745 18.3486  0.0687 17.9948 226.7841   7.5233 132.9204
   2167.8000  6.7613 17.5694 -0.0876 16.0058 232.6388   9.5946 104.2253
   2167.9000  7.4457 16.8258 -0.0232 14.3788 242.0276  12.1315  82.4300
   2168.0000  9.1058 16.1227  0.1215 12.6735 254.7966  15.1575  65.9739
   2168.1000 10.0248 14.9382 -0.1306 12.5542 268.9021  22.0310  45.3906
   2168.2000 10.9274 14.4876  0.0156 12.7432 282.2513  25.3680  39.4197
   2168.3000 11.7394 14.1322  0.1025 13.0458 294.9616  28.3319  35.2959
   2168.4000 12.8315 13.6747 -0.0873 13.3515 306.3889  32.6240  30.6523
   2168.5000 13.0599 13.5614  0.0467 13.2235 315.5632  33.7758  29.6070
   2168.6000 13.1169 13.5101  0.0195 12.9764 320.4115  34.3095  29.1464
   2168.7000 12.9638 13.5571 -0.0116 12.7229 319.2060  33.8202  29.5681
   2168.8000 12.8032 13.6318  0.0308 13.0241 311.7963  33.0558  30.2519
   2168.9000 12.5414 13.7479  0.1160 13.7296 298.9649  31.8991  31.3488
   2169.0000 12.1265 14.1241 -0.6171 14.8206 282.9029  28.4031  35.2074
   2169.1000 10.8344 14.4111 -0.0314 17.6697 267.5267  25.9802  38.4909
   2169.2000 10.0679 14.7714  0.0726 19.0690 255.0573  23.2143  43.0769
   2169.3000  9.3122 15.8002  0.0818 20.2185 245.2098  16.7870  59.5699
   2169.4000  7.9803 16.4857 -0.4407 21.4243 236.9483  13.5109  74.0143
   2169.5000  7.4251 17.2694 -0.0974 21.5042 228.2861  10.5450  94.8317
   2169.6000  6.9374 18.1106 -0.0638 21.3621 219.7739   8.1002 123.4537
   2169.7000  6.1072 19.4149  0.0473 20.9292 213.1368   5.4375 183.9081
   2169.8000  5.7422 19.7750  0.0058 20.8503 210.7190   4.8879 204.5868
   2169.9000  5.4131 19.9474 -0.0507 20.9462 213.0179   4.6479 215.1509
   2170.0000  4.9271 19.8259 -0.0134 21.7358 217.9119   4.8155 207.6628
   2170.1000  4.7971 19.6658 -0.0351 22.4373 222.7064   5.0474 198.1218
   2170.2000  4.7412 19.5071 -0.0049 23.3422 226.0002   5.2902 189.0288
   2170.3000  4.7843 19.2936  0.0266 25.7007 227.8713   5.6385 177.3521
   2170.4000  4.8499 19.2462 -0.0793 27.0655 228.1599   5.7194 174.8435
   2170.5000  4.9326 19.2184 -0.1340 28.4437 226.0050   5.7674 173.3884
   2170.6000  5.1238 19.1969  0.3723 30.7700 221.6537   5.8048 172.2712
   2170.7000  5.2123 19.0853 -0.3284 31.4881 217.6469   6.0037 166.5640
   2170.8000  5.2828 18.8606  0.1312 31.8090 216.4780   6.4278 155.5742
   2170.9000  5.3287 18.1060  0.0995 31.7334 218.7710   8.1118 123.2772
   2171.0000  5.3340 17.5910 -0.0812 30.7644 223.6619   9.5297 104.9351
   2171.1000  5.2964 17.0154 -0.1282 30.1975 230.7420  11.4255  87.5235
   2171.2000  5.2417 16.5235  0.0684 29.8111 239.4422  13.3501  74.9058
   2171.3000  5.1128 15.9668 -0.0150 29.9712 248.5889  15.9247  62.7955
   2171.4000  5.0455 15.9160 -0.0375 30.4775 256.5198  16.1829  61.7936
   2171.5000  4.9796 15.9867  0.0323 31.0985 261.1229  15.8246  63.1927
   2171.6000  4.8803 16.4344 -0.0244 32.0023 261.2051  13.7323  72.8210
   2171.7000  4.8648 16.7616 -0.0409 32.0367 257.3033  12.3805  80.7722
   2171.8000  4.8731 17.0745 -0.0031 31.7496 251.5929  11.2141  89.1735
   2171.9000  4.8942 17.6105 -0.0467 30.4702 246.3869   9.4715 105.5799
   2172.0000  4.8677 17.8306  0.0620 29.6845 241.8776   8.8400 113.1222
   2172.1000  4.8126 18.0304 -0.0201 28.9322 237.0880   8.3051 120.4079
   2172.2000  4.6997 18.3597 -0.0107 27.7903 232.6661   7.4975 133.3778
   2172.3000  4.6811 18.5152  0.0815 27.4722 229.6248   7.1459 139.9404
   2172.4000  4.6911 18.6477 -0.0500 27.3386 228.1189   6.8605 145.7620
   2172.5000  4.7456 18.8995  0.0180 27.5901 227.6653   6.3521 157.4283
   2172.6000  4.7700 18.9449  0.0305 27.9195 227.7455   6.2649 159.6195
   2172.7000  4.7913 18.9723 -0.0812 28.3191 227.5005   6.2130 160.9529
   2172.8000  4.8124 18.9777  0.0037 28.7135 225.7906   6.2028 161.2175
   2172.9000  4.8468 18.9598 -0.0143 29.0920 222.7228   6.2366 160.3438
   2173.0000  4.8496 18.9665 -0.0510 28.8658 219.3400   6.2239 160.6710
   2173.1000  4.8427 19.0120  0.0864 28.2561 216.6239   6.1385 162.9062
   2173.2000  4.8376 19.1408 -0.0586 25.8794 215.4303   5.9039 169.3796
   2173.3000  4.8529 19.1960 -0.0912 24.2806 216.4714   5.8064 172.2238
   2173.4000  4.8717 19.2355  0.0735 22.6083 219.4076   5.7378 174.2828
   2173.5000  4.8516 19.1958 -0.0748 19.7039 222.3349   5.8068 172.2119
   2173.6000  4.7936 19.1277 -0.0021 18.7167 223.3540   5.9273 168.7109
   2173.7000  4.7151 19.0645 -0.0131 18.1207 221.6437   6.0416 165.5191
   2173.8000  4.5851 19.0455 -0.0467 18.0822 217.3691   6.0765 164.5684
   2173.9000  4.5643 19.1181  0.0433 18.5718 211.1106   5.9445 168.2227
   2174.0000  4.5736 19.2527  0.0665 19.3355 204.4916   5.7082 175.1866
   2174.1000  4.6356 19.7727 -0.0900 21.4432 199.6545   4.8912 204.4488
