~Version Information
 VERS.                  2.0:   CWLS log ASCII Standard -VERSION 2.0
 WRAP.                   NO:   One line per depth step
~Well Information Block
#MNEM.UNIT     VALUE/NAME     DESCRIPTION
#---------     -----------    ---------------------------
 STRT.M              1491.0000: START DEPTH
 STOP.M              2343.0000: STOP DEPTH
 STEP.M                 0.1000: STEP DEPTH
 NULL.                 -999.25: NULL VALUE
 LOC .        X  4.914.974,61:  LOCATION
 FL3 .               Z  548.65:  LOCATIONLINE3
 FL2 .         Y  2.533.371,25:  LOCATIONLINE2
 FL1 .        X  4.914.974,641:  LOCATIONLINE1
 DMF .                      KB:  DRILL MEAS FROM
 PDAT.                      GL:  PERMANENT DATUM
 CNTY.                  CHUBUT:  COUNTY NAME
 FLD .                   ZORRO:  FIELD NAME
 WELL.                 PZ-1645:  WELL NAME
 COMP.     PAN AMERICAN ENERGY LLC.:  COMPANY
 DATE.             24-Jan-2024:  DATE
 SVCO.             Halliburton:  SERVICECONAME
 PROV.                  CHUBUT:  PROVINCE
 STAT.                  CHUBUT:  STATE NAME
 CTRY.               ARGENTINA:  COUNTRY NAME
 APIL.                     API:  APILABEL
 HIDE.                        :  WELLNAMEOPERAT
 UWI .                     N/A:  UNIQUE WELL IDENTIFIER
 API .                     N/A:  API NUMBER
 RANG.                     N/A:  RANGE
 TOWN.                     N/A:  TOWNSHIP
 SECT.                     N/A:  SECTION
 SON .                     N/A:  JOB NUMBER
 SRVC.             Halliburton:  SERVICE COMPANY
 LMF .                      KB:  LOG MEASURED FROM
 LATI.deg               0.0000:  LATITUDE
 LONG.deg               0.0000:  LONGITUDE
 EGL .m               548.6500:  GROUND ELEVATION
 BAP .m                 0.0000:  GL ELEV ONSHORE
 GVFD.g                 1.0000:  GRAVITY FIELD
 EKB .m               553.2500:  KB ELEVATION
 EDF .m               553.2500:  DF ELEVATION
~Curve Information Block
#MNEM.UNIT                 API CODE     Curve Description
#---------               -----------    ---------------------------
 DEPT.M                 00 000 000 000:  Depth
 AMP .mV                00 000 000 000:  Pipe Amplitude
 SGFF.cu                00 000 000 000:  Far Formation Sigma
 CCL .mV                00 000 000 000:  Collar Locator
 GR  .api               00 000 000 000:  Gamma API
 NDSN.cps               00 000 000 000:  DSN Near Counts
 RT90_HAT.ohmm          00 000 000 000:  Emulated 90 in Resistivity
 CT90_HAT.mmo/m          00 000 000 000:  Emulated 90 in Conductivity 
#Other Information
#
#WARRANTY: Halliburton will use its best efforts to furnish customers with 
#accurate information and interpretations that are part of, and incident to, the services 
#provided.  However, Halliburton cannot and does not warrant the accuracy 
#or correctness of such information and interpretations.  Under no circumstances should any 
#such information or interpretation be relied upon as the sole basis for any drilling, 
#completion, production, or financial decision or any procedure involving any risk to the 
#safety of any drilling venture, drilling rig or its crew or any other third party.  The 
#Customer has full responsibility for all drilling, completion and production operation.  
#Halliburton makes no representations or warranties, either expressed or 
#implied, including, but not limited to, the implied warranties of merchantability or fitness 
#for a particular purpose, with respect to the services rendered.  In no event will 
#Halliburton be liable for failure to obtain any particular results or for 
#any damages, including, but not limited to, indirect, special or consequential damages, 
#resulting from the use of any information or interpretation provided by Halliburton.
#
~A   DEPT      AMP    SGFF     CCL     GR      NDSN   RT90_HAT CT90_HAT 
# ...
   1883.0000  3.7719 22.8883 -0.1669 26.3591  95.4547   2.1769 459.3688
   1883.1000  3.6175 22.8703  0.0613 25.8198  94.1909   2.1855 457.5612
   1883.2000  3.5559 22.7962  0.0247 25.5536  92.4280   2.2212 450.2071
   1883.3000  3.5039 22.5196 -0.0620 25.2897  92.5405   2.3636 423.0834
   1883.4000  3.4123 22.3570  0.0482 24.6632  95.1063   2.4542 407.4648
   1883.5000  3.3810 22.1792 -0.0256 24.2463  99.0269   2.5596 390.6860
   1883.6000  3.3733 21.7656 -0.0479 23.7478 102.9011   2.8326 353.0325
   1883.7000  3.4184 21.5549  0.1843 22.5572 105.9974   2.9881 334.6608
   1883.8000  3.4378 21.3911 -0.0513 21.8985 108.2113   3.1174 320.7802
   1883.9000  3.4338 21.1396  0.0116 21.2079 110.0963   3.3312 300.1921
   1884.0000  3.4052 21.0463  0.0116 20.4898 112.7816   3.4155 292.7829
   1884.1000  3.3311 20.9697 -0.0351 19.0740 116.3074   3.4868 286.7959
   1884.2000  3.3237 20.8770  0.0165 18.5030 119.9659   3.5758 279.6577
   1884.3000  3.3521 20.8030  0.0348 18.1476 123.4180   3.6489 274.0552
   1884.4000  3.4832 20.7442  0.0061 18.4042 127.0938   3.7084 269.6581
   1884.5000  3.5428 20.6711 -0.1187 19.0603 131.1309   3.7841 264.2636
   1884.6000  3.5700 20.6355  0.0827 19.9956 134.2385   3.8216 261.6705
   1884.7000  3.5219 20.5867 -0.0128 22.2214 135.4763   3.8739 258.1378
   1884.8000  3.4839 20.5871 -0.0024 23.2479 135.3734   3.8735 258.1644
   1884.9000  3.4719 20.6686  0.0137 24.0779 135.3446   3.7867 264.0822
   1885.0000  3.5531 20.6612  0.0070 24.9718 135.8353   3.7945 263.5393
   1885.1000  3.6089 20.6567 -0.0546 25.0331 135.7867   3.7992 263.2133
   1885.2000  3.6387 20.6847  0.0842 24.8728 134.1340   3.7698 265.2661
   1885.3000  3.6346 20.6775 -0.0748 24.5293 131.0822   3.7774 264.7324
   1885.4000  3.6106 20.6399 -0.0031 23.4636 128.0456   3.8170 261.9859
   1885.5000  3.6530 20.5502 -0.0739 22.8416 126.4202   3.9136 255.5192
   1885.6000  3.7485 20.5039 -0.0763 22.2310 126.6893   3.9647 252.2259
   1885.7000  3.9950 20.4293  0.0470 21.1995 128.8309   4.0487 246.9929
   1885.8000  4.0642 20.1957 -0.0458 20.7841 133.2352   4.3266 231.1284
   1885.9000  4.0601 20.0389 -0.0302 20.3844 140.0656   4.5263 220.9310
   1886.0000  3.8626 19.8786  0.0342 19.3756 148.0856   4.7420 210.8815
   1886.1000  3.7221 19.5424 -0.0415 18.6859 156.6068   5.2351 191.0183
   1886.2000  3.5876 19.3711  0.0177 17.8911 166.3893   5.5091 181.5179
   1886.3000  3.3811 19.1810  0.0098 16.2969 178.5117   5.8327 171.4472
   1886.4000  3.3194 19.0141 -0.0711 15.6788 192.6231   6.1346 163.0098
   1886.5000  3.2909 18.7414  0.0327 15.2574 205.1451   6.6662 150.0105
   1886.6000  3.2972 18.6116  0.0095 15.0298 213.9230   6.9370 144.1545
   1886.7000  3.3982 18.4769 -0.0726 14.9502 218.5889   7.2308 138.2973
   1886.8000  3.4847 18.3209  0.0522 14.9668 220.0379   7.5881 131.7853
   1886.9000  3.5976 18.2732 -0.0330 14.9682 219.6768   7.7011 129.8516
   1887.0000  3.9145 18.2596  0.0098 14.9941 218.8264   7.7337 129.3042
   1887.1000  4.0969 18.2695  0.0122 15.1165 218.7280   7.7100 129.7017
   1887.2000  4.2562 18.3353 -0.0854 15.3721 219.2281   7.5543 132.3749
   1887.3000  4.3915 18.3974  0.0491 16.2626 218.5729   7.4106 134.9418
   1887.4000  4.3592 18.4938 -0.0372 16.7791 214.9967   7.1932 139.0202
   1887.5000  4.2864 18.5273 -0.0726 17.2149 207.4446   7.1193 140.4633
   1887.6000  4.1133 18.5780  0.0504 17.4904 196.6654   7.0091 142.6717
   1887.7000  4.0440 18.7081 -0.0537 17.2402 183.9357   6.7346 148.4869
   1887.8000  4.0025 18.7746 -0.0891 16.7517 169.9963   6.5989 151.5404
   1887.9000  4.0228 18.8511  0.0024 15.3707 157.0266   6.4465 155.1229
   1888.0000  4.0620 18.9413 -0.0085 14.6909 147.1974   6.2718 159.4439
   1888.1000  4.0858 19.1519 -0.0003 14.1659 140.2093   5.8841 169.9495
   1888.2000  4.0023 19.2604 -0.0046 13.9184 134.5391   5.6950 175.5926
   1888.3000  3.8901 19.3885 -0.0327 14.2823 127.9540   5.4806 182.4618
   1888.4000  3.7527 19.7485 -0.0089 14.9610 120.7219   4.9260 203.0045
   1888.5000  3.6191 19.9917 -0.0058 15.9017 113.6723   4.5886 217.9314
   1888.6000  3.4967 20.2616  0.0134 18.2402 108.2370   4.2459 235.5213
   1888.7000  3.5496 20.7327 -0.0217 19.4613 105.4665   3.7201 268.8100
   1888.8000  3.6644 20.9661  0.1163 20.6113 105.2760   3.4902 286.5165
   1888.9000  3.8877 21.1603 -0.1694 22.4696 106.9752   3.3129 301.8503
   1889.0000  3.9091 21.4360  0.0458 23.1147 108.4897   3.0812 324.5489
   1889.1000  3.8599 21.5123  0.0278 23.5657 107.9969   3.0210 331.0162
   1889.2000  3.6770 21.6135 -0.1031 24.0049 104.3222   2.9437 339.7085
   1889.3000  3.6109 21.7419  0.0119 24.0958  98.4611   2.8495 350.9388
   1889.4000  3.5827 21.7877  0.0671 24.1788  92.6412   2.8170 354.9876
   1889.5000  3.5993 21.8313 -0.0851 24.5011  89.1631   2.7865 358.8731
   1889.6000  3.6064 21.8816 -0.0336 24.7812  89.3588   2.7519 363.3853
   1889.7000  3.6025 21.9114  0.0983 25.1243  93.1069   2.7317 366.0724
   1889.8000  3.6214 21.9042 -0.1025 25.8008  99.2843   2.7365 365.4303
   1889.9000  3.6713 21.8611  0.1096 25.9991 107.0171   2.7659 361.5460
   1890.0000  3.7415 21.6693 -0.0836 26.0264 115.4622   2.9022 344.5662
   1890.1000  3.8750 21.5778  0.0299 25.5312 123.4622   2.9707 336.6210
   1890.2000  3.9170 21.5092 -0.0070 25.0916 129.8028   3.0234 330.7534
   1890.3000  3.9373 21.4309  0.0476 24.6204 133.1489   3.0853 324.1176
   1890.4000  3.9325 21.3980 -0.0308 24.1857 133.1271   3.1118 321.3574
   1890.5000  3.8464 21.3952  0.0159 23.5669 130.2433   3.1141 321.1201
   1890.6000  3.7792 21.4101 -0.0534 23.3805 125.8021   3.1020 322.3727
   1890.7000  3.7145 21.3687 -0.0479 23.2513 121.3303   3.1357 318.9081
   1890.8000  3.6362 21.3114  0.0964 23.1013 118.1539   3.1831 314.1591
   1890.9000  3.6312 21.2045 -0.0568 23.0702 117.2942   3.2742 305.4181
   1891.0000  3.6510 21.1563  0.0220 23.0645 118.8739   3.3164 301.5318
   1891.1000  3.6970 21.0779 -0.0046 23.0790 121.7891   3.3866 295.2814
   1891.2000  3.8652 21.0269  0.0208 23.1285 124.9977   3.4334 291.2565
   1891.3000  3.9793 20.9984 -0.0589 23.1521 128.7950   3.4599 289.0257
   1891.4000  4.1028 20.9929 -0.0159 23.1843 133.2085   3.4650 288.6003
   1891.5000  4.3050 21.0195 -0.0171 23.3654 136.9995   3.4402 290.6808
   1891.6000  4.3356 21.0626  0.0323 23.5751 138.3873   3.4006 294.0658
   1891.7000  4.3051 21.0899  0.0247 23.8939 136.5305   3.3758 296.2261
   1891.8000  4.1414 21.1453 -0.0482 24.8052 131.9391   3.3261 300.6524
   1891.9000  4.0598 21.1730  0.0626 25.2793 126.7946   3.3017 302.8743
   1892.0000  3.9901 21.1718 -0.0577 25.6296 122.9517   3.3027 302.7826
   1892.1000  3.8575 21.1448 -0.0009 25.4966 121.0935   3.3266 300.6072
   1892.2000  3.7985 21.1294  0.0360 24.8574 121.0539   3.3403 299.3743
   1892.3000  3.7720 21.0600 -0.0085 23.8358 122.3057   3.4029 293.8670
   1892.4000  3.9055 21.0017 -0.0146 21.0643 124.3599   3.4568 289.2849
   1892.5000  4.0524 20.8711  0.0317 19.6237 126.2462   3.5815 279.2126
   1892.6000  4.2032 20.8548  0.0668 18.3495 127.2114   3.5975 277.9708
   1892.7000  4.3956 20.8121 -0.1279 16.6545 127.4915   3.6398 274.7404
   1892.8000  4.4400 20.7943  0.1422 16.2688 128.1525   3.6576 273.4033
   1892.9000  4.4744 20.8672 -0.0687 16.1481 129.1553   3.5853 278.9167
   1893.0000  4.5087 20.9546 -0.0497 16.2395 129.0652   3.5011 285.6245
   1893.1000  4.5647 21.0600 -0.0256 16.9035 126.7682   3.4029 293.8670
   1893.2000  4.5786 21.2843 -0.0281 17.4243 122.4424   3.2059 311.9249
   1893.3000  4.5846 21.4253  0.1050 18.0393 117.3419   3.0898 323.6456
   1893.4000  4.5783 21.5812  0.4230 19.3462 112.5004   2.9681 336.9159
   1893.5000  4.5545 21.8679 -0.6918 19.8796 107.9592   2.7612 362.1614
   1893.6000  4.5013 22.0079  0.1486 20.2131 103.7426   2.6677 374.8547
   1893.7000  4.2902 22.1511  0.0058 20.0939 100.0391   2.5769 388.0632
   1893.8000  4.1507 22.3156 -0.0534 19.6911  97.0849   2.4781 403.5349
   1893.9000  4.0115 22.3141  0.0327 19.1875  95.1679   2.4790 403.3885
   1894.0000  3.8135 22.2808 -0.0916 18.3947  94.6066   2.4985 400.2401
   1894.1000  3.7918 22.0966  0.0229 18.2953  95.9316   2.6109 383.0097
