~Version Information
 VERS.                  2.0:   CWLS log ASCII Standard -VERSION 2.0
 WRAP.                   NO:   One line per depth step
~Well Information Block
#MNEM.UNIT     VALUE/NAME     DESCRIPTION
#---------     -----------    ---------------------------
 STRT.M              1491.0000: START DEPTH
 STOP.M              2343.0000: STOP DEPTH
 STEP.M                 0.1000: STEP DEPTH
 NULL.                 -999.25: NULL VALUE
 LOC .        X  4.914.974,61:  LOCATION
 FL3 .               Z  548.65:  LOCATIONLINE3
 FL2 .         Y  2.533.371,25:  LOCATIONLINE2
 FL1 .        X  4.914.974,641:  LOCATIONLINE1
 DMF .                      KB:  DRILL MEAS FROM
 PDAT.                      GL:  PERMANENT DATUM
 CNTY.                  CHUBUT:  COUNTY NAME
 FLD .                   ZORRO:  FIELD NAME
 WELL.                 PZ-1645:  WELL NAME
 COMP.     PAN AMERICAN ENERGY LLC.:  COMPANY
 DATE.             24-Jan-2024:  DATE
 SVCO.             Halliburton:  SERVICECONAME
 PROV.                  CHUBUT:  PROVINCE
 STAT.                  CHUBUT:  STATE NAME
 CTRY.               ARGENTINA:  COUNTRY NAME
 APIL.                     API:  APILABEL
 HIDE.                        :  WELLNAMEOPERAT
 UWI .                     N/A:  UNIQUE WELL IDENTIFIER
 API .                     N/A:  API NUMBER
 RANG.                     N/A:  RANGE
 TOWN.                     N/A:  TOWNSHIP
 SECT.                     N/A:  SECTION
 SON .                     N/A:  JOB NUMBER
 SRVC.             Halliburton:  SERVICE COMPANY
 LMF .                      KB:  LOG MEASURED FROM
 LATI.deg               0.0000:  LATITUDE
 LONG.deg               0.0000:  LONGITUDE
 EGL .m               548.6500:  GROUND ELEVATION
 BAP .m                 0.0000:  GL ELEV ONSHORE
 GVFD.g                 1.0000:  GRAVITY FIELD
 EKB .m               553.2500:  KB ELEVATION
 EDF .m               553.2500:  DF ELEVATION
~Curve Information Block
#MNEM.UNIT                 API CODE     Curve Description
#---------               -----------    ---------------------------
 DEPT.M                 00 000 000 000:  Depth
 AMP .mV                00 000 000 000:  Pipe Amplitude
 SGFF.cu                00 000 000 000:  Far Formation Sigma
 CCL .mV                00 000 000 000:  Collar Locator
 GR  .api               00 000 000 000:  Gamma API
 NDSN.cps               00 000 000 000:  DSN Near Counts
 RT90_HAT.ohmm          00 000 000 000:  Emulated 90 in Resistivity
 CT90_HAT.mmo/m          00 000 000 000:  Emulated 90 in Conductivity 
#Other Information
#
#WARRANTY: Halliburton will use its best efforts to furnish customers with 
#accurate information and interpretations that are part of, and incident to, the services 
#provided.  However, Halliburton cannot and does not warrant the accuracy 
#or correctness of such information and interpretations.  Under no circumstances should any 
#such information or interpretation be relied upon as the sole basis for any drilling, 
#completion, production, or financial decision or any procedure involving any risk to the 
#safety of any drilling venture, drilling rig or its crew or any other third party.  The 
#Customer has full responsibility for all drilling, completion and production operation.  
#Halliburton makes no representations or warranties, either expressed or 
#implied, including, but not limited to, the implied warranties of merchantability or fitness 
#for a particular purpose, with respect to the services rendered.  In no event will 
#Halliburton be liable for failure to obtain any particular results or for 
#any damages, including, but not limited to, indirect, special or consequential damages, 
#resulting from the use of any information or interpretation provided by Halliburton.
#
~A   DEPT      AMP    SGFF     CCL     GR      NDSN   RT90_HAT CT90_HAT 
# ...
   1939.0000  4.4226 19.0372 -0.0797 20.0728 192.9836   6.0918 164.1551
   1939.1000  4.3184 18.7724 -0.0085 19.7898 193.8315   6.6033 151.4394
   1939.2000  4.2334 18.1748  0.0143 18.8728 194.2395   7.9400 125.9446
   1939.3000  4.2711 17.8659 -0.0409 18.1879 196.0626   8.7429 114.3785
   1939.4000  4.3318 17.5876  0.0189 17.3861 200.3990   9.5399 104.8229
   1939.5000  4.3687 17.2226 -0.0015 15.7032 206.9637  10.7018  93.4422
   1939.6000  4.3040 17.1953 -0.0354 14.9712 213.9192  10.7944  92.6406
   1939.7000  4.1993 17.2720  0.0610 14.3999 218.4334  10.5363  94.9100
   1939.8000  4.0391 17.8108 -0.0925 13.9356 216.8551   8.8949 112.4240
   1939.9000  4.0573 18.2817  0.0070 14.1119 207.8849   7.6809 130.1931
   1940.0000  4.1408 18.8998  0.0049 14.5858 193.7718   6.3515 157.4431
   1940.1000  4.3170 19.5271 -0.0720 16.3884 179.4383   5.2589 190.1538
   1940.2000  4.3154 20.5988  0.0610 17.6377 168.6295   3.8609 259.0070
   1940.3000  4.2366 20.9295 -0.0320 19.0292 161.8971   3.5250 283.6879
   1940.4000  3.9612 21.0663 -0.0159 21.8780 158.9186   3.3972 294.3600
   1940.5000  3.8248 20.8536  0.0748 23.1471 158.9888   3.5987 277.8781
   1940.6000  3.7015 20.5682 -0.0711 24.1931 162.4871   3.8940 256.8053
   1940.7000  3.4709 20.2018 -0.0681 25.3420 170.3059   4.3191 231.5297
   1940.8000  3.3697 19.2329  0.0333 25.3726 181.7915   5.7423 174.1462
   1940.9000  3.2936 18.7144 -0.1202 25.0528 194.6138   6.7216 148.7741
   1941.0000  3.2461 18.2018 -0.0659 24.4461 206.5481   7.8737 127.0051
   1941.1000  3.1801 17.2205  0.0836 22.7850 215.8901  10.7089  93.3803
   1941.2000  3.1256 16.8302 -0.1480 21.9631 222.7375  12.1146  82.5450
   1941.3000  3.0547 16.4901  0.1062 21.2712 227.9255  13.4921  74.1174
   1941.4000  2.9551 16.0182 -0.0613 20.4178 231.2984  15.6676  63.8260
   1941.5000  2.9668 15.8611 -0.1013 20.2290 232.7442  16.4665  60.7294
   1941.6000  3.0163 15.7750  0.0647 20.1426 232.3486  16.9213  59.0971
   1941.7000  3.1375 15.7294  0.0537 20.0984 230.6682  17.1672  58.2506
   1941.8000  3.1767 15.7093 -0.0711 20.0727 228.2075  17.2767  57.8814
   1941.9000  3.2012 15.7148  0.1535 20.0093 226.2796  17.2466  57.9824
   1942.0000  3.2539 15.7232 -0.0577 19.6531 226.8461  17.2009  58.1365
   1942.1000  3.3159 15.7087 -0.0006 19.2891 230.4332  17.2799  57.8707
   1942.2000  3.4237 15.7013  0.0732 18.7528 234.4049  17.3204  57.7354
   1942.3000  3.7909 15.7099 -0.0363 17.0953 235.6480  17.2734  57.8925
   1942.4000  4.0255 15.7232  0.0201 16.0105 233.1263  17.2009  58.1365
   1942.5000  4.2646 15.7379 -0.0287 14.8341 228.3428  17.1211  58.4075
   1942.6000  4.6749 15.7516  0.0226 12.6120 222.5933  17.0471  58.6610
   1942.7000  4.8299 15.7617 -0.0085 11.7937 217.0927  16.9927  58.8488
   1942.8000  4.9599 15.7306 -0.0391 11.3046 213.6760  17.1607  58.2727
   1942.9000  5.0761 15.6933 -0.0146 11.2147 214.0974  17.3643  57.5894
   1943.0000  5.2623 15.6085  0.0131 12.3365 217.9303  17.8361  56.0661
   1943.1000  5.3030 15.5868 -0.0137 13.5024 222.2987  17.9588  55.6830
   1943.2000  5.2898 15.5875 -0.0208 14.9718 223.4723  17.9549  55.6951
   1943.3000  5.1186 15.6223  0.0754 18.2877 219.3347  17.7585  56.3111
   1943.4000  4.9946 15.7994 -0.0272 19.8120 210.1932  16.7912  59.5550
   1943.5000  4.8704 15.9591 -0.0003 21.0523 199.4005  15.9635  62.6429
   1943.6000  4.7579 16.1344  0.0470 21.9319 191.3030  15.1014  66.2190
   1943.7000  4.5664 16.5180  0.1794 22.7339 188.5785  13.3734  74.7753
   1943.8000  4.4707 16.7338 -0.3339 22.9157 190.2377  12.4900  80.0641
   1943.9000  4.3721 16.9722  0.4794 23.1816 192.7082  11.5826  86.3364
   1944.0000  4.2174 17.5545  0.2573 24.4636 193.1360   9.6396 103.7387
   1944.1000  4.1816 17.9151 -0.0140 25.5354 190.1228   8.6095 116.1508
   1944.2000  4.1667 18.3653 -0.0745 26.8057 184.4334   7.4845 133.6095
   1944.3000  4.1584 19.4067 -0.0146 29.4505 177.2351   5.4509 183.4559
   1944.4000  4.1658 19.8990  0.0119 30.5965 169.6850   4.7139 212.1386
   1944.5000  4.1880 20.3471  0.0018 31.5166 161.8023   4.1440 241.3127
   1944.6000  4.2459 20.9584  0.0195 32.5040 153.5729   3.4975 285.9185
   1944.7000  4.2532 21.0716 -0.0644 32.5247 145.6488   3.3924 294.7766
   1944.8000  4.2407 21.1296 -0.0146 32.2263 138.3876   3.3401 299.3922
   1944.9000  4.2119 21.2475  0.0616 30.8171 132.7392   3.2371 308.9185
   1945.0000  4.2246 21.2850 -0.1416 29.8509 129.6222   3.2053 311.9833
   1945.1000  4.2615 21.3011  0.0409 28.8309 128.9794   3.1917 313.3127
   1945.2000  4.3796 21.3062  0.0238 26.9192 130.0329   3.1874 313.7353
   1945.3000  4.4315 21.2855 -0.0519 26.1062 132.0652   3.2048 312.0320
   1945.4000  4.4536 21.2395  0.0635 25.4054 135.1180   3.2440 308.2614
   1945.5000  4.4348 21.1842 -0.0684 24.8257 139.1017   3.2919 303.7759
   1945.6000  4.2967 21.0702  0.0018 24.1165 142.6659   3.3936 294.6723
   1945.7000  4.2014 21.0230  0.0751 24.0369 144.1213   3.4370 290.9514
   1945.8000  4.0981 21.0016 -0.1501 24.1450 143.2753   3.4569 289.2765
   1945.9000  3.8990 21.0327  0.0281 24.7207 141.2424   3.4280 291.7153
   1946.0000  3.8368 21.0612  0.0009 24.9992 139.6895   3.4018 293.9620
   1946.1000  3.8212 21.0977 -0.0549 25.1281 139.3414   3.3687 296.8504
   1946.2000  3.9066 21.1755 -0.0073 24.7019 140.5086   3.2995 303.0762
   1946.3000  3.9591 21.1932  0.0586 24.1936 143.0833   3.2840 304.5067
   1946.4000  3.9856 21.1522 -0.0479 23.6394 146.7798   3.3200 301.2048
   1946.5000  3.9526 20.8639 -0.0357 23.0920 150.8991   3.5886 278.6602
   1946.6000  3.9234 20.6445  0.0058 23.4086 155.0630   3.8121 262.3226
   1946.7000  3.9108 20.3647  0.0024 24.2112 159.0934   4.1233 242.5242
   1946.8000  3.9666 19.8495  0.0610 26.9589 162.1060   4.7824 209.1000
   1946.9000  4.0341 19.6634 -0.0919 28.5235 162.6309   5.0510 197.9806
   1947.0000  4.1221 19.5567 -0.0021 29.8902 160.3466   5.2129 191.8318
   1947.1000  4.2825 19.5108  0.0006 31.2034 156.2335   5.2844 189.2362
   1947.2000  4.2833 19.6375 -0.0790 30.9447 152.1495   5.0897 196.4752
   1947.3000  4.1917 19.7764  0.0269 30.1158 149.2734   4.8859 204.6706
   1947.4000  4.0190 19.9771 -0.0034 28.8688 147.5035   4.6080 217.0139
   1947.5000  3.6374 20.4209 -0.0867 25.9905 146.2466   4.0583 246.4086
   1947.6000  3.5324 20.6360  0.0125 24.7880 144.7381   3.8211 261.7047
   1947.7000  3.5082 20.8029  0.0262 23.9497 142.9200   3.6490 274.0477
   1947.8000  3.6282 20.8961 -0.0912 23.5107 141.8488   3.5572 281.1200
   1947.9000  3.7326 20.8152  0.0589 23.7987 143.0309   3.6367 274.9746
   1948.0000  3.8521 20.6236  0.0443 24.2663 146.7540   3.8343 260.8038
   1948.1000  4.0852 19.9298 -0.0586 25.1825 152.6158   4.6718 214.0502
   1948.2000  4.1610 19.4903 -0.0696 25.3976 159.6941   5.3167 188.0866
   1948.3000  4.1943 19.0143  0.0375 25.3515 168.1900   6.1342 163.0204
   1948.4000  4.1772 18.0660 -0.0369 24.4119 178.1317   8.2135 121.7508
   1948.5000  4.1578 17.6750 -0.0159 23.5757 188.3893   9.2817 107.7389
   1948.6000  4.1324 17.3074 -0.0085 22.5751 198.2006  10.4194  95.9748
   1948.7000  4.0210 16.9963  0.0076 20.3887 206.6839  11.4947  86.9966
   1948.8000  3.9386 16.5507 -0.0192 19.3500 213.2264  13.2355  75.5544
   1948.9000  3.8637 16.3801  0.0122 18.4248 217.5406  13.9705  71.5794
   1949.0000  3.8220 16.2372  0.0253 17.6480 218.9738  14.6176  68.4107
   1949.1000  3.9398 16.0061 -0.0046 16.5677 218.4842  15.7277  63.5821
   1949.2000  4.1510 15.9281 -0.0632 16.2400 217.4777  16.1210  62.0309
   1949.3000  4.4862 15.8343  0.0336 16.0283 216.7950  16.6068  60.2163
   1949.4000  5.4795 15.6791  0.0235 15.9083 216.2433  17.4424  57.3316
   1949.5000  6.0722 15.6294 -0.0369 15.9983 215.5908  17.7187  56.4375
   1949.6000  6.6806 15.5845 -0.0110 16.1916 214.9431  17.9719  55.6424
   1949.7000  7.8002 15.5405  0.0394 16.8756 214.4332  18.2235  54.8742
   1949.8000  8.2183 15.5486 -0.0073 17.3483 213.4005  18.1769  55.0149
   1949.9000  8.4772 15.5675 -0.0555 17.8935 211.3388  18.0687  55.3443
   1950.0000  8.5560 15.5947  0.0220 18.4986 208.2503  17.9141  55.8219
   1950.1000  8.2695 15.5845 -0.0494 19.7868 205.1443  17.9719  55.6424
