~Version Information
 VERS.                  2.0:   CWLS log ASCII Standard -VERSION 2.0
 WRAP.                   NO:   One line per depth step
~Well Information Block
#MNEM.UNIT     VALUE/NAME     DESCRIPTION
#---------     -----------    ---------------------------
 STRT.M              1491.0000: START DEPTH
 STOP.M              2343.0000: STOP DEPTH
 STEP.M                 0.1000: STEP DEPTH
 NULL.                 -999.25: NULL VALUE
 LOC .        X  4.914.974,61:  LOCATION
 FL3 .               Z  548.65:  LOCATIONLINE3
 FL2 .         Y  2.533.371,25:  LOCATIONLINE2
 FL1 .        X  4.914.974,641:  LOCATIONLINE1
 DMF .                      KB:  DRILL MEAS FROM
 PDAT.                      GL:  PERMANENT DATUM
 CNTY.                  CHUBUT:  COUNTY NAME
 FLD .                   ZORRO:  FIELD NAME
 WELL.                 PZ-1645:  WELL NAME
 COMP.     PAN AMERICAN ENERGY LLC.:  COMPANY
 DATE.             24-Jan-2024:  DATE
 SVCO.             Halliburton:  SERVICECONAME
 PROV.                  CHUBUT:  PROVINCE
 STAT.                  CHUBUT:  STATE NAME
 CTRY.               ARGENTINA:  COUNTRY NAME
 APIL.                     API:  APILABEL
 HIDE.                        :  WELLNAMEOPERAT
 UWI .                     N/A:  UNIQUE WELL IDENTIFIER
 API .                     N/A:  API NUMBER
 RANG.                     N/A:  RANGE
 TOWN.                     N/A:  TOWNSHIP
 SECT.                     N/A:  SECTION
 SON .                     N/A:  JOB NUMBER
 SRVC.             Halliburton:  SERVICE COMPANY
 LMF .                      KB:  LOG MEASURED FROM
 LATI.deg               0.0000:  LATITUDE
 LONG.deg               0.0000:  LONGITUDE
 EGL .m               548.6500:  GROUND ELEVATION
 BAP .m                 0.0000:  GL ELEV ONSHORE
 GVFD.g                 1.0000:  GRAVITY FIELD
 EKB .m               553.2500:  KB ELEVATION
 EDF .m               553.2500:  DF ELEVATION
~Curve Information Block
#MNEM.UNIT                 API CODE     Curve Description
#---------               -----------    ---------------------------
 DEPT.M                 00 000 000 000:  Depth
 AMP .mV                00 000 000 000:  Pipe Amplitude
 SGFF.cu                00 000 000 000:  Far Formation Sigma
 CCL .mV                00 000 000 000:  Collar Locator
 GR  .api               00 000 000 000:  Gamma API
 NDSN.cps               00 000 000 000:  DSN Near Counts
 RT90_HAT.ohmm          00 000 000 000:  Emulated 90 in Resistivity
 CT90_HAT.mmo/m          00 000 000 000:  Emulated 90 in Conductivity 
#Other Information
#
#WARRANTY: Halliburton will use its best efforts to furnish customers with 
#accurate information and interpretations that are part of, and incident to, the services 
#provided.  However, Halliburton cannot and does not warrant the accuracy 
#or correctness of such information and interpretations.  Under no circumstances should any 
#such information or interpretation be relied upon as the sole basis for any drilling, 
#completion, production, or financial decision or any procedure involving any risk to the 
#safety of any drilling venture, drilling rig or its crew or any other third party.  The 
#Customer has full responsibility for all drilling, completion and production operation.  
#Halliburton makes no representations or warranties, either expressed or 
#implied, including, but not limited to, the implied warranties of merchantability or fitness 
#for a particular purpose, with respect to the services rendered.  In no event will 
#Halliburton be liable for failure to obtain any particular results or for 
#any damages, including, but not limited to, indirect, special or consequential damages, 
#resulting from the use of any information or interpretation provided by Halliburton.
#
~A   DEPT      AMP    SGFF     CCL     GR      NDSN   RT90_HAT CT90_HAT 
# ...
   1827.0000  3.5859 16.2638  0.0229 15.8067 184.2938  14.4949  68.9898
   1827.1000  3.8819 16.2848 -0.1230 15.0981 180.3917  14.3988  69.4502
   1827.2000  3.9602 16.3072  0.0256 14.8545 177.7855  14.2970  69.9447
   1827.3000  3.9574 16.3047  0.0238 14.7157 178.4692  14.3083  69.8895
   1827.4000  3.7373 16.2749 -0.0613 14.6185 184.3652  14.4440  69.2329
   1827.5000  3.5737 16.2312  0.0415 14.5373 194.5363  14.6454  68.2808
   1827.6000  3.4210 16.1251 -0.0208 14.3546 204.7433  15.1460  66.0240
   1827.7000  3.3107 16.0706 -0.0659 14.0400 211.4284  15.4097  64.8942
   1827.8000  3.2813 16.0196  0.0613 13.0958 214.0405  15.6606  63.8545
   1827.9000  3.3560 15.9450  0.0562 12.5878 213.5212  16.0350  62.3636
   1828.0000  3.4657 15.9059 -0.0687 12.1526 210.3063  16.2347  61.5965
   1828.1000  3.6878 15.8661  0.0183 11.6506 204.0707  16.4405  60.8254
   1828.2000  3.7596 15.8358  0.0012 11.5559 196.1248  16.5989  60.2450
   1828.3000  3.7970 15.7515 -0.0275 11.4982 189.1598  17.0476  58.6593
   1828.4000  3.8382 15.7239 -0.0363 11.3248 184.5117  17.1971  58.1493
   1828.5000  3.9016 15.7155  0.0345 11.2169 182.5559  17.2428  57.9952
   1828.6000  4.0211 15.7533 -0.0076 11.1669 184.3103  17.0379  58.6927
   1828.7000  4.3452 15.7938 -0.0101 11.5547 190.2564  16.8210  59.4495
   1828.8000  4.4555 15.8610  0.0214 12.0984 199.5977  16.4671  60.7271
   1828.9000  4.4844 16.0478  0.0235 12.8737 210.5310  15.5214  64.4272
   1829.0000  4.3734 16.1429 -0.0226 14.8358 220.8168  15.0608  66.3975
   1829.1000  4.3301 16.1985 -0.0201 15.8081 228.6435  14.7979  67.5772
   1829.2000  4.3456 16.2049 -0.0076 16.6297 233.1884  14.7679  67.7144
   1829.3000  4.5371 16.1793 -0.0015 17.5707 234.5102  14.8882  67.1673
   1829.4000  4.6581 16.1323 -0.0620 17.6972 232.5275  15.1115  66.1748
   1829.5000  4.7528 16.0955  0.0745 17.6892 225.9344  15.2887  65.4078
   1829.6000  4.7954 16.1938 -0.0037 17.6595 213.0157  14.8199  67.4768
   1829.7000  4.6982 16.4084 -0.0906 17.9331 195.1729  13.8458  72.2241
   1829.8000  4.5950 16.7316 -0.0146 18.3177 175.2881  12.4987  80.0083
   1829.9000  4.5001 17.7816  0.1077 18.8153 156.5339   8.9766 111.4008
   1830.0000  4.4392 18.5098  0.0146 19.7153 141.5002   7.1578 139.7077
   1830.1000  4.4917 19.3277 -0.0156 19.9026 130.1339   5.5812 179.1729
   1830.2000  4.5910 20.7544 -0.0278 19.8415 122.4930   3.6980 270.4164
   1830.3000  4.8348 21.3124 -0.0116 19.1386 117.4122   3.1823 314.2381
   1830.4000  4.9175 21.7322 -0.2063 18.6941 114.1699   2.8565 350.0788
   1830.5000  4.9434 22.2056  0.0961 18.3325 111.3961   2.5435 393.1590
   1830.6000  4.8363 22.2681 -0.4355 18.0996 108.3371   2.5060 399.0423
   1830.7000  4.7489 22.2346 -0.4614 18.2320 105.7710   2.5260 395.8828
   1830.8000  4.6761 21.9596  0.0534 18.4748 104.5832   2.6995 370.4390
   1830.9000  4.6024 21.7387 -0.0290 19.0633 105.2032   2.8518 350.6557
   1831.0000  4.5630 21.4870 -0.0864 19.3144 107.6841   3.0408 328.8608
   1831.1000  4.4889 21.1153  0.0931 19.4960 110.8925   3.3529 298.2493
   1831.2000  4.2764 20.9988 -0.0095 19.6068 112.9684   3.4595 289.0591
   1831.3000  4.2046 20.9316 -0.0784 19.5481 112.0496   3.5230 283.8490
   1831.4000  4.1797 20.8914  0.0626 19.4462 108.2040   3.5618 280.7569
   1831.5000  4.1846 20.9624 -0.0552 19.3432 103.1623   3.4937 286.2295
   1831.6000  4.1897 20.9883 -0.0308 19.3224  99.1163   3.4693 288.2426
   1831.7000  4.1869 21.0259 -0.0488 19.4778  97.8527   3.4343 291.1801
   1831.8000  4.2038 21.1139  0.0281 19.7525 100.1619   3.3541 298.1426
   1831.9000  4.3260 21.1428  0.0107 20.5163 106.1526   3.3284 300.4447
   1832.0000  4.4053 21.1364 -0.0809 20.8865 114.5033   3.3340 299.9400
   1832.1000  4.4683 21.1016  0.0613 21.1743 122.9551   3.3652 297.1591
   1832.2000  4.4973 21.0244  0.0070 21.4735 129.1760   3.4357 291.0615
   1832.3000  4.4647 20.9065 -0.0800 21.5771 130.9669   3.5471 281.9204
   1832.4000  4.4177 20.5649  0.1089 21.7569 127.6818   3.8975 256.5747
   1832.5000  4.3763 20.3413 -0.0815 22.6056 121.6984   4.1508 240.9174
   1832.6000  4.4221 20.0932  0.0339 23.2781 116.2304   4.4559 224.4215
   1832.7000  4.5140 19.6106  0.0323 24.0218 113.5524   5.1304 194.9166
   1832.8000  4.7245 19.4193 -0.0464 25.2225 114.6596   5.4304 184.1485
   1832.9000  4.7633 19.2423  0.0607 25.4584 119.6226   5.7261 174.6389
   1833.0000  4.7203 19.0743  0.0308 25.3898 126.5495   6.0237 166.0109
   1833.1000  4.6014 18.8496 -0.0439 25.0584 133.2183   6.4494 155.0532
   1833.2000  4.2987 18.7529 -0.0201 24.0560 138.4632   6.6428 150.5389
   1833.3000  4.2107 18.6545  0.0314 23.6526 142.3316   6.8462 146.0664
   1833.4000  4.1957 18.5186 -0.0876 23.4470 144.8220   7.1385 140.0854
   1833.5000  4.2850 18.4812  0.0397 23.6679 144.9595   7.2212 138.4811
   1833.6000  4.2982 18.4694 -0.0162 23.9601 142.0600   7.2476 137.9767
   1833.7000  4.2443 18.5141 -0.0531 24.2216 137.3889   7.1484 139.8914
   1833.8000  3.9576 18.5774  0.0485 24.1951 132.7386   7.0104 142.6452
   1833.9000  3.7946 18.6678 -0.0446 23.7537 129.6743   6.8183 146.6641
   1834.0000  3.6722 18.7752  0.0003 22.9995 129.3948   6.5977 151.5680
   1834.1000  3.6092 18.7515  0.0351 21.9709 133.1876   6.6457 150.4732
   1834.2000  3.6230 18.6830  0.0003 19.3979 141.4107   6.7866 147.3492
   1834.3000  3.6680 18.3287  0.0146 18.0400 153.5379   7.5698 132.1039
   1834.4000  3.7361 18.0914  0.0699 16.7401 167.1488   8.1488 122.7175
   1834.5000  3.9646 17.8346 -0.0504 14.4824 178.6850   8.8289 113.2644
   1834.6000  4.1021 17.5780  0.0137 13.5625 185.0360   9.5687 104.5074
   1834.7000  4.2120 17.1251 -0.0137 12.8051 184.9461  11.0363  90.6101
   1834.8000  4.2335 16.9426 -0.0305 11.9226 179.4768  11.6915  85.5322
   1834.9000  4.1460 16.8072  0.0482 11.8889 172.3344  12.2031  81.9464
   1835.0000  4.0299 16.6530  0.0137 12.1538 166.3449  12.8136  78.0421
   1835.1000  3.8288 16.6199 -0.1355 13.3713 162.9950  12.9486  77.2284
   1835.2000  3.7710 16.6030  0.0684 14.0839 162.9654  13.0181  76.8161
   1835.3000  3.7449 16.5833  0.0168 14.6662 167.1709  13.0996  76.3382
   1835.4000  3.7678 16.5870 -0.0958 15.0130 175.7341  13.0842  76.4281
   1835.5000  3.7904 16.5667  0.0851 14.7381 187.3274  13.1686  75.9382
   1835.6000  3.7960 16.4768  0.0095 14.2585 199.2516  13.5490  73.8062
   1835.7000  3.7252 16.4212 -0.0385 13.2267 208.7908  13.7898  72.5174
   1835.8000  3.6729 16.3765  0.0385 12.9526 214.6701  13.9865  71.4975
   1835.9000  3.6438 16.2722  0.0085 12.9860 217.1989  14.4564  69.1735
   1836.0000  3.6582 16.2394 -0.0034 13.3907 219.5728  14.6074  68.4585
   1836.1000  3.8033 16.2219 -0.0320 15.3329 224.4556  14.6886  68.0800
   1836.2000  3.8900 16.2046 -0.0082 16.7542 230.9400  14.7693  67.7080
   1836.3000  3.9544 16.2367 -0.0046 18.3175 234.5759  14.6199  68.3999
   1836.4000  3.9642 16.2769 -0.0372 21.2435 231.5017  14.4349  69.2765
   1836.5000  3.9033 16.3422 -0.0342 22.3191 221.3643  14.1393  70.7249
   1836.6000  3.8088 16.5734 -0.0067 23.0148 207.2628  13.1407  76.0994
   1836.7000  3.5915 16.7451 -0.0916 23.2403 193.2414  12.4454  80.3510
   1836.8000  3.5059 16.9353  0.0314 22.8772 183.3068  11.7185  85.3352
   1836.9000  3.4468 17.4298  0.0034 22.3199 179.1804  10.0253  99.7476
   1837.0000  3.3768 17.7131 -0.0732 21.0607 178.9092   9.1714 109.0346
   1837.1000  3.3465 18.0041 -0.0183 20.5689 179.2343   8.3735 119.4244
   1837.2000  3.3198 18.5822  0.0510 20.2865 176.5964   7.0000 142.8571
   1837.3000  3.3249 18.8434 -0.0110 20.5540 170.2664   6.4616 154.7604
   1837.4000  3.3784 19.0953 -0.0076 21.1194 161.6887   5.9856 167.0676
   1837.5000  3.4716 19.3482  0.0571 21.9265 153.1261   5.5470 180.2776
   1837.6000  3.7476 19.7371 -0.0064 23.9643 145.5034   4.9426 202.3227
   1837.7000  3.8897 19.9042  0.0455 25.0033 138.0401   4.7067 212.4631
   1837.8000  3.9969 20.0743 -0.0436 25.9169 130.9004   4.4803 223.1993
   1837.9000  4.0458 20.3715 -0.0308 26.6071 124.4199   4.1154 242.9898
   1838.0000  3.9442 20.5039 -0.0134 27.0138 119.3914   3.9647 252.2259
   1838.1000  3.8204 20.6472 -0.0348 26.6590 116.0221   3.8092 262.5223
