~Version Information
 VERS.                  2.0:   CWLS log ASCII Standard -VERSION 2.0
 WRAP.                   NO:   One line per depth step
~Well Information Block
#MNEM.UNIT     VALUE/NAME     DESCRIPTION
#---------     -----------    ---------------------------
 STRT.M              1491.0000: START DEPTH
 STOP.M              2343.0000: STOP DEPTH
 STEP.M                 0.1000: STEP DEPTH
 NULL.                 -999.25: NULL VALUE
 LOC .        X  4.914.974,61:  LOCATION
 FL3 .               Z  548.65:  LOCATIONLINE3
 FL2 .         Y  2.533.371,25:  LOCATIONLINE2
 FL1 .        X  4.914.974,641:  LOCATIONLINE1
 DMF .                      KB:  DRILL MEAS FROM
 PDAT.                      GL:  PERMANENT DATUM
 CNTY.                  CHUBUT:  COUNTY NAME
 FLD .                   ZORRO:  FIELD NAME
 WELL.                 PZ-1645:  WELL NAME
 COMP.     PAN AMERICAN ENERGY LLC.:  COMPANY
 DATE.             24-Jan-2024:  DATE
 SVCO.             Halliburton:  SERVICECONAME
 PROV.                  CHUBUT:  PROVINCE
 STAT.                  CHUBUT:  STATE NAME
 CTRY.               ARGENTINA:  COUNTRY NAME
 APIL.                     API:  APILABEL
 HIDE.                        :  WELLNAMEOPERAT
 UWI .                     N/A:  UNIQUE WELL IDENTIFIER
 API .                     N/A:  API NUMBER
 RANG.                     N/A:  RANGE
 TOWN.                     N/A:  TOWNSHIP
 SECT.                     N/A:  SECTION
 SON .                     N/A:  JOB NUMBER
 SRVC.             Halliburton:  SERVICE COMPANY
 LMF .                      KB:  LOG MEASURED FROM
 LATI.deg               0.0000:  LATITUDE
 LONG.deg               0.0000:  LONGITUDE
 EGL .m               548.6500:  GROUND ELEVATION
 BAP .m                 0.0000:  GL ELEV ONSHORE
 GVFD.g                 1.0000:  GRAVITY FIELD
 EKB .m               553.2500:  KB ELEVATION
 EDF .m               553.2500:  DF ELEVATION
~Curve Information Block
#MNEM.UNIT                 API CODE     Curve Description
#---------               -----------    ---------------------------
 DEPT.M                 00 000 000 000:  Depth
 AMP .mV                00 000 000 000:  Pipe Amplitude
 SGFF.cu                00 000 000 000:  Far Formation Sigma
 CCL .mV                00 000 000 000:  Collar Locator
 GR  .api               00 000 000 000:  Gamma API
 NDSN.cps               00 000 000 000:  DSN Near Counts
 RT90_HAT.ohmm          00 000 000 000:  Emulated 90 in Resistivity
 CT90_HAT.mmo/m          00 000 000 000:  Emulated 90 in Conductivity 
#Other Information
#
#WARRANTY: Halliburton will use its best efforts to furnish customers with 
#accurate information and interpretations that are part of, and incident to, the services 
#provided.  However, Halliburton cannot and does not warrant the accuracy 
#or correctness of such information and interpretations.  Under no circumstances should any 
#such information or interpretation be relied upon as the sole basis for any drilling, 
#completion, production, or financial decision or any procedure involving any risk to the 
#safety of any drilling venture, drilling rig or its crew or any other third party.  The 
#Customer has full responsibility for all drilling, completion and production operation.  
#Halliburton makes no representations or warranties, either expressed or 
#implied, including, but not limited to, the implied warranties of merchantability or fitness 
#for a particular purpose, with respect to the services rendered.  In no event will 
#Halliburton be liable for failure to obtain any particular results or for 
#any damages, including, but not limited to, indirect, special or consequential damages, 
#resulting from the use of any information or interpretation provided by Halliburton.
#
~A   DEPT      AMP    SGFF     CCL     GR      NDSN   RT90_HAT CT90_HAT 
# ...
   1603.0000 13.0127 18.5058  0.0250  8.1996 152.2633   7.1667 139.5342
   1603.1000 13.7442 17.7978 -0.0500  8.3333 152.4481   8.9312 111.9670
   1603.2000 14.3578 17.5712 -0.0266  8.8207 152.0802   9.5892 104.2840
   1603.3000 15.0766 17.4084 -0.0470 10.4977 151.6283  10.0931  99.0776
   1603.4000 15.0575 17.2515  0.0333 11.4082 152.1076  10.6047  94.2978
   1603.5000 14.7255 17.2269 -0.1450 12.1692 155.1935  10.6873  93.5690
   1603.6000 13.2360 17.1758  0.0809 12.8665 161.6330  10.8610  92.0726
   1603.7000 12.2635 17.1164 -0.0418 12.7623 171.2727  11.0666  90.3620
   1603.8000 11.2915 16.9725 -0.1160 12.4204 182.0011  11.5815  86.3446
   1603.9000  9.6077 16.9057  0.0961 11.3945 190.7469  11.8287  84.5401
   1604.0000  8.9080 16.8348  0.0006 10.8950 194.6206  12.0970  82.6651
   1604.1000  8.2751 16.7924 -0.0412 10.5030 192.8431  12.2604  81.5634
   1604.2000  7.6944 16.8673 -0.0082 10.2708 187.3061  11.9733  83.5192
   1604.3000  6.6904 17.0101  0.0446 10.4317 180.7842  11.4446  87.3774
   1604.4000  6.2842 17.5336  0.0061 10.8779 174.7689   9.7032 103.0588
   1604.5000  5.9625 17.9066  0.0314 11.5844 169.1398   8.6324 115.8426
   1604.6000  5.6584 18.3559 -0.0919 13.6832 163.2176   7.5063 133.2214
   1604.7000  5.7028 19.1669  0.0418 14.9442 155.9999   5.8576 170.7184
   1604.8000  5.8638 19.5050 -0.0189 16.2088 148.1178   5.2935 188.9109
   1604.9000  6.3519 19.7566  0.0000 18.2843 140.5757   4.9143 203.4878
   1605.0000  6.5638 20.0901  0.0110 18.9195 134.0412   4.4599 224.2203
   1605.1000  6.7017 20.2161 -0.0510 19.2388 128.1276   4.3015 232.4771
   1605.2000  6.7952 20.3985 -0.0064 19.0424 121.1869   4.0841 244.8520
   1605.3000  6.8171 20.6251  0.0156 18.6539 113.0625   3.8327 260.9127
   1605.4000  6.8467 21.3315 -0.0204 18.1764 104.5112   3.1664 315.8161
   1605.5000  6.8550 21.7790  0.0476 17.2736  97.7311   2.8231 354.2205
   1605.6000  6.7823 22.2112 -0.0208 16.9983  94.6115   2.5401 393.6853
   1605.7000  6.6465 22.9817 -0.1080 16.9201  95.0517   2.1335 468.7133
   1605.8000  6.2679 23.2791  0.0363 17.4271  98.3310   2.0048 498.8029
   1605.9000  6.0992 23.4515  0.0635 17.9412 103.3246   1.9364 516.4222
   1606.0000  5.9895 23.7003 -0.1648 18.5153 108.6652   1.8450 542.0054
   1606.1000  5.9479 23.7711  0.1190 19.0349 113.2629   1.8205 549.2996
   1606.2000  6.0012 23.8097  0.0024 19.5167 116.5302   1.8074 553.2809
   1606.3000  6.0497 23.8322 -0.0681 19.3848 118.6189   1.7999 555.5864
   1606.4000  6.0953 23.8472  0.0616 19.0331 119.8692   1.7949 557.1341
   1606.5000  6.1580 23.7876 -0.0589 18.0452 120.2005   1.8149 550.9945
   1606.6000  6.1522 23.5674 -0.0198 17.6348 119.6980   1.8928 528.3179
   1606.7000  6.0989 23.4455  0.0510 17.4039 118.7596   1.9387 515.8096
   1606.8000  5.8492 23.2836 -0.0760 17.5832 117.8275   2.0030 499.2511
   1606.9000  5.7012 23.0901  0.0180 17.9222 116.7832   2.0850 479.6163
   1607.0000  5.5766 22.7060  0.0195 18.3212 115.2147   2.2661 441.2868
   1607.1000  5.4833 22.5594 -0.0519 18.6863 112.8812   2.3422 426.9490
   1607.2000  5.3385 22.4087  0.0223 19.0061 110.0583   2.4248 412.4052
   1607.3000  5.2600 22.1110  0.0635 18.8793 107.7890   2.6018 384.3493
   1607.4000  5.1768 21.9777 -0.0009 18.5650 107.4178   2.6875 372.0930
   1607.5000  5.0389 21.8587  0.0549 17.5573 109.7636   2.7676 361.3239
   1607.6000  5.0049 21.6261 -0.0534 16.9833 114.0601   2.9343 340.7968
   1607.7000  4.9989 21.5155 -0.0128 16.4275 119.2919   3.0185 331.2904
   1607.8000  5.0345 21.4234  0.1617 15.4119 124.9920   3.0913 323.4885
   1607.9000  5.0466 21.3007 -0.0430 14.9173 130.4717   3.1921 313.2734
   1608.0000  5.0418 21.2721  0.0101 14.4015 135.6095   3.2162 310.9259
   1608.1000  4.9965 21.2463  0.0479 13.3397 140.1886   3.2381 308.8231
   1608.2000  4.9774 21.1897 -0.0128 12.8794 144.1069   3.2871 304.2195
   1608.3000  4.9757 21.1837 -0.0430 12.5481 147.1813   3.2923 303.7390
   1608.4000  5.0476 21.1779 -0.0537 12.4263 149.4322   3.2974 303.2693
   1608.5000  5.1182 21.1597 -0.0012 12.6195 150.9756   3.3134 301.8048
   1608.6000  5.1973 21.0515  0.0775 12.9103 150.9848   3.4107 293.1949
   1608.7000  5.3120 20.9783 -0.0021 13.4807 148.1157   3.4787 287.4637
   1608.8000  5.3267 20.8863  0.0058 13.6467 142.4745   3.5667 280.3712
   1608.9000  5.3180 20.6738 -0.0705 13.7112 135.7778   3.7812 264.4663
   1609.0000  5.2994 20.5694 -0.0159 13.6929 130.7585   3.8927 256.8911
   1609.1000  5.2678 20.4875 -0.0522 13.5250 130.2574   3.9830 251.0670
   1609.2000  5.2555 20.3584  0.0180 13.4018 135.4394   4.1307 242.0897
   1609.3000  5.2409 20.3201 -0.0250 13.2359 144.3033   4.1758 239.4751
   1609.4000  5.2069 20.3132  0.0079 12.6546 153.0108   4.1840 239.0057
   1609.5000  5.2033 20.2636  0.0186 12.2076 158.1330   4.2435 235.6545
   1609.6000  5.2272 20.2476 -0.0140 11.6763 158.5495   4.2629 234.5821
   1609.7000  5.3979 20.2149 -0.0876 10.5549 155.0114   4.3029 232.4014
   1609.8000  5.5418 20.2264 -0.0012 10.0764 149.3066   4.2888 233.1655
   1609.9000  5.7074 20.2241 -0.0232  9.7125 143.2359   4.2916 233.0133
   1610.0000  6.0087 20.2426 -0.0403  9.4180 138.1398   4.2690 234.2469
   1610.1000  6.0902 20.2743  0.0262  9.5051 135.0577   4.2306 236.3731
   1610.2000  6.1070 20.3431 -0.0089  9.7472 134.2912   4.1487 241.0394
   1610.3000  6.0275 20.3088 -0.0418 10.6548 135.6723   4.1893 238.7034
   1610.4000  6.0045 20.2247  0.0287 11.2645 139.0511   4.2909 233.0513
   1610.5000  6.0299 19.8203 -0.0156 11.9193 144.6350   4.8234 207.3226
   1610.6000  6.2268 19.5111 -0.0253 13.1571 152.7409   5.2840 189.2506
   1610.7000  6.3652 19.1193 -0.0009 13.6654 162.4179   5.9423 168.2850
   1610.8000  6.5006 18.3450  0.1044 14.0849 171.9748   7.5317 132.7721
   1610.9000  6.6124 18.0066 -0.0781 14.4348 180.1974   8.3670 119.5172
   1611.0000  6.7117 17.7227 -0.0043 15.0477 185.5356   9.1439 109.3625
   1611.1000  6.6944 17.3187  0.0595 15.3578 187.8429  10.3823  96.3178
   1611.2000  6.6459 17.2279 -0.1013 15.6740 188.0878  10.6839  93.5988
   1611.3000  6.5268 17.1932 -0.0024 16.2211 188.2537  10.8016  92.5789
   1611.4000  6.4864 17.2024  0.0970 16.3760 189.5264  10.7702  92.8488
   1611.5000  6.4674 17.2170 -0.1740 16.4012 191.2825  10.7207  93.2775
   1611.6000  6.4757 17.2360 -0.0290 15.9583 192.6573  10.6567  93.8377
   1611.7000  6.4871 17.2492  0.1190 15.4728 193.7251  10.6124  94.2294
   1611.8000  6.4928 17.2043 -0.1456 14.8247 195.2978  10.7638  92.9040
   1611.9000  6.4345 17.1848  0.0299 13.2051 197.0261  10.8302  92.3344
   1612.0000  6.3354 17.1691 -0.0174 12.3691 196.5750  10.8840  91.8780
   1612.1000  6.1788 17.1500 -0.0488 11.6342 192.2843  10.9499  91.3250
   1612.2000  5.7700 17.1298  0.0696 10.8246 184.2909  11.0199  90.7449
   1612.3000  5.5735 17.1065  0.0165 10.8772 173.5763  11.1013  90.0795
   1612.4000  5.3986 17.1265 -0.0595 11.2602 162.1294  11.0314  90.6503
   1612.5000  5.0816 17.1670 -0.0110 12.8544 152.5248  10.8912  91.8172
   1612.6000  4.9264 17.2347 -0.0403 13.9103 146.8792  10.6610  93.7998
   1612.7000  4.7734 17.5941 -0.0061 15.0170 145.2349   9.5204 105.0376
   1612.8000  4.6227 17.8868  0.0555 16.0924 144.7517   8.6859 115.1291
   1612.9000  4.3303 18.2628 -0.0214 17.9485 143.0860   7.7260 129.4331
   1613.0000  4.2022 19.1868 -0.0180 18.7038 139.4346   5.8225 171.7475
   1613.1000  4.1007 19.7245  0.0690 19.3718 135.4063   4.9609 201.5763
   1613.2000  4.0028 20.2039  0.0095 20.6198 133.0514   4.3165 231.6692
   1613.3000  4.0092 20.6080 -0.0378 21.2721 132.7416   3.8510 259.6728
   1613.4000  4.0503 21.1898 -0.0015 21.9589 132.7614   3.2870 304.2288
   1613.5000  4.1215 21.3718  0.0360 22.6570 131.5548   3.1331 319.1727
   1613.6000  4.3269 21.4583 -0.0027 23.8926 129.6092   3.0635 326.4240
   1613.7000  4.4465 21.6463 -0.0131 24.3164 127.9117   2.9192 342.5596
   1613.8000  4.5665 21.7606 -0.0256 24.5518 126.4619   2.8362 352.5844
   1613.9000  4.7630 21.8976 -0.0815 24.4125 124.2441   2.7410 364.8304
   1614.0000  4.8239 22.2389 -0.0131 24.0723 120.2487   2.5234 396.2907
   1614.1000  4.8680 22.4503  0.0409 23.5986 113.9975   2.4015 416.4064
