~Version Information
 VERS.                  2.0:   CWLS log ASCII Standard -VERSION 2.0
 WRAP.                   NO:   One line per depth step
~Well Information Block
#MNEM.UNIT     VALUE/NAME     DESCRIPTION
#---------     -----------    ---------------------------
 STRT.M              1491.0000: START DEPTH
 STOP.M              2343.0000: STOP DEPTH
 STEP.M                 0.1000: STEP DEPTH
 NULL.                 -999.25: NULL VALUE
 LOC .        X  4.914.974,61:  LOCATION
 FL3 .               Z  548.65:  LOCATIONLINE3
 FL2 .         Y  2.533.371,25:  LOCATIONLINE2
 FL1 .        X  4.914.974,641:  LOCATIONLINE1
 DMF .                      KB:  DRILL MEAS FROM
 PDAT.                      GL:  PERMANENT DATUM
 CNTY.                  CHUBUT:  COUNTY NAME
 FLD .                   ZORRO:  FIELD NAME
 WELL.                 PZ-1645:  WELL NAME
 COMP.     PAN AMERICAN ENERGY LLC.:  COMPANY
 DATE.             24-Jan-2024:  DATE
 SVCO.             Halliburton:  SERVICECONAME
 PROV.                  CHUBUT:  PROVINCE
 STAT.                  CHUBUT:  STATE NAME
 CTRY.               ARGENTINA:  COUNTRY NAME
 APIL.                     API:  APILABEL
 HIDE.                        :  WELLNAMEOPERAT
 UWI .                     N/A:  UNIQUE WELL IDENTIFIER
 API .                     N/A:  API NUMBER
 RANG.                     N/A:  RANGE
 TOWN.                     N/A:  TOWNSHIP
 SECT.                     N/A:  SECTION
 SON .                     N/A:  JOB NUMBER
 SRVC.             Halliburton:  SERVICE COMPANY
 LMF .                      KB:  LOG MEASURED FROM
 LATI.deg               0.0000:  LATITUDE
 LONG.deg               0.0000:  LONGITUDE
 EGL .m               548.6500:  GROUND ELEVATION
 BAP .m                 0.0000:  GL ELEV ONSHORE
 GVFD.g                 1.0000:  GRAVITY FIELD
 EKB .m               553.2500:  KB ELEVATION
 EDF .m               553.2500:  DF ELEVATION
~Curve Information Block
#MNEM.UNIT                 API CODE     Curve Description
#---------               -----------    ---------------------------
 DEPT.M                 00 000 000 000:  Depth
 AMP .mV                00 000 000 000:  Pipe Amplitude
 SGFF.cu                00 000 000 000:  Far Formation Sigma
 CCL .mV                00 000 000 000:  Collar Locator
 GR  .api               00 000 000 000:  Gamma API
 NDSN.cps               00 000 000 000:  DSN Near Counts
 RT90_HAT.ohmm          00 000 000 000:  Emulated 90 in Resistivity
 CT90_HAT.mmo/m          00 000 000 000:  Emulated 90 in Conductivity 
#Other Information
#
#WARRANTY: Halliburton will use its best efforts to furnish customers with 
#accurate information and interpretations that are part of, and incident to, the services 
#provided.  However, Halliburton cannot and does not warrant the accuracy 
#or correctness of such information and interpretations.  Under no circumstances should any 
#such information or interpretation be relied upon as the sole basis for any drilling, 
#completion, production, or financial decision or any procedure involving any risk to the 
#safety of any drilling venture, drilling rig or its crew or any other third party.  The 
#Customer has full responsibility for all drilling, completion and production operation.  
#Halliburton makes no representations or warranties, either expressed or 
#implied, including, but not limited to, the implied warranties of merchantability or fitness 
#for a particular purpose, with respect to the services rendered.  In no event will 
#Halliburton be liable for failure to obtain any particular results or for 
#any damages, including, but not limited to, indirect, special or consequential damages, 
#resulting from the use of any information or interpretation provided by Halliburton.
#
~A   DEPT      AMP    SGFF     CCL     GR      NDSN   RT90_HAT CT90_HAT 
# ...
   1659.0000  4.2333 24.1498  0.0543 20.7511  90.0446   1.6999 588.2699
   1659.1000  4.1968 24.1831 -0.0592 20.3923  92.4855   1.6900 591.7159
   1659.2000  4.2165 24.1267 -0.0739 20.1284  94.8836   1.7067 585.9261
   1659.3000  4.2934 24.0145  0.0027 19.9990  97.6515   1.7410 574.3825
   1659.4000  4.5084 23.8205 -0.0406 20.0391 100.7604   1.8038 554.3852
   1659.5000  4.5674 23.2720 -0.0943 20.0933 104.4989   2.0077 498.0824
   1659.6000  4.5657 22.9854  0.0824 20.1057 109.3824   2.1318 469.0872
   1659.7000  4.4712 22.6447 -0.0082 20.0164 115.2864   2.2974 435.2747
   1659.8000  4.4524 21.9212 -0.0400 19.9803 120.8107   2.7251 366.9590
   1659.9000  4.4764 21.5912 -0.0211 19.9935 124.1210   2.9605 337.7808
   1660.0000  4.5908 21.3475 -0.0293 20.1473 124.3523   3.1531 317.1482
   1660.1000  4.6362 21.0484  0.0455 20.2156 121.9460   3.4136 292.9459
   1660.2000  4.6567 20.9971  0.0015 20.2223 117.3587   3.4611 288.9255
   1660.3000  4.6323 21.0516 -0.0610 20.0077 111.8251   3.4106 293.2036
   1660.4000  4.6050 21.3478  0.0089 19.8376 107.5532   3.1529 317.1683
   1660.5000  4.5784 21.6239  0.0034 19.6880 105.9308   2.9359 340.6111
   1660.6000  4.5228 21.9192 -0.1093 19.6212 106.6709   2.7264 366.7841
   1660.7000  4.4794 22.4455 -0.0470 19.7457 108.4091   2.4042 415.9388
   1660.8000  4.4195 22.6289  0.0235 19.9730 110.1270   2.3056 433.7266
   1660.9000  4.2831 22.7989 -0.0064 20.6464 111.7823   2.2199 450.4708
   1661.0000  4.2370 22.8709  0.0241 21.0249 113.2925   2.1852 457.6240
   1661.1000  4.2217 22.8350 -0.0247 21.3748 114.1208   2.2024 454.0501
   1661.2000  4.2379 22.7600 -0.0653 21.6507 114.1866   2.2391 446.6080
   1661.3000  4.3384 22.6666  0.0436 21.8349 113.9043   2.2861 437.4262
   1661.4000  4.4143 22.3298 -0.0674 21.7042 113.4644   2.4699 404.8747
   1661.5000  4.5054 22.0976  0.0409 21.4244 112.8322   2.6103 383.0977
   1661.6000  4.6880 21.8515  0.0708 20.4736 112.2907   2.7725 360.6853
   1661.7000  4.7372 21.4634 -0.0519 19.8419 112.1100   3.0594 326.8615
   1661.8000  4.7363 21.2948  0.0571 19.1383 112.0649   3.1970 312.7932
   1661.9000  4.5997 21.1427 -0.0415 17.6679 111.5699   3.3284 300.4447
   1662.0000  4.4965 20.9327 -0.0903 17.0010 110.4506   3.5220 283.9296
   1662.1000  4.3968 20.9131  0.0058 16.4548 109.1754   3.5408 282.4221
   1662.2000  4.2835 20.8772  0.0168 15.8909 108.1108   3.5756 279.6733
   1662.3000  4.2920 20.8351 -0.0168 15.9079 107.0922   3.6169 276.4799
   1662.4000  4.3393 20.7336  0.0491 16.1063 105.6966   3.7192 268.8750
   1662.5000  4.4821 20.6829 -0.0082 16.8539 104.2536   3.7717 265.1324
   1662.6000  4.5417 20.6227 -0.0522 17.2627 103.7602   3.8353 260.7358
   1662.7000  4.5766 20.4736  0.1230 17.5932 104.7590   3.9986 250.0875
   1662.8000  4.5723 20.4228 -0.0949 17.8078 107.2011   4.0562 246.5362
   1662.9000  4.5580 20.4036 -0.0931 17.6835 110.8731   4.0782 245.2062
   1663.0000  4.5550 20.3679  0.0833 17.4827 115.2587   4.1196 242.7420
   1663.1000  4.5671 20.3863 -0.1358 17.3139 120.1686   4.0982 244.0096
   1663.2000  4.6134 20.4294  0.0281 17.5503 125.1239   4.0486 246.9989
   1663.3000  4.6377 20.5806  0.0031 18.1079 129.3013   3.8805 257.6987
   1663.4000  4.6625 20.6866 -0.1135 18.9477 131.4808   3.7678 265.4069
   1663.5000  4.7274 20.8423  0.0708 21.0091 130.3055   3.6098 277.0237
   1663.6000  4.7733 21.1340 -0.0131 21.9168 125.5816   3.3362 299.7422
   1663.7000  4.8212 21.2846 -0.0278 22.5704 118.6372   3.2056 311.9541
   1663.8000  4.8542 21.4618 -0.0458 23.0478 110.5469   3.0607 326.7227
   1663.9000  4.8099 21.6318  0.0717 23.0364 102.1450   2.9300 341.2969
   1664.0000  4.7257 22.0099  0.0394 23.0356  94.5412   2.6664 375.0375
   1664.1000  4.5251 22.1792  0.0140 23.4398  89.0410   2.5596 390.6860
   1664.2000  4.4614 22.3653 -0.0293 23.8550  86.8970   2.4494 408.2632
   1664.3000  4.4390 22.5925  0.0070 24.3047  87.6986   2.3246 430.1815
   1664.4000  4.4622 22.6000  0.0256 24.8191  90.3500   2.3207 430.9045
   1664.5000  4.4645 22.5298 -0.0879 24.6956  93.7825   2.3581 424.0703
   1664.6000  4.4499 22.1712 -0.0293 24.2776  97.2918   2.5645 389.9395
   1664.7000  4.4538 21.9569  0.0714 22.7877 100.6133   2.7013 370.1921
   1664.8000  4.5461 21.7095 -0.0864 21.9294 104.0649   2.8729 348.0803
   1664.9000  4.7450 21.2214  0.0095 21.1559 107.6882   3.2595 306.7955
   1665.0000  5.0576 21.0175  0.0894 20.5592 111.6645   3.4421 290.5203
   1665.1000  5.8525 20.8424  0.0342 20.0334 115.7913   3.6097 277.0313
   1665.2000  6.1803 20.5588 -0.3339 20.0529 119.4329   3.9042 256.1344
   1665.3000  6.3826 20.5209 -0.0192 20.1791 121.7760   3.9458 253.4340
   1665.4000  6.4879 20.5081  0.0385 20.5043 121.9732   3.9600 252.5253
   1665.5000  6.5075 20.5454  0.1013 20.6244 120.3040   3.9188 255.1801
   1665.6000  6.5483 20.7400 -0.4947 20.6925 117.9369   3.7127 269.3458
   1665.7000  6.5654 20.8953 -0.0073 20.6383 115.3666   3.5580 281.0568
   1665.8000  6.4569 21.0731 -0.0082 20.4956 111.9613   3.3910 294.8983
   1665.9000  6.2666 21.3968 -0.0452 20.2649 107.0186   3.1128 321.2542
   1666.0000  6.0395 21.5356  0.0354 19.9457 100.7698   3.0030 333.0003
   1666.1000  5.6683 21.6366  0.0412 19.0902  94.9746   2.9264 341.7168
   1666.2000  5.5566 21.7663 -0.0388 18.5939  91.1721   2.8321 353.0949
   1666.3000  5.4723 21.7826 -0.0604 18.0818  89.8259   2.8206 354.5345
   1666.4000  5.3109 21.7885  0.0244 17.0981  90.6724   2.8164 355.0632
   1666.5000  5.2354 21.7289  0.0668 16.6694  92.7850   2.8589 349.7849
   1666.6000  5.1841 21.7059 -0.0534 16.3088  95.1534   2.8755 347.7656
   1666.7000  5.2097 21.6977  0.0232 15.8539  97.1329   2.8815 347.0415
   1666.8000  5.2895 21.6520  0.3046 15.7728  99.2694   2.9150 343.0532
   1666.9000  5.3944 21.6220 -0.6912 15.7898 103.1143   2.9373 340.4487
   1667.0000  5.5699 21.5973  0.0406 16.1085 108.6820   2.9559 338.3065
   1667.1000  5.5974 21.5672  0.1050 16.4047 114.2092   2.9787 335.7169
   1667.2000  5.5780 21.3441  0.0696 16.7865 117.8199   3.1559 316.8668
   1667.3000  5.4320 21.1803 -0.0964 17.7680 119.0399   3.2953 303.4625
   1667.4000  5.3303 21.0166 -0.0851 18.3425 118.3908   3.4429 290.4528
   1667.5000  5.2373 20.7099  0.0043 18.9561 116.0546   3.7436 267.1226
   1667.6000  5.1804 20.5486  0.0552 20.2342 111.9487   3.9153 255.4083
   1667.7000  5.2307 20.4348 -0.0769 20.8514 107.1735   4.0425 247.3717
   1667.8000  5.3058 20.3494  0.0598 21.4037 103.4200   4.1413 241.4701
   1667.9000  5.3740 20.3239 -0.0372 21.8411 101.3073   4.1713 239.7334
   1668.0000  5.4547 20.3092 -0.0241 22.1806 100.7511   4.1888 238.7319
   1668.1000  5.5103 20.4234  0.0742 22.0223 102.0565   4.0555 246.5787
   1668.2000  5.6135 20.5603 -0.0616 21.6457 105.6816   3.9026 256.2394
   1668.3000  5.9316 20.7301  0.0043 20.4085 110.7988   3.7228 268.6150
   1668.4000  6.0638 21.1145  0.0235 19.6931 115.0411   3.3536 298.1870
   1668.5000  6.1164 21.3485  0.0479 19.0371 116.6667   3.1523 317.2287
   1668.6000  5.9258 21.5849 -0.0259 18.2639 115.6518   2.9653 337.2340
   1668.7000  5.7200 21.7630 -0.0555 18.2677 113.1327   2.8345 352.7959
   1668.8000  5.4880 21.9162  0.0287 18.5434 110.3264   2.7285 366.5018
   1668.9000  5.0484 21.9084  0.1501 19.6435 107.9452   2.7337 365.8046
   1669.0000  4.8581 21.8024 -0.1410 20.2338 106.6629   2.8066 356.3030
   1669.1000  4.6887 21.4622  0.0156 20.6669 106.7979   3.0604 326.7547
   1669.2000  4.4233 21.2764  0.0696 20.6209 108.3119   3.2125 311.2840
   1669.3000  4.3372 21.1066 -0.1056 20.0677 110.8458   3.3607 297.5571
   1669.4000  4.2898 20.8062  0.0317 19.2361 114.1014   3.6457 274.2957
   1669.5000  4.3248 20.7196 -0.0436 17.3626 118.1526   3.7336 267.8380
   1669.6000  4.4007 20.6673 -0.0208 16.7015 123.0763   3.7880 263.9915
   1669.7000  4.5001 20.5701  0.0366 16.4414 128.6860   3.8919 256.9439
   1669.8000  4.6076 20.5243 -0.0500 16.6625 134.2801   3.9421 253.6719
   1669.9000  4.8030 20.4672  0.0073 18.4237 138.2713   4.0058 249.6380
   1670.0000  4.8793 20.3263  0.0482 19.7105 140.2216   4.1685 239.8945
   1670.1000  4.9369 20.2378 -0.0815 21.0275 140.8290   4.2749 233.9236
