~Version Information
 VERS.                  2.0:   CWLS log ASCII Standard -VERSION 2.0
 WRAP.                   NO:   One line per depth step
~Well Information Block
#MNEM.UNIT     VALUE/NAME     DESCRIPTION
#---------     -----------    ---------------------------
 STRT.M              1491.0000: START DEPTH
 STOP.M              2343.0000: STOP DEPTH
 STEP.M                 0.1000: STEP DEPTH
 NULL.                 -999.25: NULL VALUE
 LOC .        X  4.914.974,61:  LOCATION
 FL3 .               Z  548.65:  LOCATIONLINE3
 FL2 .         Y  2.533.371,25:  LOCATIONLINE2
 FL1 .        X  4.914.974,641:  LOCATIONLINE1
 DMF .                      KB:  DRILL MEAS FROM
 PDAT.                      GL:  PERMANENT DATUM
 CNTY.                  CHUBUT:  COUNTY NAME
 FLD .                   ZORRO:  FIELD NAME
 WELL.                 PZ-1645:  WELL NAME
 COMP.     PAN AMERICAN ENERGY LLC.:  COMPANY
 DATE.             24-Jan-2024:  DATE
 SVCO.             Halliburton:  SERVICECONAME
 PROV.                  CHUBUT:  PROVINCE
 STAT.                  CHUBUT:  STATE NAME
 CTRY.               ARGENTINA:  COUNTRY NAME
 APIL.                     API:  APILABEL
 HIDE.                        :  WELLNAMEOPERAT
 UWI .                     N/A:  UNIQUE WELL IDENTIFIER
 API .                     N/A:  API NUMBER
 RANG.                     N/A:  RANGE
 TOWN.                     N/A:  TOWNSHIP
 SECT.                     N/A:  SECTION
 SON .                     N/A:  JOB NUMBER
 SRVC.             Halliburton:  SERVICE COMPANY
 LMF .                      KB:  LOG MEASURED FROM
 LATI.deg               0.0000:  LATITUDE
 LONG.deg               0.0000:  LONGITUDE
 EGL .m               548.6500:  GROUND ELEVATION
 BAP .m                 0.0000:  GL ELEV ONSHORE
 GVFD.g                 1.0000:  GRAVITY FIELD
 EKB .m               553.2500:  KB ELEVATION
 EDF .m               553.2500:  DF ELEVATION
~Curve Information Block
#MNEM.UNIT                 API CODE     Curve Description
#---------               -----------    ---------------------------
 DEPT.M                 00 000 000 000:  Depth
 AMP .mV                00 000 000 000:  Pipe Amplitude
 SGFF.cu                00 000 000 000:  Far Formation Sigma
 CCL .mV                00 000 000 000:  Collar Locator
 GR  .api               00 000 000 000:  Gamma API
 NDSN.cps               00 000 000 000:  DSN Near Counts
 RT90_HAT.ohmm          00 000 000 000:  Emulated 90 in Resistivity
 CT90_HAT.mmo/m          00 000 000 000:  Emulated 90 in Conductivity 
#Other Information
#
#WARRANTY: Halliburton will use its best efforts to furnish customers with 
#accurate information and interpretations that are part of, and incident to, the services 
#provided.  However, Halliburton cannot and does not warrant the accuracy 
#or correctness of such information and interpretations.  Under no circumstances should any 
#such information or interpretation be relied upon as the sole basis for any drilling, 
#completion, production, or financial decision or any procedure involving any risk to the 
#safety of any drilling venture, drilling rig or its crew or any other third party.  The 
#Customer has full responsibility for all drilling, completion and production operation.  
#Halliburton makes no representations or warranties, either expressed or 
#implied, including, but not limited to, the implied warranties of merchantability or fitness 
#for a particular purpose, with respect to the services rendered.  In no event will 
#Halliburton be liable for failure to obtain any particular results or for 
#any damages, including, but not limited to, indirect, special or consequential damages, 
#resulting from the use of any information or interpretation provided by Halliburton.
#
~A   DEPT      AMP    SGFF     CCL     GR      NDSN   RT90_HAT CT90_HAT 
# ...
   2219.0000 14.1886 18.1351 -0.0153 21.7430 185.4827   8.0387 124.3982
   2219.1000 14.2617 17.9528  0.0287 21.6047 193.3123   8.5087 117.5268
   2219.2000 14.3088 17.6144 -0.0500 21.5518 199.5132   9.4599 105.7094
   2219.3000 14.3782 17.4686 -0.0110 21.9296 202.8929   9.9036 100.9734
   2219.4000 14.4278 17.3852  0.0592 22.4494 202.8261  10.1671  98.3565
   2219.5000 14.4883 17.4468 -0.1166 23.2337 198.5495   9.9718 100.2828
   2219.6000 14.5873 17.6342  0.0461 25.6402 190.7069   9.4013 106.3683
   2219.7000 14.5905 17.8882  0.1074 27.2118 182.0638   8.6821 115.1795
   2219.8000 14.5487 18.5886 -0.1303 28.9200 174.9725   6.9863 143.1373
   2219.9000 14.3756 18.9521  0.0766 32.1413 170.3549   6.2512 159.9693
   2220.0000 14.2932 19.2979  0.0613 33.2895 167.8497   5.6313 177.5789
   2220.1000 14.2410 19.6255 -0.0360 33.9170 166.7233   5.1078 195.7790
   2220.2000 14.2453 20.2425  0.0003 33.3652 167.0103   4.2691 234.2414
   2220.3000 14.2875 20.4835  0.0659 32.2890 169.2596   3.9874 250.7900
   2220.4000 14.3293 20.7332 -0.0854 30.8844 173.5047   3.7196 268.8461
   2220.5000 14.2857 21.1767 -0.0549 27.9785 178.6643   3.2984 303.1773
   2220.6000 14.1685 21.3070 -0.0299 26.9135 183.1877   3.1868 313.7944
   2220.7000 14.0179 21.3816  0.1340 26.3103 186.3793   3.1251 319.9898
   2220.8000 13.8906 21.4579 -0.4825 26.1985 187.8169   3.0638 326.3921
   2220.9000 13.8997 21.4737  0.0760 26.9634 186.7273   3.0513 327.7292
   2221.0000 14.0484 21.4796  0.1019 27.3506 183.5009   3.0466 328.2347
   2221.1000 14.2405 21.6558 -0.1773 27.3646 179.7375   2.9122 343.3830
   2221.2000 14.5254 21.7736  0.1346 25.5785 177.3519   2.8269 353.7444
   2221.3000 14.5433 21.8638 -0.0162 23.7802 177.1254   2.7641 361.7814
   2221.4000 14.4754 21.9357 -0.0262 21.6131 179.1010   2.7154 368.2699
   2221.5000 14.3551 21.9477  0.0784 19.3556 182.3254   2.7074 369.3580
   2221.6000 14.1505 21.9252 -0.1038 15.6593 184.9136   2.7224 367.3230
   2221.7000 14.1386 21.8974 -0.0919 14.5991 185.1638   2.7411 364.8170
   2221.8000 14.1955 21.9450  0.1212 14.1623 183.0003   2.7092 369.1127
   2221.9000 14.4001 22.0345 -0.2737 14.9768 178.6607   2.6505 377.2873
   2222.0000 14.4564 22.1869 -0.0479 16.0139 172.6670   2.5549 391.4048
   2222.1000 14.4293 22.4843  0.1044 17.2967 165.6254   2.3828 419.6743
   2222.2000 14.1281 22.6118 -0.1633 20.1132 158.4833   2.3145 432.0587
   2222.3000 13.9178 22.6928  0.1846 21.4579 152.9503   2.2728 439.9859
   2222.4000 13.7164 22.7634 -0.1031 22.6780 150.8388   2.2374 446.9473
   2222.5000 13.4211 22.7103 -0.0717 24.6750 152.5673   2.2639 441.7156
   2222.6000 13.3449 22.5975  0.1044 25.4664 156.7503   2.3220 430.6632
   2222.7000 13.3152 22.3686 -0.0458 26.1392 160.5770   2.4475 408.5802
   2222.8000 13.3376 22.2590  0.0027 27.1049 162.2303   2.5114 398.1843
   2222.9000 13.3513 22.1414  0.1105 27.3376 161.3952   2.5829 387.1617
   2223.0000 13.3426 21.9360  0.0864 27.3515 158.9392   2.7152 368.2970
   2223.1000 13.2036 21.8769  0.1132 26.6619 156.2696   2.7551 362.9632
   2223.2000 13.0677 21.8064  0.0833 26.0080 155.3422   2.8038 356.6588
   2223.3000 12.9074 21.7299 -0.4056 25.2280 157.6535   2.8581 349.8828
   2223.4000 12.7509 21.5419  0.1053 24.3943 163.1202   2.9981 333.5446
   2223.5000 12.5427 21.4624  0.0650 22.8410 169.3779   3.0602 326.7760
   2223.6000 12.5048 21.4626 -0.0562 22.2298 173.4360   3.0600 326.7974
   2223.7000 12.5009 21.5400 -0.1343 21.7951 174.4379   2.9996 333.3778
   2223.8000 12.5390 21.6844  0.2106 21.6572 174.2024   2.8912 345.8771
   2223.9000 12.5618 21.8765 -0.1523 22.0314 175.6768   2.7554 362.9237
   2224.0000 12.5850 22.2474  0.0412 22.7102 179.9084   2.5183 397.0933
   2224.1000 12.6278 22.3292  0.0391 24.7772 186.5505   2.4702 404.8255
   2224.2000 12.6381 22.3693 -0.1044 25.9942 193.8425   2.4471 408.6470
   2224.3000 12.6464 22.1695  0.1080 27.2202 200.1801   2.5655 389.7876
   2224.4000 12.7364 22.0218 -0.1483 29.5673 204.2656   2.6587 376.1237
   2224.5000 12.8406 21.8790  0.2380 30.7350 204.9565   2.7537 363.1478
   2224.6000 12.9647 21.6557 -0.1080 31.9608 202.3236   2.9123 343.3712
   2224.7000 13.1643 21.6968 -0.0284 34.5971 197.6789   2.8821 346.9692
   2224.8000 13.2237 21.8150  0.1312 35.8493 193.0669   2.7978 357.4237
   2224.9000 13.2743 22.2562 -0.1141 36.8544 189.2571   2.5131 397.9149
   2225.0000 13.3908 22.5083  0.0043 37.4500 185.1222   2.3697 421.9944
   2225.1000 13.4401 22.7797 -0.0717 36.8481 179.4198   2.2293 448.5713
   2225.2000 13.4618 23.1412 -0.1846 35.6767 172.4033   2.0627 484.8015
   2225.3000 13.4449 23.2653 -0.0790 34.0787 164.5770   2.0105 497.3887
   2225.4000 13.2625 23.3399 -0.0656 30.4294 156.8343   1.9802 504.9995
   2225.5000 13.0830 23.3892  0.1746 28.7754 149.5973   1.9606 510.0479
   2225.6000 12.8579 23.4674  0.0595 27.4088 144.1672   1.9303 518.0542
   2225.7000 12.4461 23.5183 -0.0906 25.6332 142.0878   1.9110 523.2863
   2225.8000 12.3424 23.5788  0.1089 25.1489 143.3526   1.8886 529.4927
   2225.9000 12.3097 23.7693 -0.0543 24.8584 146.9563   1.8211 549.1187
   2226.0000 12.3183 23.8947  0.1462 24.7027 152.0994   1.7793 562.0188
   2226.1000 12.3221 24.0158 -0.0034 24.7991 158.2531   1.7406 574.5145
   2226.2000 12.3403 24.2408  0.2090 24.9876 163.9568   1.6733 597.6215
   2226.3000 12.4744 24.3566 -0.1614 25.4947 166.7184   1.6408 609.4588
   2226.4000 12.5741 24.4421 -0.0803 25.7006 164.0714   1.6177 618.1616
   2226.5000 12.6635 24.4727  0.3922 25.7872 156.0918   1.6096 621.2724
   2226.6000 12.7241 24.3832 -0.6116 25.3637 145.6334   1.6336 612.1450
   2226.7000 12.6771 24.1678  0.2994 24.7708 136.8661   1.6945 590.1446
   2226.8000 12.5820 23.0461 -0.0693 23.9026 132.8244   2.1044 475.1949
   2226.9000 12.4460 22.1936 -0.0568 22.7799 135.6134   2.5508 392.0338
   2227.0000 12.0708 21.1058 -0.0647 20.0332 145.1896   3.3614 297.4951
   2227.1000 11.8377 19.9066  0.0470 18.6124 160.0465   4.7034 212.6122
   2227.2000 11.5864 17.7545 -0.0797 17.3096 178.6611   9.0532 110.4582
   2227.3000 11.1194 16.9611  0.1157 15.3563 198.7458  11.6233  86.0341
   2227.4000 10.9528 16.3133 -0.0558 14.7366 219.8780  14.2694  70.0800
   2227.5000 10.8493 15.3831 -0.0049 14.3032 239.8574  19.1519  52.2141
   2227.6000 10.8350 15.1012  0.0903 13.7346 255.6962  20.9308  47.7765
   2227.7000 10.9226 14.9259 -0.1718 13.4956 265.3209  22.1163  45.2155
   2227.8000 11.0683 14.8331  0.1007 13.2599 269.0498  22.7697  43.9180
   2227.9000 11.2558 14.8760  0.0296 13.0379 270.2088  22.4654  44.5129
   2228.0000 11.6357 14.9893 -0.0848 12.7508 270.4196  21.6803  46.1248
   2228.1000 11.7723 15.3400  0.1465 12.7528 268.6493  19.4140  51.5092
   2228.2000 11.8617 15.5893  0.0195 12.8885 263.9314  17.9446  55.7271
   2228.3000 11.9466 15.8558 -0.0772 13.6006 256.8236  16.4942  60.6274
   2228.4000 11.9659 16.5243  0.1874 14.1617 248.8553  13.3467  74.9249
   2228.5000 11.9761 16.9127 -0.0934 14.8351 241.7786  11.8026  84.7271
   2228.6000 11.9742 17.3787 -0.0217 16.4463 236.2416  10.1879  98.1557
   2228.7000 11.9571 17.9480  0.0510 17.3630 231.9217   8.5214 117.3516
   2228.8000 11.9162 19.3398 -0.0497 18.3399 226.3316   5.5610 179.8238
   2228.9000 11.7410 20.1964  0.1529 20.3642 217.1377   4.3258 231.1711
   2229.0000 11.6349 21.1115  0.0189 21.3073 204.3424   3.3563 297.9471
   2229.1000 11.5514 22.9655 -0.0885 22.1165 189.8538   2.1410 467.0714
   2229.2000 11.5003 23.7945 -0.3110 23.1051 177.5187   1.8126 551.6937
   2229.3000 11.5210 24.4242  0.3500 23.2261 170.4649   1.6225 616.3328
   2229.4000 11.5561 24.8608  0.1706 23.0957 169.5960   1.5147 660.1967
   2229.5000 11.6065 24.6854  0.0577 22.1572 174.1825   1.5559 642.7148
   2229.6000 11.5781 24.2585 -0.0342 21.4030 182.5961   1.6683 599.4125
   2229.7000 11.4907 22.7616  0.0452 20.5096 193.9617   2.2383 446.7676
   2229.8000 11.3502 21.8045  0.0687 19.5322 207.0783   2.8052 356.4808
   2229.9000 11.0573 20.7497 -0.2524 17.6042 219.8446   3.7028 270.0659
   2230.0000 10.9965 18.6420  0.0970 16.7935 232.9305   6.8725 145.5075
   2230.1000 11.0235 17.6488 -0.0171 16.1499 248.3622   9.3583 106.8570
