~Version Information
 VERS.                  2.0:   CWLS log ASCII Standard -VERSION 2.0
 WRAP.                   NO:   One line per depth step
~Well Information Block
#MNEM.UNIT     VALUE/NAME     DESCRIPTION
#---------     -----------    ---------------------------
 STRT.M              1491.0000: START DEPTH
 STOP.M              2343.0000: STOP DEPTH
 STEP.M                 0.1000: STEP DEPTH
 NULL.                 -999.25: NULL VALUE
 LOC .        X  4.914.974,61:  LOCATION
 FL3 .               Z  548.65:  LOCATIONLINE3
 FL2 .         Y  2.533.371,25:  LOCATIONLINE2
 FL1 .        X  4.914.974,641:  LOCATIONLINE1
 DMF .                      KB:  DRILL MEAS FROM
 PDAT.                      GL:  PERMANENT DATUM
 CNTY.                  CHUBUT:  COUNTY NAME
 FLD .                   ZORRO:  FIELD NAME
 WELL.                 PZ-1645:  WELL NAME
 COMP.     PAN AMERICAN ENERGY LLC.:  COMPANY
 DATE.             24-Jan-2024:  DATE
 SVCO.             Halliburton:  SERVICECONAME
 PROV.                  CHUBUT:  PROVINCE
 STAT.                  CHUBUT:  STATE NAME
 CTRY.               ARGENTINA:  COUNTRY NAME
 APIL.                     API:  APILABEL
 HIDE.                        :  WELLNAMEOPERAT
 UWI .                     N/A:  UNIQUE WELL IDENTIFIER
 API .                     N/A:  API NUMBER
 RANG.                     N/A:  RANGE
 TOWN.                     N/A:  TOWNSHIP
 SECT.                     N/A:  SECTION
 SON .                     N/A:  JOB NUMBER
 SRVC.             Halliburton:  SERVICE COMPANY
 LMF .                      KB:  LOG MEASURED FROM
 LATI.deg               0.0000:  LATITUDE
 LONG.deg               0.0000:  LONGITUDE
 EGL .m               548.6500:  GROUND ELEVATION
 BAP .m                 0.0000:  GL ELEV ONSHORE
 GVFD.g                 1.0000:  GRAVITY FIELD
 EKB .m               553.2500:  KB ELEVATION
 EDF .m               553.2500:  DF ELEVATION
~Curve Information Block
#MNEM.UNIT                 API CODE     Curve Description
#---------               -----------    ---------------------------
 DEPT.M                 00 000 000 000:  Depth
 AMP .mV                00 000 000 000:  Pipe Amplitude
 SGFF.cu                00 000 000 000:  Far Formation Sigma
 CCL .mV                00 000 000 000:  Collar Locator
 GR  .api               00 000 000 000:  Gamma API
 NDSN.cps               00 000 000 000:  DSN Near Counts
 RT90_HAT.ohmm          00 000 000 000:  Emulated 90 in Resistivity
 CT90_HAT.mmo/m          00 000 000 000:  Emulated 90 in Conductivity 
#Other Information
#
#WARRANTY: Halliburton will use its best efforts to furnish customers with 
#accurate information and interpretations that are part of, and incident to, the services 
#provided.  However, Halliburton cannot and does not warrant the accuracy 
#or correctness of such information and interpretations.  Under no circumstances should any 
#such information or interpretation be relied upon as the sole basis for any drilling, 
#completion, production, or financial decision or any procedure involving any risk to the 
#safety of any drilling venture, drilling rig or its crew or any other third party.  The 
#Customer has full responsibility for all drilling, completion and production operation.  
#Halliburton makes no representations or warranties, either expressed or 
#implied, including, but not limited to, the implied warranties of merchantability or fitness 
#for a particular purpose, with respect to the services rendered.  In no event will 
#Halliburton be liable for failure to obtain any particular results or for 
#any damages, including, but not limited to, indirect, special or consequential damages, 
#resulting from the use of any information or interpretation provided by Halliburton.
#
~A   DEPT      AMP    SGFF     CCL     GR      NDSN   RT90_HAT CT90_HAT 
   1491.0000  5.9045 20.6684  0.0238 24.4276 149.0410   3.8540 259.4707
   1491.1000  5.8904 20.6052  0.0134 24.3190 149.8357   3.8540 259.4707
   1491.2000  5.9448 20.5752  0.0525 23.5935 148.6249   3.8864 257.3075
   1491.3000  5.9906 20.5407 -0.0940 22.8884 145.6323   3.9240 254.8420
   1491.4000  6.0221 20.5520 -0.0186 21.9597 140.6421   3.9116 255.6499
   1491.5000  6.0330 20.5665  0.0974 20.8463 134.0170   3.8958 256.6867
   1491.6000  6.0212 20.5728 -0.1120 18.2551 126.9994   3.8890 257.1355
   1491.7000  6.0037 20.5505 -0.0009 16.8790 121.5863   3.9133 255.5388
   1491.8000  5.9708 20.5554  0.0690 15.5285 119.0283   3.9079 255.8919
   1491.9000  5.8657 20.5526 -0.0058 13.2051 118.8142   3.9110 255.6891
   1492.0000  5.8225 20.5169 -0.0284 12.4044 119.8876   3.9502 253.1517
   1492.1000  5.8067 20.5397  0.0012 11.9559 122.2993   3.9251 254.7706
   1492.2000  5.8574 20.5603 -0.0046 12.3185 127.1658   3.9026 256.2394
   1492.3000  5.8988 20.5372 -0.0116 13.1411 135.4547   3.9278 254.5955
   1492.4000  5.9320 20.4860  0.0049 14.3257 145.8650   3.9846 250.9662
   1492.5000  5.9627 20.4063  0.0168 17.3267 155.9409   4.0751 245.3928
   1492.6000  5.9752 20.2978 -0.0363 18.8517 164.6055   4.2024 237.9592
   1492.7000  5.9952 20.0018 -0.0049 20.1989 171.4987   4.5752 218.5697
   1492.8000  6.0261 19.8687  0.0244 21.9732 176.0245   4.7557 210.2740
   1492.9000  6.0111 19.7471 -0.0436 22.3423 177.4381   4.9281 202.9180
   1493.0000  5.9773 19.5659 -0.0183 22.4142 175.2907   5.1987 192.3558
   1493.1000  5.9438 19.5079  0.0247 22.2707 170.7729   5.2890 189.0717
   1493.2000  5.9469 19.4931  0.0351 21.7138 166.2570   5.3123 188.2424
   1493.3000  5.9832 19.4822 -0.0491 21.4587 163.9518   5.3296 187.6313
   1493.4000  6.0237 19.5145  0.0064 21.2794 164.0722   5.2786 189.4442
   1493.5000  6.0585 19.5383  0.0232 21.1128 165.4771   5.2415 190.7851
   1493.6000  6.0392 19.6327 -0.0003 21.0428 167.1891   5.0970 196.1938
   1493.7000  5.9966 19.6833 -0.0696 20.9167 169.5689   5.0214 199.1476
   1493.8000  5.8634 19.7478  0.0186 20.4607 172.4386   4.9270 202.9633
   1493.9000  5.7849 19.8923  0.0342 20.2289 174.2622   4.7231 211.7253
   1494.0000  5.7077 20.0016  0.0061 20.1199 172.9653   4.5754 218.5601
   1494.1000  5.5781 20.1183 -0.0262 20.6368 167.6700   4.4238 226.0500
   1494.2000  5.5233 20.2257  0.0772 21.3122 158.2834   4.2897 233.1165
   1494.3000  5.4650 20.5232  0.0159 22.1781 146.5063   3.9433 253.5947
   1494.4000  5.3285 20.6600 -0.1285 23.8939 134.7432   3.7957 263.4560
   1494.5000  5.2759 20.8190  0.0269 24.4447 125.8211   3.6329 275.2622
   1494.6000  5.2671 21.0009  0.0485 24.6731 122.1354   3.4575 289.2263
   1494.7000  5.4325 21.0287 -0.0583 24.2784 124.8179   3.4317 291.4008
   1494.8000  5.5749 20.9910  0.0378 23.8647 131.9261   3.4668 288.4504
   1494.9000  5.7092 20.8252 -0.0027 23.4736 140.1841   3.6268 275.7252
   1495.0000  5.8050 20.7065 -0.0751 23.1943 147.0076   3.7472 266.8659
   1495.1000  5.8453 20.5888  0.0787 23.0492 151.4692   3.8716 258.2911
   1495.2000  5.7954 20.3780 -0.0665 23.1218 154.6215   4.1078 243.4393
   1495.3000  5.7050 20.3177 -0.0287 23.2343 157.0859   4.1787 239.3089
   1495.4000  5.4574 20.2894  0.0565 23.5123 158.6717   4.2124 237.3944
   1495.5000  5.3500 20.3659 -0.0833 23.6842 158.5089   4.1219 242.6066
   1495.6000  5.2867 20.4270  0.0552 23.8690 156.2248   4.0514 246.8282
   1495.7000  5.3182 20.4940 -0.0339 24.0937 153.2132   3.9757 251.5280
   1495.8000  5.3884 20.5615 -0.0327 24.0001 151.5211   3.9012 256.3314
   1495.9000  5.4646 20.6186  0.0537 23.7025 151.4294   3.8396 260.4438
   1496.0000  5.5697 20.5784  0.0528 22.5530 151.5702   3.8829 257.5395
   1496.1000  5.5972 20.4855  0.0009 21.8427 151.0126   3.9852 250.9284
   1496.2000  5.6216 20.2577 -0.0497 21.1774 150.3128   4.2507 235.2554
   1496.3000  5.6870 20.0907 -0.0018 20.3225 150.4929   4.4591 224.2605
   1496.4000  5.7190 19.8989 -0.0031 20.2304 151.1944   4.7140 212.1341
   1496.5000  5.7404 19.5308 -0.0381 20.3732 151.2034   5.2531 190.3638
   1496.6000  5.7711 19.3823  0.0061 21.2336 150.2425   5.4907 182.1261
   1496.7000  5.7999 19.2289  0.0436 21.8305 149.5338   5.7492 173.9372
   1496.8000  5.8352 19.0541  0.0095 22.4278 150.5420   6.0607 164.9975
   1496.9000  5.8617 19.0158  0.0284 22.9317 154.1565   6.1315 163.0922
   1497.0000  5.8516 19.0467 -0.0375 23.3542 160.0060   6.0743 164.6280
   1497.1000  5.8289 19.0793 -0.0073 23.1948 167.3130   6.0146 166.2621
   1497.2000  5.8155 19.0917  0.0235 22.8001 174.8995   5.9921 166.8864
   1497.3000  5.8677 19.0385 -0.0244 21.5221 181.8248   6.0894 164.2198
   1497.4000  5.9432 18.8859  0.0427 20.7707 188.1443   6.3784 156.7791
   1497.5000  6.0424 18.3694 -0.0681 20.0200 193.4840   7.4750 133.7793
   1497.6000  6.1453 18.0925  0.0565 19.3069 196.8192   8.1460 122.7596
   1497.7000  6.2582 17.8044 -0.0613 18.0788 196.8952   8.9128 112.1982
   1497.8000  6.2263 17.4861 -0.0635 17.5992 193.9041   9.8492 101.5311
   1497.9000  6.1289 17.5030  0.0211 17.2390 188.6246   9.7970 102.0721
   1498.0000  5.8243 17.6443 -0.0049 17.0037 180.4349   9.3716 106.7054
   1498.1000  5.6788 18.1954 -0.0253 17.1830 169.4881   7.8894 126.7523
   1498.2000  5.5662 18.5579  0.0125 17.5661 158.1788   7.0526 141.7917
   1498.3000  5.4570 18.9414 -0.0726 18.7801 150.4225   6.2716 159.4489
   1498.4000  5.4583 19.4813  0.0378 19.4544 149.1261   5.3310 187.5821
   1498.5000  5.4904 19.5933 -0.0134 20.0493 154.1945   5.1567 193.9225
   1498.6000  5.5843 19.5973 -0.0833 20.7448 162.4923   5.1506 194.1521
   1498.7000  5.6053 19.4870  0.1144 20.8252 171.0779   5.3220 187.8993
   1498.8000  5.5940 19.3781 -0.0415 20.7844 179.1399   5.4976 181.8976
   1498.9000  5.5256 19.2761 -0.0531 20.5812 186.3812   5.6682 176.4229
   1499.0000  5.5094 19.1680  0.0909 20.4857 192.3667   5.8556 170.7767
   1499.1000  5.5114 18.9700 -0.0385 20.3759 195.7086   6.2173 160.8415
   1499.2000  5.4841 18.8892 -0.0912 19.9381 195.0865   6.3720 156.9366
   1499.3000  5.4118 18.8328  0.0272 19.5558 190.1676   6.4826 154.2591
   1499.4000  5.2962 18.8105  0.0302 19.0910 181.7849   6.5269 153.2121
   1499.5000  5.1508 18.8316 -0.0986 18.6063 172.2311   6.4849 154.2044
   1499.6000  4.8291 18.8779  0.0116 17.8622 164.5541   6.3940 156.3966
   1499.7000  4.6726 18.9931  0.0134 17.6790 160.3368   6.1738 161.9748
   1499.8000  4.5310 19.0411 -0.0458 17.6026 159.8185   6.0846 164.3493
   1499.9000  4.3375 19.0674 -0.0287 17.5211 162.6274   6.0363 165.6644
   1500.0000  4.2916 19.0820 -0.0116 17.3836 166.9993   6.0097 166.3977
   1500.1000  4.2595 19.0815  0.0613 17.1254 170.8530   6.0106 166.3727
   1500.2000  4.1330 19.0692  0.0366 16.2323 172.8045   6.0330 165.7550
   1500.3000  4.0242 19.0324 -0.0720 15.6324 173.3395   6.1007 163.9156
   1500.4000  3.9142 19.0121  0.1166 14.9672 173.9474   6.1383 162.9116
   1500.5000  3.8280 19.0056 -0.0677 13.5859 175.3575   6.1505 162.5884
   1500.6000  3.8817 18.9936 -0.0827 12.9669 176.6587   6.1729 161.9984
   1500.7000  3.9796 18.9621  0.0906 12.4685 176.1463   6.2322 160.4570
   1500.8000  4.1905 18.9460 -0.0861 11.9801 172.8952   6.2628 159.6730
   1500.9000  4.2804 18.9382  0.0165 11.9897 166.8239   6.2777 159.2940
   1501.0000  4.3729 18.9372 -0.0116 12.1069 159.5103   6.2796 159.2458
   1501.1000  4.6130 18.9108 -0.0131 12.3359 153.4027   6.3302 157.9729
   1501.2000  4.7687 18.8915  0.0674 12.2926 151.0381   6.3676 157.0450
   1501.3000  4.9439 18.9053 -0.0861 12.0899 153.7511   6.3409 157.7063
   1501.4000  5.1226 18.9205  0.0961 11.7453 160.7316   6.3116 158.4384
   1501.5000  5.3849 18.9408  0.5695 10.9228 169.1329   6.2727 159.4210
   1501.6000  5.4398 19.0983 -0.5304 10.6582 175.2323   5.9802 167.2185
   1501.7000  5.4605 19.2096  0.0006 10.6260 176.7934   5.7827 172.9296
   1501.8000  5.4983 19.3251  0.0394 11.4386 172.8362   5.5855 179.0350
   1501.9000  5.5303 19.5597 -0.0677 12.2334 164.8337   5.2083 192.0012
   1502.0000  5.5570 19.7028  0.0027 13.1707 155.1613   4.9927 200.2924
   1502.1000  5.5823 19.8389  0.0119 15.0026 146.6182   4.7973 208.4506
